{"version": 0.6, "generator": "Overpass API 0.7.62.8 e802775f", "osm3s": {"timestamp_osm_base": "2025-12-12T22:12:16Z", "copyright": "The data included in this document is from www.openstreetmap.org. The data is made available under ODbL."}, "elements": [{"type": "node", "id": 2335734287, "lat": 39.3635642, "lon": -107.0339097}, {"type": "node", "id": 2335734297, "lat": 39.3632319, "lon": -107.034098}, {"type": "node", "id": 2335734308, "lat": 39.3636342, "lon": -107.0351763}, {"type": "node", "id": 2335734317, "lat": 39.3639542, "lon": -107.0349464}, {"type": "node", "id": 2454979450, "lat": 39.3564152, "lon": -107.0387648, "tags": {"amenity": "school", "name": "Basalt High School"}}, {"type": "node", "id": 2454979453, "lat": 39.3573382, "lon": -107.0381002}, {"type": "node", "id": 2454979454, "lat": 39.3573946, "lon": -107.0380509}, {"type": "node", "id": 2454979455, "lat": 39.3571959, "lon": -107.0376699}, {"type": "node", "id": 2454979456, "lat": 39.3571395, "lon": -107.0377191}, {"type": "node", "id": 2454979457, "lat": 39.3572986, "lon": -107.0377879, "tags": {"amenity": "toilets", "portable": "yes"}}, {"type": "node", "id": 7048286687, "lat": 39.3688722, "lon": -107.0346451, "tags": {"addr:city": "Basalt", "addr:housenumber": "101", "addr:street": "Midland Avenue", "amenity": "townhall", "name": "Basalt Town Hall"}}, {"type": "node", "id": 7048286689, "lat": 39.3692798, "lon": -107.0317702}, {"type": "node", "id": 8819757916, "lat": 39.357072, "lon": -107.0381767, "tags": {"amenity": "parking", "name": "Basalt High School", "network": "Basalt"}}, {"type": "node", "id": 9786496531, "lat": 39.3571465, "lon": -107.0376212}, {"type": "node", "id": 9786496532, "lat": 39.3571843, "lon": -107.0375906}, {"type": "node", "id": 9786496533, "lat": 39.3571505, "lon": -107.0375209}, {"type": "node", "id": 9786496534, "lat": 39.3571128, "lon": -107.0375515}, {"type": "node", "id": 9786496535, "lat": 39.3571942, "lon": -107.0375128, "tags": {"amenity": "bicycle_repair_station"}}, {"type": "node", "id": 9814706349, "lat": 39.3622714, "lon": -107.03302, "tags": {"addr:city": "Basalt", "addr:country": "US", "addr:housenumber": "265", "addr:postcode": "81621", "addr:state": "CO", "addr:street": "East Cody Lane", "description": "Auto body and collision repair", "name": "High Tone Auto Body Inc.", "opening_hours": "Mo-Fr 08:00-17:00", "operator": "Melissa Jones", "payment:cash": "yes", "payment:credit_cards": "yes", "phone": "+1-970-927-4351", "shop": "car_repair", "website": "https://hightoneautobody.com/"}}, {"type": "node", "id": 9843981085, "lat": 39.3685636, "lon": -107.0361392}, {"type": "node", "id": 9843981086, "lat": 39.3684836, "lon": -107.0361659}, {"type": "node", "id": 9843981087, "lat": 39.3684275, "lon": -107.036128}, {"type": "node", "id": 9843981088, "lat": 39.3683974, "lon": -107.0362027}, {"type": "node", "id": 9843981089, "lat": 39.3683246, "lon": -107.0361536}, {"type": "node", "id": 9843981090, "lat": 39.3684369, "lon": -107.0358753}, {"type": "node", "id": 9843981091, "lat": 39.3684693, "lon": -107.0358971}, {"type": "node", "id": 9843981092, "lat": 39.3684767, "lon": -107.0358787}, {"type": "node", "id": 9843981093, "lat": 39.3685186, "lon": -107.035907}, {"type": "node", "id": 9843981094, "lat": 39.3685129, "lon": -107.0359212}, {"type": "node", "id": 9843981095, "lat": 39.3685226, "lon": -107.0359699}, {"type": "node", "id": 9843981096, "lat": 39.3685293, "lon": -107.0359677}, {"type": "node", "id": 10065597717, "lat": 39.369338, "lon": -107.034144, "tags": {"amenity": "restaurant", "cuisine": "thai", "name": "Mod\u2019s Thai House"}}, {"type": "node", "id": 12051607369, "lat": 39.3689029, "lon": -107.0332546, "tags": {"amenity": "restaurant", "name": "Tempranillo"}}, {"type": "node", "id": 12192125708, "lat": 39.3689319, "lon": -107.034666, "tags": {"amenity": "polling_station", "location": "outdoor", "opening_hours": "24/7", "polling_station": "ballot_box"}}, {"type": "node", "id": 13062843864, "lat": 39.3694242, "lon": -107.0317804}, {"type": "node", "id": 13062843865, "lat": 39.3694259, "lon": -107.0317408}, {"type": "node", "id": 13062843866, "lat": 39.3694413, "lon": -107.0317419}, {"type": "node", "id": 13062843867, "lat": 39.3694452, "lon": -107.0316503}, {"type": "node", "id": 13062843868, "lat": 39.3694285, "lon": -107.0316491}, {"type": "node", "id": 13062843869, "lat": 39.3694346, "lon": -107.0315036}, {"type": "node", "id": 13062843870, "lat": 39.3692936, "lon": -107.0314937}, {"type": "node", "id": 13062843871, "lat": 39.3692861, "lon": -107.0316705}, {"type": "node", "id": 13062843872, "lat": 39.3692653, "lon": -107.0316926}, {"type": "node", "id": 13062843873, "lat": 39.369282, "lon": -107.0317188}, {"type": "way", "id": 224769428, "nodes": [2335734317, 2335734287, 2335734297, 2335734308, 2335734317], "tags": {"amenity": "parking", "name": "Basalt Park and Ride", "park_ride": "yes", "parking": "surface"}}, {"type": "way", "id": 237615755, "nodes": [2454979453, 2454979454, 2454979455, 2454979456, 2454979453], "tags": {"amenity": "parking", "name": "Basalt High School Trail Head"}}, {"type": "way", "id": 1065669440, "nodes": [9786496531, 9786496532, 9786496533, 9786496534, 9786496531], "tags": {"amenity": "shelter", "building": "yes", "shelter_type": "picnic_shelter"}}, {"type": "way", "id": 1073025021, "nodes": [9843981085, 9843981086, 9843981087, 9843981088, 9843981089, 9843981090, 9843981091, 9843981092, 9843981093, 9843981094, 9843981095, 9843981096, 9843981085], "tags": {"amenity": "restaurant", "building": "yes", "name": "Free Range Kitchen"}}, {"type": "way", "id": 1421470481, "nodes": [7048286689, 13062843864, 13062843865, 13062843866, 13062843867, 13062843868, 13062843869, 13062843870, 13062843871, 13062843872, 13062843873, 7048286689], "tags": {"addr:city": "Basalt", "addr:housenumber": "250", "addr:postcode": "81621", "addr:state": "CO", "addr:street": "Midland Avenue", "amenity": "place_of_worship", "building": "church", "denomination": "roman_catholic", "diocese": "Denver", "fax": "+1 970-704-0830", "name": "Saint Vincent Catholic Church", "note": "Mailing Address: 397 County Road 101, Carbondale, CO 81623", "phone": "+1-970-704-0820", "religion": "christian", "website": "https://stvincentstmary.com/"}}]}