{"version": 0.6, "generator": "Overpass API 0.7.62.8 e802775f", "osm3s": {"timestamp_osm_base": "2025-12-06T19:54:08Z", "copyright": "The data included in this document is from www.openstreetmap.org. The data is made available under ODbL."}, "elements": [{"type": "node", "id": 2152901648, "lat": 47.720105, "lon": -122.2944601, "tags": {"addr:city": "Seattle", "addr:housenumber": "12528", "addr:postcode": "98125", "addr:street": "Lake City Way Northeast", "leisure": "fitness_centre", "name": "Power Body", "opening_hours": "Mo-Th 05:00-19:00; Fr 05:00-15:00; Sa 08:00-12:00", "phone": "+1-206-385-6653", "source": "King County GIS;data.seattle.gov", "sport": "fitness", "website": "https://powerbodyllc.com/"}}, {"type": "node", "id": 2462452957, "lat": 47.7205098, "lon": -122.3010245, "tags": {"addr:city": "Seattle", "addr:housenumber": "12535", "addr:postcode": "98125", "addr:street": "26th Avenue Northeast", "check_date": "2024-03-10", "leisure": "fitness_centre", "name": "Seattle Gymnastics Academy Shiveley Gym", "source": "King County GIS;data.seattle.gov"}}, {"type": "node", "id": 3247340261, "lat": 47.6855765, "lon": -122.2840255, "tags": {"leisure": "fitness_centre", "name": "8 Limbs Yoga", "sport": "yoga"}}, {"type": "node", "id": 10749990968, "lat": 47.7207892, "lon": -122.2978856, "tags": {"addr:city": "Seattle", "addr:housenumber": "12549", "addr:postcode": "98125", "addr:street": "28th Avenue Northeast", "check_date": "2024-03-23", "leisure": "fitness_centre", "name": "Blosm Studio", "opening_hours": "\"by class schedule\"", "phone": "+1-616-916-4428", "sport": "yoga", "website": "https://www.blosmstudio.com/"}}, {"type": "node", "id": 10786487656, "lat": 47.7164637, "lon": -122.2973812, "tags": {"addr:city": "Seattle", "addr:housenumber": "12025", "addr:postcode": "98125", "addr:street": "Lake City Way Northeast", "check_date": "2024-04-16", "leisure": "fitness_centre", "name": "Tier 1 Body", "opening_hours": "Mo-Fr 06:00-19:00; Sa,Su 06:00-13:00", "phone": "+1-206-504-3038", "sport": "fitness", "website": "https://www.tier1body.com/"}}]}