{"version": 0.6, "generator": "Overpass API 0.7.62.8 e802775f", "osm3s": {"timestamp_osm_base": "2025-12-08T21:56:30Z", "copyright": "The data included in this document is from www.openstreetmap.org. The data is made available under ODbL."}, "elements": [{"type": "node", "id": 357970348, "lat": 45.3927251, "lon": -108.9095892, "tags": {"amenity": "place_of_worship", "denomination": "methodist", "ele": "1079", "gnis:feature_id": "1726624", "name": "Fromberg United Methodist Church", "religion": "christian"}}, {"type": "node", "id": 357970529, "lat": 45.3924473, "lon": -108.9090336, "tags": {"amenity": "post_office", "ele": "1079", "gnis:feature_id": "1726804", "name": "Fromberg Post Office"}}, {"type": "node", "id": 357970595, "lat": 45.3932806, "lon": -108.9120894, "tags": {"amenity": "school", "ele": "1084", "gnis:feature_id": "1726829", "name": "Fromberg Public Schools"}}, {"type": "node", "id": 7618173487, "lat": 45.3942537, "lon": -108.9095776}, {"type": "node", "id": 7618173488, "lat": 45.3942519, "lon": -108.9092906}, {"type": "node", "id": 7618173489, "lat": 45.3941501, "lon": -108.9092919}, {"type": "node", "id": 7618173490, "lat": 45.394152, "lon": -108.9095789}, {"type": "node", "id": 9956614115, "lat": 45.3935714, "lon": -108.9099927}, {"type": "node", "id": 9956614116, "lat": 45.3935705, "lon": -108.9098672}, {"type": "node", "id": 9956620517, "lat": 45.3934894, "lon": -108.9098683}, {"type": "node", "id": 9956620518, "lat": 45.3934903, "lon": -108.9099938}, {"type": "node", "id": 9956703218, "lat": 45.3916944, "lon": -108.9079091}, {"type": "node", "id": 9956703219, "lat": 45.3916953, "lon": -108.9078173}, {"type": "node", "id": 9956703220, "lat": 45.3914597, "lon": -108.9078127}, {"type": "node", "id": 9956703221, "lat": 45.3914588, "lon": -108.9079044}, {"type": "way", "id": 815705028, "nodes": [7618173490, 7618173487, 7618173488, 7618173489, 7618173490], "tags": {"addr:city": "Fromberg", "addr:housenumber": "202", "addr:postcode": "59029", "addr:state": "MT", "addr:street": "Montana Avenue", "amenity": "place_of_worship", "building": "church", "denomination": "roman_catholic", "description": "Administered From: Sacred Heart Church PO Box 309 Bridger, MT 59014", "diocese": "Great Falls-Billings", "ele": "1080", "gnis:feature_id": "1726625", "name": "Saint Joseph Catholic Church", "phone": "+1 406-662-3550", "religion": "christian"}}, {"type": "way", "id": 1086643515, "nodes": [9956614115, 9956614116, 9956620517, 9956620518, 9956614115], "tags": {"amenity": "casino", "building": "yes", "name": "Tomahawk Restaurant & Casino"}}, {"type": "way", "id": 1086654683, "nodes": [9956703218, 9956703219, 9956703220, 9956703221, 9956703218], "tags": {"amenity": "restaurant", "building": "yes", "name": "Two Bear Tavern"}}]}