{"version": 0.6, "generator": "Overpass API 0.7.62.8 e802775f", "osm3s": {"timestamp_osm_base": "2025-12-06T05:07:29Z", "copyright": "The data included in this document is from www.openstreetmap.org. The data is made available under ODbL."}, "elements": [{"type": "node", "id": 1433842283, "lat": 43.6023551, "lon": -111.1116528, "tags": {"addr:city": "Victor", "addr:housenumber": "5", "addr:postcode": "83455", "addr:state": "ID", "addr:street": "South Main Street", "name": "Victor Valley Market", "shop": "grocery"}}, {"type": "node", "id": 1433844350, "lat": 43.6066086, "lon": -111.1104458, "tags": {"addr:city": "Victor", "addr:housenumber": "26", "addr:postcode": "83455", "addr:state": "ID", "addr:street": "Aspen Street", "name": "Bun in the Oven & Beyond", "phone": "+1-208-787-3422", "shop": "baby_goods"}}, {"type": "node", "id": 2324925642, "lat": 43.6030525, "lon": -111.1109938, "tags": {"addr:housenumber": "20", "addr:postcode": "83455", "addr:state": "ID", "addr:street": "N Main St", "amenity": "restaurant", "cuisine": "american", "name": "The Station Grill"}}, {"type": "node", "id": 2324930359, "lat": 43.6045721, "lon": -111.1125253, "tags": {"addr:housenumber": "32", "addr:postcode": "83455", "addr:state": "ID", "addr:street": "West Birch", "amenity": "restaurant", "cuisine": "regional", "name": "Spoons Bistro"}}, {"type": "node", "id": 5829675114, "lat": 43.6066616, "lon": -111.1120608}, {"type": "node", "id": 5829675115, "lat": 43.6066625, "lon": -111.1119451}, {"type": "node", "id": 5829675116, "lat": 43.6064983, "lon": -111.1119428}, {"type": "node", "id": 5829675117, "lat": 43.6064966, "lon": -111.112062}, {"type": "node", "id": 6779791286, "lat": 43.6035353, "lon": -111.1115939, "tags": {"addr:city": "Victor", "addr:housenumber": "45", "addr:postcode": "83455", "addr:state": "ID", "addr:street": "North Main Street", "drink": "yes", "food": "no", "name": "Victor Emporium", "shop": "gift"}}, {"type": "node", "id": 6779791288, "lat": 43.6032987, "lon": -111.1115791, "tags": {"addr:city": "Victor", "addr:housenumber": "27", "addr:postcode": "83455", "addr:state": "ID", "addr:street": "North Main Street", "amenity": "restaurant", "cuisine": "american;burger", "name": "Brakeman American Grill", "opening_hours": "Tu-Su 11:30-15:30,17:00-20:00", "phone": "+1-208-787-2020", "website": "https://www.brakemangrill.com/"}}, {"type": "node", "id": 6779806467, "lat": 43.6032086, "lon": -111.1110203, "tags": {"addr:city": "Victor", "addr:housenumber": "26", "addr:postcode": "83455", "addr:state": "ID", "addr:street": "North Main Street", "name": "Victor Outdoor Seconds", "shop": "second_hand"}}, {"type": "node", "id": 6779806468, "lat": 43.6038231, "lon": -111.1116069, "tags": {"addr:city": "Victor", "addr:housenumber": "55", "addr:postcode": "83455", "addr:state": "ID", "addr:street": "North Main Street", "drinks": "coffee", "fixme": "Tagging for a place like this is hard. Piercing, espresso, and clothes?", "internet_access": "wlan", "name": "Suba Piercing, Adornment and Boutique", "shop": "yes", "website": "https://www.subaonmain.com/"}}, {"type": "node", "id": 6779806470, "lat": 43.6062739, "lon": -111.1109851, "tags": {"addr:city": "Victor", "addr:housenumber": "182", "addr:postcode": "83455", "addr:state": "ID", "addr:street": "North Main Street", "amenity": "restaurant", "cuisine": "thai", "name": "Chiang Mai Thai Kitchen"}}, {"type": "node", "id": 6779806472, "lat": 43.6023758, "lon": -111.1121334, "tags": {"amenity": "restaurant", "contact:website": "https://www.bigholebbq.com/home-1", "cuisine": "barbecue;burger;tacos;salad;sandwich", "name": "Big Hole BBQ", "opening_hours": "11:30-21:00", "phone": "+1 208-270-9919"}}, {"type": "node", "id": 6814631385, "lat": 43.6029566, "lon": -111.1149949, "tags": {"addr:city": "Victor", "addr:housenumber": "111", "addr:postcode": "83455", "addr:state": "ID", "addr:street": "West Center Street", "name": "All American Tire & Brake", "opening_hours": "Mo-Fr 09:00-18:00; Sa 09:00-16:30", "phone": "+1-208-787-8473", "shop": "car_repair"}}, {"type": "node", "id": 7705450685, "lat": 43.6021693, "lon": -111.111664, "tags": {"addr:city": "Victor", "addr:housenumber": "37", "addr:postcode": "83455", "addr:state": "ID", "addr:street": "S. Main St", "amenity": "restaurant", "cuisine": "pizza", "name": "Pinky G's Pizzeria", "phone": "+1-208-787-7465"}}, {"type": "node", "id": 7870746485, "lat": 43.6113048, "lon": -111.1076078, "tags": {"name": "Teton Valley Auto Repair", "shop": "car_repair"}}, {"type": "node", "id": 9217615282, "lat": 43.5948892, "lon": -111.1069301}, {"type": "node", "id": 9217615283, "lat": 43.5947319, "lon": -111.1067048}, {"type": "node", "id": 9217615284, "lat": 43.5946451, "lon": -111.1068204}, {"type": "node", "id": 9217615285, "lat": 43.5948024, "lon": -111.1070457}, {"type": "way", "id": 616637023, "nodes": [5829675114, 5829675115, 5829675116, 5829675117, 5829675114], "tags": {"addr:city": "Victor", "addr:housenumber": "176", "addr:postcode": "83455", "addr:state": "ID", "addr:street": "North Main Street", "building": "yes", "name": "Fitzgerald's Bicycles", "service:bicycle:bicycle": "yes", "service:bicycle:ebike": "yes", "service:bicycle:rental": "yes", "service:bicycle:repair": "yes", "service:bicycle:retail": "yes", "service:bicycle:service": "yes", "shop": "bicycle"}}, {"type": "way", "id": 998307464, "nodes": [9217615285, 9217615282, 9217615283, 9217615284, 9217615285], "tags": {"building": "commercial", "shop": "convenience"}}]}