{"version": 0.6, "generator": "Overpass API 0.7.62.8 e802775f", "osm3s": {"timestamp_osm_base": "2025-12-12T18:59:49Z", "copyright": "The data included in this document is from www.openstreetmap.org. The data is made available under ODbL."}, "elements": [{"type": "node", "id": 358945754, "lat": 38.6059028, "lon": -107.9769104, "tags": {"amenity": "school", "ele": "1642", "gnis:feature_id": "1795123", "name": "Olathe Middle School"}}, {"type": "node", "id": 358945756, "lat": 38.6073871, "lon": -107.9793581}, {"type": "node", "id": 358945758, "lat": 38.6044298, "lon": -107.9845107, "tags": {"amenity": "place_of_worship", "denomination": "methodist", "ele": "1630", "gnis:feature_id": "1795127", "name": "Olathe United Methodist Church", "religion": "christian"}}, {"type": "node", "id": 358945766, "lat": 38.6077632, "lon": -107.9861775, "tags": {"amenity": "place_of_worship", "ele": "1627", "gnis:feature_id": "1795131", "name": "Church of Christ", "religion": "christian"}}, {"type": "node", "id": 358945768, "lat": 38.6124853, "lon": -107.9831218, "tags": {"amenity": "school", "ele": "1632", "gnis:feature_id": "1795132", "name": "Olathe Elementary School"}}, {"type": "node", "id": 358945771, "lat": 38.6124853, "lon": -107.9825661, "tags": {"amenity": "place_of_worship", "denomination": "pentecostal", "ele": "1633", "gnis:feature_id": "1795133", "name": "Olathe Assembly of God", "religion": "christian"}}, {"type": "node", "id": 358945773, "lat": 38.6094297, "lon": -107.9803439, "tags": {"amenity": "place_of_worship", "denomination": "baptist", "ele": "1635", "gnis:feature_id": "1795134", "name": "Mountain Valley Baptist Church", "religion": "christian"}}, {"type": "node", "id": 358945775, "lat": 38.6063743, "lon": -107.9783994, "tags": {"amenity": "school", "ele": "1639", "gnis:feature_id": "1795135", "name": "Olathe High School"}}, {"type": "node", "id": 358946034, "lat": 38.6008298, "lon": -107.977005, "tags": {"addr:city": "Olathe", "addr:housenumber": "885", "addr:postcode": "81425", "addr:street": "South Highway 50 Business Loop", "amenity": "nursing_home", "gnis:feature_id": "1795293", "name": "Colorow Care Center", "phone": "+1-970-323-5504", "website": "http://www.vivage.com/colorow/"}}, {"type": "node", "id": 358946039, "lat": 38.6063743, "lon": -107.9872886, "tags": {"amenity": "place_of_worship", "denomination": "baptist", "ele": "1627", "gnis:feature_id": "1795294", "name": "First Baptist Church", "religion": "christian"}}, {"type": "node", "id": 366394778, "lat": 38.6049203, "lon": -107.9829564}, {"type": "node", "id": 366395955, "lat": 38.6055196, "lon": -107.9834214}, {"type": "node", "id": 3199383791, "lat": 38.6049747, "lon": -107.977807, "tags": {"amenity": "fuel"}}, {"type": "node", "id": 4325619926, "lat": 38.6060757, "lon": -107.9975176, "tags": {"amenity": "pub", "brewery": "yes", "craft": "brewery", "name": "Mountain View Winery"}}, {"type": "node", "id": 6419727444, "lat": 38.6063641, "lon": -107.9850867, "tags": {"entrance": "main"}}, {"type": "node", "id": 6419727446, "lat": 38.6063631, "lon": -107.9851211}, {"type": "node", "id": 6419727447, "lat": 38.6063935, "lon": -107.9851226}, {"type": "node", "id": 6419727448, "lat": 38.6063927, "lon": -107.9851508}, {"type": "node", "id": 6419727449, "lat": 38.6065853, "lon": -107.9851598}, {"type": "node", "id": 6419727450, "lat": 38.6065888, "lon": -107.9850368}, {"type": "node", "id": 6419727451, "lat": 38.6063949, "lon": -107.9850278}, {"type": "node", "id": 6419727452, "lat": 38.6063942, "lon": -107.9850506}, {"type": "node", "id": 6419727453, "lat": 38.6063652, "lon": -107.9850492}, {"type": "node", "id": 11060301969, "lat": 38.60503, "lon": -107.9838517, "tags": {"amenity": "drinking_water"}}, {"type": "node", "id": 12193496368, "lat": 38.6049493, "lon": -107.982811}, {"type": "node", "id": 12193496369, "lat": 38.6051114, "lon": -107.9827712}, {"type": "node", "id": 12193496370, "lat": 38.604949, "lon": -107.9827733}, {"type": "node", "id": 12193496371, "lat": 38.6051137, "lon": -107.9830694}, {"type": "node", "id": 12193496372, "lat": 38.6049212, "lon": -107.9830718}, {"type": "node", "id": 12193496373, "lat": 38.6047939, "lon": -107.982958}, {"type": "node", "id": 12193496374, "lat": 38.6047927, "lon": -107.982813}, {"type": "node", "id": 12193496381, "lat": 38.6074599, "lon": -107.9790863, "tags": {"amenity": "post_box"}}, {"type": "node", "id": 12193496382, "lat": 38.6073864, "lon": -107.9794641}, {"type": "node", "id": 12193496383, "lat": 38.607639, "lon": -107.9794669}, {"type": "node", "id": 12193496384, "lat": 38.6076397, "lon": -107.9793609}, {"type": "node", "id": 12193496385, "lat": 38.6073286, "lon": -107.9794635}, {"type": "node", "id": 12193496386, "lat": 38.6073293, "lon": -107.9793575}, {"type": "node", "id": 12193496387, "lat": 38.6076596, "lon": -107.9793611}, {"type": "node", "id": 12193496388, "lat": 38.6076589, "lon": -107.9794671}, {"type": "node", "id": 12193496389, "lat": 38.60764, "lon": -107.9793014}, {"type": "node", "id": 12193496390, "lat": 38.6073875, "lon": -107.9792987}, {"type": "node", "id": 12193496391, "lat": 38.607386, "lon": -107.9795191}, {"type": "node", "id": 12193496392, "lat": 38.6076386, "lon": -107.9795219}, {"type": "node", "id": 12193500979, "lat": 38.6054311, "lon": -107.983331, "tags": {"amenity": "polling_station", "location": "indoor", "opening_hours": "Mo,Th 07:00-06:00", "polling_station": "ballot_box"}}, {"type": "node", "id": 12193500980, "lat": 38.6055778, "lon": -107.9834993}, {"type": "node", "id": 12193500981, "lat": 38.6055781, "lon": -107.9834218}, {"type": "node", "id": 12193500982, "lat": 38.6055202, "lon": -107.983281}, {"type": "node", "id": 12193500983, "lat": 38.6053914, "lon": -107.9832802}, {"type": "node", "id": 12193500984, "lat": 38.6053905, "lon": -107.9834981}, {"type": "way", "id": 685131323, "nodes": [6419727453, 6419727452, 6419727451, 6419727450, 6419727449, 6419727448, 6419727447, 6419727446, 6419727444, 6419727453], "tags": {"addr:city": "Olathe", "addr:housenumber": "207", "addr:postcode": "81425", "addr:state": "CO", "addr:street": "Main Street", "amenity": "place_of_worship", "building": "church", "denomination": "roman_catholic", "description": "A mission of Saint Mary Catholic Church in Montrose, CO", "diocese": "Pueblo", "ele": "1628", "gnis:feature_id": "1795130", "name": "Our Lady of Fatima Catholic Church", "phone": "+1 970-249-3319", "religion": "christian", "website": "https://www.stmarymontrose.org/our-lady-of-fatima-mission.html"}}, {"type": "way", "id": 1317471934, "nodes": [366395955, 12193500982, 12193500983, 12193500984, 12193500980, 12193500981, 366395955], "tags": {"addr:state": "CO", "amenity": "townhall", "building": "yes", "ele": "1630", "gnis:feature_id": "1795125", "name": "Olathe Town Hall"}}, {"type": "way", "id": 1317472819, "nodes": [12193496369, 12193496370, 12193496368, 12193496374, 12193496373, 366394778, 12193496372, 12193496371, 12193496369], "tags": {"addr:state": "CO", "amenity": "fire_station", "building": "fire_station", "ele": "1631", "gnis:feature_id": "1795126", "name": "Olathe Volunteer Fire Department"}}, {"type": "way", "id": 1317472822, "nodes": [12193496382, 12193496391, 12193496392, 12193496383, 12193496388, 12193496387, 12193496384, 12193496389, 12193496390, 358945756, 12193496386, 12193496385, 12193496382], "tags": {"amenity": "post_office", "building": "yes", "gnis:feature_id": "1795124", "name": "Olathe Post Office"}}]}