{"version": 0.6, "generator": "Overpass API 0.7.62.8 e802775f", "osm3s": {"timestamp_osm_base": "2025-12-06T19:49:01Z", "copyright": "The data included in this document is from www.openstreetmap.org. The data is made available under ODbL."}, "elements": [{"type": "node", "id": 4320033224, "lat": 47.6207463, "lon": -117.4039964}, {"type": "node", "id": 4320033225, "lat": 47.6207453, "lon": -117.4033094}, {"type": "node", "id": 4320033226, "lat": 47.6200886, "lon": -117.4033115}, {"type": "node", "id": 4320033227, "lat": 47.6200894, "lon": -117.4038796}, {"type": "node", "id": 4320033228, "lat": 47.6199829, "lon": -117.40388}, {"type": "node", "id": 4320033229, "lat": 47.619983, "lon": -117.4039987}, {"type": "node", "id": 4812524398, "lat": 47.6204796, "lon": -117.4013678}, {"type": "node", "id": 4812524399, "lat": 47.6204796, "lon": -117.4013951}, {"type": "node", "id": 4812524400, "lat": 47.6204131, "lon": -117.4013955}, {"type": "node", "id": 4812524401, "lat": 47.6204138, "lon": -117.4016193}, {"type": "node", "id": 4812524402, "lat": 47.6204453, "lon": -117.4016657}, {"type": "node", "id": 4812524403, "lat": 47.6205456, "lon": -117.4016651}, {"type": "node", "id": 4812524404, "lat": 47.6205447, "lon": -117.4013673}, {"type": "way", "id": 433111620, "nodes": [4320033224, 4320033225, 4320033226, 4320033227, 4320033228, 4320033229, 4320033224], "tags": {"addr:city": "Spokane", "addr:housenumber": "510", "addr:postcode": "99203", "addr:state": "WA", "addr:street": "East 37th Avenue", "building": "construction", "building:levels": "1", "construction": "retail", "leisure": "fitness_centre", "name": "MUV"}}, {"type": "way", "id": 488964517, "nodes": [4812524404, 4812524403, 4812524402, 4812524401, 4812524400, 4812524399, 4812524398, 4812524404], "tags": {"addr:city": "Spokane", "addr:housenumber": "3717", "addr:postcode": "99203", "addr:state": "WA", "addr:street": "South Grand Boulevard", "brand": "Snap Fitness", "brand:wikidata": "Q7547254", "building": "retail", "building:levels": "1", "check_date": "2023-07-01", "leisure": "fitness_centre", "name": "Snap Fitness", "opening_hours": "Mo-Th 09:00-18:00; Fr,Sa 10:00-14:00", "website": "https://www.snapfitness.com/us/gyms/spokane-south-hill-wa"}}]}