{"version": 0.6, "generator": "Overpass API 0.7.62.8 e802775f", "osm3s": {"timestamp_osm_base": "2025-12-12T17:02:35Z", "copyright": "The data included in this document is from www.openstreetmap.org. The data is made available under ODbL."}, "elements": [{"type": "node", "id": 2805036541, "lat": 40.5531941, "lon": -105.0941066}, {"type": "node", "id": 2805036554, "lat": 40.5533149, "lon": -105.0942678}, {"type": "node", "id": 2805036555, "lat": 40.5533356, "lon": -105.0942409}, {"type": "node", "id": 2805036575, "lat": 40.5535148, "lon": -105.09448}, {"type": "node", "id": 2805036577, "lat": 40.5535704, "lon": -105.0936181}, {"type": "node", "id": 2805036590, "lat": 40.553664, "lon": -105.0938015}, {"type": "node", "id": 2805036593, "lat": 40.5536862, "lon": -105.0937727}, {"type": "node", "id": 2805036594, "lat": 40.553685, "lon": -105.094259}, {"type": "node", "id": 2805036597, "lat": 40.5537282, "lon": -105.0942019}, {"type": "node", "id": 2805036598, "lat": 40.5537176, "lon": -105.0943025}, {"type": "node", "id": 2805036704, "lat": 40.5537612, "lon": -105.0942459}, {"type": "node", "id": 2805036726, "lat": 40.5538478, "lon": -105.0940467}, {"type": "node", "id": 4458731895, "lat": 40.5364223, "lon": -105.0799255}, {"type": "node", "id": 4458731896, "lat": 40.5364221, "lon": -105.0797054}, {"type": "node", "id": 4458731897, "lat": 40.5364549, "lon": -105.0797053}, {"type": "node", "id": 4458731899, "lat": 40.5365853, "lon": -105.0796267}, {"type": "node", "id": 4458731900, "lat": 40.5365855, "lon": -105.0797867}, {"type": "node", "id": 4458731901, "lat": 40.5365328, "lon": -105.0797867}, {"type": "node", "id": 4458731902, "lat": 40.5365329, "lon": -105.0799253}, {"type": "node", "id": 4620925608, "lat": 40.5364548, "lon": -105.0796269}, {"type": "node", "id": 5871240142, "lat": 40.5638085, "lon": -105.0775845, "tags": {"leisure": "fitness_centre", "name": "State of Fitness"}}, {"type": "node", "id": 6422043269, "lat": 40.541662, "lon": -105.076401, "tags": {"addr:city": "Fort Collins", "addr:state": "CO", "addr:street": "South College Avenue", "leisure": "fitness_centre", "name": "yogapod", "sport": "yoga"}}, {"type": "node", "id": 6422043272, "lat": 40.5418235, "lon": -105.0764, "tags": {"addr:city": "Fort Collins", "addr:state": "CO", "addr:street": "South College Avenue", "brand": "CycleBar", "brand:wikidata": "Q121459827", "leisure": "fitness_centre", "name": "CycleBar", "sport": "cycling"}}, {"type": "node", "id": 6442051812, "lat": 40.5498827, "lon": -105.077861, "tags": {"addr:city": "Fort Collins", "addr:housenumber": "2721", "addr:postcode": "80525", "addr:state": "CO", "addr:street": "South College Avenue", "addr:unit": "3", "instagram": "https://www.instagram.com/themvmntapothecary/p/DEoDhsYyiTV", "leisure": "fitness_centre", "name": "Mvmnt Apothecary", "sport": "yoga"}}, {"type": "node", "id": 6450731385, "lat": 40.5498827, "lon": -105.0784333, "tags": {"brand": "Jazzercise", "brand:wikidata": "Q6168434", "leisure": "fitness_centre", "name": "Jazzercise"}}, {"type": "node", "id": 6476699482, "lat": 40.5601786, "lon": -105.0792033, "tags": {"addr:city": "Fort Collins", "addr:housenumber": "2111", "addr:postcode": "80525", "addr:state": "CO", "addr:street": "South College Avenue", "addr:suite": "G", "contact:phone": "+1-970-482-5601", "contact:website": "https://mcmahonbjj.com/", "leisure": "fitness_centre", "name": "McMahon Training Center", "survey:date": "2025-11-26"}}, {"type": "node", "id": 6495429947, "lat": 40.5496682, "lon": -105.0766164, "tags": {"leisure": "fitness_centre", "name": "CrossFit DNR", "sport": "exercise", "website": "https://crossfitdnr.com/"}}, {"type": "node", "id": 6551847657, "lat": 40.5541984, "lon": -105.091837, "tags": {"addr:city": "Fort Collins", "addr:housenumber": "814", "addr:postcode": "80526", "addr:state": "CO", "addr:street": "West Drake Road", "branch": "Fort Collins", "brand": "Anytime Fitness", "brand:wikidata": "Q4778364", "leisure": "fitness_centre", "name": "Anytime Fitness", "opening_hours": "24/7", "phone": "+1 970-223-2248", "ref": "69", "website": "https://www.anytimefitness.com/gyms/69/fort-collins-co-80526/"}}, {"type": "node", "id": 7140271867, "lat": 40.5466625, "lon": -105.0781414, "tags": {"leisure": "fitness_centre", "name": "Kerley's Fitness"}}, {"type": "node", "id": 7202025112, "lat": 40.5578205, "lon": -105.078433, "tags": {"brand": "Crunch Fitness", "brand:wikidata": "Q5190093", "leisure": "fitness_centre", "name": "Crunch Fitness"}}, {"type": "node", "id": 7202025115, "lat": 40.5647051, "lon": -105.0775531, "tags": {"leisure": "fitness_centre", "name": "Prodigy Gym"}}, {"type": "node", "id": 7360232808, "lat": 40.5524431, "lon": -105.097522, "tags": {"amenity": "dojo", "leisure": "sports_hall", "name": "Tran's Martial Arts", "sport": "martial_arts"}}, {"type": "node", "id": 7508766596, "lat": 40.5627804, "lon": -105.096705, "tags": {"healthcare": "alternative", "leisure": "fitness_centre", "name": "Be Free Healing Center", "sport": "yoga", "website": "https://www.befreehealing.com/"}}, {"type": "node", "id": 8733043727, "lat": 40.5362338, "lon": -105.0752838, "tags": {"addr:unit": "104", "leisure": "fitness_centre", "name": "Big Toe Pilates", "website": "https://www.bigtoestudio.biz"}}, {"type": "node", "id": 11240070173, "lat": 40.5389207, "lon": -105.079338, "tags": {"leisure": "fitness_centre", "name": "Vertical Fusion", "sport": "pole_dance", "website": "https://verticalfusionftcollins.com/"}}, {"type": "node", "id": 11754195940, "lat": 40.5505957, "lon": -105.0765694, "tags": {"brand": "CorePower Yoga", "brand:wikidata": "Q21015663", "leisure": "fitness_centre", "name": "CorePower Yoga", "sport": "yoga"}}, {"type": "node", "id": 11754195946, "lat": 40.5506751, "lon": -105.076556, "tags": {"addr:housenumber": "2700", "addr:street": "South College Avenue", "addr:unit": "180", "leisure": "fitness_centre", "name": "Board30 Fitness", "phone": "+1-970-227-7822", "website": "https://board30fortcollins.com/"}}, {"type": "way", "id": 275833964, "nodes": [2805036575, 2805036594, 2805036598, 2805036704, 2805036597, 2805036726, 2805036590, 2805036593, 2805036577, 2805036541, 2805036554, 2805036555, 2805036575], "tags": {"addr:city": "Fort Collins", "addr:housenumber": "932", "addr:postcode": "80526", "addr:state": "CO", "addr:street": "West Drake Road", "building": "yes", "leisure": "fitness_centre", "name": "Alive by Raintree Athletic Club", "phone": "+1-970-305-4800", "website": "https://alivebyraintree.com"}}, {"type": "way", "id": 448901269, "nodes": [4458731895, 4458731896, 4458731897, 4620925608, 4458731899, 4458731900, 4458731901, 4458731902, 4458731895], "tags": {"addr:city": "Fort Collins", "addr:housenumber": "3713", "addr:postcode": "80525", "addr:state": "CO", "addr:street": "South Mason Street", "building": "yes", "contact:phone": "+1-970-819-7143", "contact:website": "https://manictraining.com/", "leisure": "fitness_centre", "name": "Manic Training", "source": "https://manictraining.com/location/fort-collins-co/"}}]}