{"version": 0.6, "generator": "Overpass API 0.7.62.8 e802775f", "osm3s": {"timestamp_osm_base": "2025-12-05T21:54:55Z", "copyright": "The data included in this document is from www.openstreetmap.org. The data is made available under ODbL."}, "elements": [{"type": "node", "id": 357977036, "lat": 47.5055749, "lon": -111.8104415, "tags": {"addr:housenumber": "13356", "entrance": "yes"}}, {"type": "node", "id": 6964495265, "lat": 47.5033917, "lon": -111.814981}, {"type": "node", "id": 6964495280, "lat": 47.5054564, "lon": -111.8103565}, {"type": "node", "id": 6964561014, "lat": 47.5033929, "lon": -111.8151824}, {"type": "node", "id": 6964561031, "lat": 47.5055144, "lon": -111.8102706}, {"type": "node", "id": 6964561043, "lat": 47.5031262, "lon": -111.8151859}, {"type": "node", "id": 6964561059, "lat": 47.5056024, "lon": -111.8104007}, {"type": "node", "id": 6964561069, "lat": 47.503125, "lon": -111.8149845}, {"type": "node", "id": 6964561084, "lat": 47.5055444, "lon": -111.8104866}, {"type": "way", "id": 744145029, "nodes": [6964495265, 6964561014, 6964561043, 6964561069, 6964495265], "tags": {"addr:city": "Fort Shaw", "addr:housenumber": "13327", "addr:postcode": "59443", "addr:state": "MT", "addr:street": "MT 200", "amenity": "place_of_worship", "building": "church", "denomination": "roman_catholic", "diocese": "Great Falls-Billings", "ele": "1068", "gnis:feature_id": "1761817", "name": "Saint Ann Catholic Church", "phone": "+1 406-264-5554", "religion": "christian", "website": "https://fortshawcatholic.com"}}, {"type": "way", "id": 744145034, "nodes": [6964495280, 6964561031, 6964561059, 357977036, 6964561084, 6964495280], "tags": {"amenity": "post_office", "building": "yes", "ele": "1068", "gnis:feature_id": "1762435", "name": "Fort Shaw Post Office", "phone": "+1-406-264-5496"}}]}