{"version": 0.6, "generator": "Overpass API 0.7.62.8 e802775f", "osm3s": {"timestamp_osm_base": "2025-11-03T03:17:39Z", "copyright": "The data included in this document is from www.openstreetmap.org. The data is made available under ODbL."}, "elements": [{"type": "node", "id": 8142966592, "lat": 40.41951, "lon": -74.7205429}, {"type": "node", "id": 8142966593, "lat": 40.4185391, "lon": -74.720331}, {"type": "node", "id": 8142966594, "lat": 40.4184063, "lon": -74.7211249}, {"type": "node", "id": 8142966595, "lat": 40.4184788, "lon": -74.721365}, {"type": "node", "id": 8142966596, "lat": 40.4193967, "lon": -74.7216211}, {"type": "way", "id": 874759055, "nodes": [8142966596, 8142966595, 8142966594, 8142966593, 8142966592, 8142966596], "tags": {"addr:city": "Montgomery", "addr:housenumber": "15", "addr:postcode": "08558", "addr:state": "NJ", "addr:street": "Camp Meeting Avenue", "leisure": "park", "name": "Bessie Grover Park"}}]}