{"version": 0.6, "generator": "Overpass API 0.7.62.8 e802775f", "osm3s": {"timestamp_osm_base": "2025-12-13T00:28:11Z", "copyright": "The data included in this document is from www.openstreetmap.org. The data is made available under ODbL."}, "elements": [{"type": "node", "id": 1305381951, "lat": 40.0206998, "lon": -105.2520264, "tags": {"addr:housenumber": "3151", "addr:street": "Walnut Street", "leisure": "fitness_centre", "name": "Fit Tec", "website": "https://fittecboulderco.com/"}}, {"type": "node", "id": 2310496635, "lat": 40.0190999, "lon": -105.2556297, "tags": {"addr:city": "Boulder", "addr:housenumber": "1850", "addr:postcode": "80301", "addr:state": "CO", "addr:street": "29th Street", "brand": "Orangetheory Fitness", "brand:wikidata": "Q25005163", "leisure": "fitness_centre", "level": "0", "name": "Orangetheory Fitness", "phone": "+1 303-530-9663", "ref": "1752"}}, {"type": "node", "id": 2699345563, "lat": 40.0175841, "lon": -105.2246591, "tags": {"addr:city": "Boulder", "addr:housenumber": "1880", "addr:postcode": "80302", "addr:street": "55th Street", "leisure": "fitness_centre", "name": "Colorado Powersports", "opening_hours": "Mo-Fr 10:00-18:00; Sa 09:00-17:00", "phone": "+1-303-447-3500", "website": "https://www.copowersports.com/"}}, {"type": "node", "id": 3868466567, "lat": 40.0187428, "lon": -105.254918, "tags": {"addr:city": "Boulder", "addr:housenumber": "1821", "addr:postcode": "80301", "addr:state": "CO", "addr:street": "30th Street", "leisure": "fitness_centre", "name": "Colorado Athletic Club Boulder", "sport": "fitness;swimming"}}, {"type": "node", "id": 4395033271, "lat": 40.0162605, "lon": -105.253181, "tags": {"addr:city": "Boulder", "addr:housenumber": "1664", "addr:postcode": "80303", "addr:street": "30th Street", "leisure": "fitness_centre", "name": "Stretchlab", "opening_hours": "Mo 09:00-16:00; Tu-Th 09:00-19:00; Fr,Sa 09:00-15:00", "phone": "+1-720-738-3875", "website": "https://www.stretchlab.com/location/boulder"}}, {"type": "node", "id": 4481039502, "lat": 40.0143233, "lon": -105.2502338, "tags": {"addr:unit": "D", "leisure": "fitness_centre", "name": "Cryo Fusion", "opening_hours": "Mo-Fr 09:00-20:00; Sa 10:00-16:00; Su 12:00-16:00", "website": "http://cryofusionco.com/"}}, {"type": "node", "id": 6403169192, "lat": 40.0195372, "lon": -105.2532251, "tags": {"leisure": "fitness_centre", "name": "Yoga Pod", "sport": "yoga", "website": "https://www.yogapod.com/boulder/"}}, {"type": "node", "id": 6403191729, "lat": 40.0206484, "lon": -105.251939, "tags": {"addr:housenumber": "3161", "addr:street": "Walnut Street", "leisure": "fitness_centre", "name": "Kondition Fitness", "website": "https://www.konditionfitness.com/"}}, {"type": "node", "id": 6467409290, "lat": 40.0230673, "lon": -105.2571838, "tags": {"addr:unit": "C", "leisure": "fitness_centre", "name": "KOA Fit", "website": "https://koafitusa.com/"}}, {"type": "node", "id": 7962402500, "lat": 39.9986124, "lon": -105.2349519, "tags": {"addr:unit": "D206", "leisure": "fitness_centre", "level": "1", "name": "Kaiut Yoga Boulder", "sport": "yoga", "website": "https://www.kaiutyogaboulder.com/"}}, {"type": "node", "id": 10731789604, "lat": 40.0232478, "lon": -105.2373585, "tags": {"addr:unit": "J", "check_date:opening_hours": "2023-03-12", "leisure": "fitness_centre", "name": "Boulder Crossfit", "website": "https://bouldercrossfit.com"}}, {"type": "node", "id": 13055499304, "lat": 40.022639, "lon": -105.2485653, "tags": {"addr:city": "Boulder", "addr:housenumber": "3550", "addr:postcode": "80301", "addr:state": "CO", "addr:street": "Frontier Avenue", "addr:unit": "D", "leisure": "fitness_centre", "name": "Black Lab Sports", "sport": "fitness"}}]}