{"version": 0.6, "generator": "Overpass API 0.7.62.8 e802775f", "osm3s": {"timestamp_osm_base": "2025-12-06T04:37:40Z", "copyright": "The data included in this document is from www.openstreetmap.org. The data is made available under ODbL."}, "elements": [{"type": "node", "id": 6013664967, "lat": 45.8116732, "lon": -108.422388, "tags": {"amenity": "cafe", "name": "Hits The Spot"}}, {"type": "node", "id": 8317060483, "lat": 45.81124, "lon": -108.4166053, "tags": {"amenity": "restaurant", "name": "Jin's Buffet"}}, {"type": "node", "id": 8317060506, "lat": 45.8108003, "lon": -108.4163543, "tags": {"name": "Castle Arms", "shop": "weapons"}}, {"type": "node", "id": 8317060515, "lat": 45.8108924, "lon": -108.414374, "tags": {"addr:city": "Lockwood", "addr:housenumber": "700", "addr:postcode": "59101", "addr:state": "MT", "addr:street": "Johnson Lane", "alt_name": "Verizon Wireless", "brand": "Verizon", "brand:wikidata": "Q919641", "name": "Verizon", "shop": "mobile_phone"}}, {"type": "node", "id": 8317060525, "lat": 45.8104453, "lon": -108.4151064, "tags": {"addr:city": "Lockwood", "addr:housenumber": "678", "addr:postcode": "59101", "addr:state": "MT", "addr:street": "Johnson Lane", "brand": "Ace Hardware", "brand:wikidata": "Q4672981", "name": "Ace Hardware", "opening_hours": "Mo 08:00-19:00; Tu-Th 07:30-20:00; Fr-Sa 08:00-19:00; Su 09:00-18:00", "phone": "+1 406-656-1447", "ref": "16338", "shop": "doityourself"}}, {"type": "node", "id": 8317060526, "lat": 45.8129134, "lon": -108.415193, "tags": {"brand": "Town Pump", "brand:wikidata": "Q7830004", "name": "Town Pump", "shop": "convenience"}}, {"type": "node", "id": 8317060530, "lat": 45.8120677, "lon": -108.4130698, "tags": {"name": "Casey's Corner", "shop": "convenience"}}, {"type": "node", "id": 8317060593, "lat": 45.8109624, "lon": -108.419585, "tags": {"name": "Schwan's Home Services", "shop": "health_food"}}, {"type": "node", "id": 8317060594, "lat": 45.8105281, "lon": -108.4205711, "tags": {"name": "Whalen Tire", "shop": "tyres"}}, {"type": "node", "id": 8317060595, "lat": 45.8103451, "lon": -108.420993, "tags": {"name": "GFK Trailer Sales", "shop": "caravan"}}, {"type": "node", "id": 8317080185, "lat": 45.8134619, "lon": -108.410401, "tags": {"amenity": "cafe", "name": "Yellowstone Coffee and Canvas"}}, {"type": "node", "id": 8317080726, "lat": 45.8170449, "lon": -108.4080463, "tags": {"name": "Bretz RV and Marine", "shop": "caravan"}}, {"type": "node", "id": 8317080805, "lat": 45.8163482, "lon": -108.416662, "tags": {"brand": "Town Pump", "brand:wikidata": "Q7830004", "name": "Town Pump", "shop": "convenience"}}, {"type": "node", "id": 8317086910, "lat": 45.8121536, "lon": -108.4143281, "tags": {"amenity": "cafe", "name": "Classy N' Sassy Coffee"}}, {"type": "node", "id": 8645503214, "lat": 45.811106, "lon": -108.4066317, "tags": {"addr:city": "Lockwood", "addr:housenumber": "728", "addr:postcode": "59101", "addr:state": "MT", "addr:street": "Starlight Drive", "name": "Ricochet Custom Firearms and Gunsmith", "opening_hours": "Mo-Fr 8:00-18:00", "shop": "weapons"}}, {"type": "node", "id": 8695152705, "lat": 45.8142364, "lon": -108.4127795}, {"type": "node", "id": 8695152706, "lat": 45.8147057, "lon": -108.4123651}, {"type": "node", "id": 9359320882, "lat": 45.8141431, "lon": -108.4126955}, {"type": "node", "id": 9359320883, "lat": 45.8142687, "lon": -108.4116312}, {"type": "node", "id": 9359320884, "lat": 45.8147443, "lon": -108.4116204}, {"type": "node", "id": 9359320885, "lat": 45.8147397, "lon": -108.4123428}, {"type": "node", "id": 9359324901, "lat": 45.8143652, "lon": -108.4116288, "tags": {"barrier": "gate"}}, {"type": "way", "id": 1014457548, "nodes": [8695152706, 8695152705, 9359320882, 9359320883, 9359324901, 9359320884, 9359320885, 8695152706], "tags": {"shop": "storage_rental"}}]}