{"version": 0.6, "generator": "Overpass API 0.7.62.8 e802775f", "osm3s": {"timestamp_osm_base": "2025-12-06T05:45:42Z", "copyright": "The data included in this document is from www.openstreetmap.org. The data is made available under ODbL."}, "elements": [{"type": "node", "id": 3219154686, "lat": 43.4656612, "lon": -114.2611236, "tags": {"addr:city": "Bellevue", "addr:housenumber": "120", "addr:postcode": "83313", "addr:state": "ID", "addr:street": "N Main Street", "amenity": "cafe", "cuisine": "coffee_shop", "internet_access": "yes", "name": "Giddy-Up Coffee & Kitchen", "opening_hours": "Mo-Fr 06:00-14:00; Sa-Su 07:00-14:00", "phone": "+1-208-788-2396", "smoking": "no"}}, {"type": "node", "id": 3219177569, "lat": 43.4636939, "lon": -114.2602678, "tags": {"addr:city": "Bellevue", "addr:housenumber": "201", "addr:postcode": "83313", "addr:state": "ID", "addr:street": "South Main Street", "amenity": "fuel", "name": "Guffy's", "opening_hours": "05:00-23:00", "shop": "convenience"}}, {"type": "node", "id": 3219188490, "lat": 43.4646692, "lon": -114.2607104, "tags": {"addr:city": "Bellevue", "addr:housenumber": "101", "addr:postcode": "83313", "addr:state": "ID", "addr:street": "S Main Street", "amenity": "bar", "name": "Silver Dollar Saloon", "note": "Free shuttle home Friday and Saturday nights", "opening_hours": "12:00-02:00", "phone": "+1-208-788-2900", "smoking": "outside"}}, {"type": "node", "id": 3219193380, "lat": 43.464496, "lon": -114.2612495, "tags": {"addr:city": "Bellevue", "addr:housenumber": "104", "addr:postcode": "83313", "addr:state": "ID", "addr:street": "S Main Street", "amenity": "restaurant", "cuisine": "burger", "name": "Mahoney's Bar and Grill", "opening_hours": "11:30-22:00", "phone": "+1-208-788-4449", "smoking": "outside", "website": "https://mahoneysbarandgrill.com/"}}, {"type": "node", "id": 3219201846, "lat": 43.4666648, "lon": -114.2615326, "tags": {"addr:city": "Bellevue", "addr:housenumber": "218", "addr:postcode": "83313", "addr:state": "ID", "addr:street": "N Main Street", "name": "NAPA Auto Parts", "opening_hours": "Mo-Fr 08:00-18:00, Sa 09:00-14:00, Su closed", "phone": "+1-208-788-5721", "shop": "car_parts", "website": "https://www.napaonline.com/id/bellevue"}}, {"type": "node", "id": 3219209876, "lat": 43.4678522, "lon": -114.2628107, "tags": {"addr:city": "Bellevue", "addr:housenumber": "401", "addr:postcode": "83313", "addr:state": "ID", "addr:street": "N Main Street", "amenity": "restaurant", "cuisine": "breakfast;lunch;american", "name": "Brandie's Kitchen", "opening_hours": "Mo-Fr 06:30-14:00; Sa,Su 06:30-15:00", "phone": "+1-208-788-9002", "smoking": "outside", "website": "http://www.brandieskitchen.com/ordereze/default.aspx"}}, {"type": "node", "id": 6336129386, "lat": 43.4515252, "lon": -114.2539705, "tags": {"addr:city": "Bellevue", "addr:housenumber": "110", "addr:postcode": "83313", "addr:state": "ID", "addr:street": "Honeysuckle", "name": "Clearwater Power Equipment", "phone": "+1-208-788-7894", "shop": "groundskeeping", "website": "https://www.clearwaterpowerequipment.com/"}}, {"type": "node", "id": 12181035066, "lat": 43.4741648, "lon": -114.2664808}, {"type": "node", "id": 12181035067, "lat": 43.4740835, "lon": -114.2667049}, {"type": "node", "id": 12181035068, "lat": 43.4741377, "lon": -114.266761}, {"type": "node", "id": 12181035069, "lat": 43.4740564, "lon": -114.2669851}, {"type": "node", "id": 12181035070, "lat": 43.4735684, "lon": -114.2666302}, {"type": "node", "id": 12181035071, "lat": 43.4736972, "lon": -114.2661726}, {"type": "way", "id": 1316027740, "nodes": [12181035066, 12181035067, 12181035068, 12181035069, 12181035070, 12181035071, 12181035066], "tags": {"addr:city": "Bellevue", "addr:housenumber": "757", "addr:postcode": "83313", "addr:state": "ID", "addr:street": "North Main Street", "building": "retail", "name": "Atkinson's Grocery", "opening_hours": "Mo-Su 07:00-20:00", "phone": "+1-208-788-7788", "shop": "supermarket", "website": "https://www.atkinsons.com/FindUs.aspx"}}]}