{"version": 0.6, "generator": "Overpass API 0.7.62.8 e802775f", "osm3s": {"timestamp_osm_base": "2025-12-06T21:00:41Z", "copyright": "The data included in this document is from www.openstreetmap.org. The data is made available under ODbL."}, "elements": [{"type": "node", "id": 3655101738, "lat": 47.6559773, "lon": -117.2287158}, {"type": "node", "id": 3655101739, "lat": 47.6559765, "lon": -117.2279048}, {"type": "node", "id": 3655101740, "lat": 47.6563372, "lon": -117.2286448}, {"type": "node", "id": 3655101741, "lat": 47.6563354, "lon": -117.2279648}, {"type": "node", "id": 9285033371, "lat": 47.656305, "lon": -117.2279038}, {"type": "node", "id": 9285033372, "lat": 47.6563042, "lon": -117.2287138}, {"type": "node", "id": 9285033373, "lat": 47.656304, "lon": -117.2286448}, {"type": "node", "id": 9285033374, "lat": 47.6563058, "lon": -117.2279648}, {"type": "node", "id": 9301401383, "lat": 47.6750101, "lon": -117.215327, "tags": {"brand": "Pure Barre", "brand:wikidata": "Q86707084", "leisure": "fitness_centre", "name": "Pure Barre", "sport": "barre"}}, {"type": "node", "id": 9787650244, "lat": 47.658759, "lon": -117.2038339}, {"type": "node", "id": 9787650245, "lat": 47.658758, "lon": -117.2036027}, {"type": "node", "id": 9787650246, "lat": 47.658742, "lon": -117.2036027}, {"type": "node", "id": 9787650247, "lat": 47.6587388, "lon": -117.2032732}, {"type": "node", "id": 9787650248, "lat": 47.6587548, "lon": -117.2032748}, {"type": "node", "id": 9787650249, "lat": 47.6587526, "lon": -117.2029232}, {"type": "node", "id": 9787650250, "lat": 47.6582598, "lon": -117.2029279}, {"type": "node", "id": 9787650251, "lat": 47.6582598, "lon": -117.2030309}, {"type": "node", "id": 9787650252, "lat": 47.6582278, "lon": -117.2030277}, {"type": "node", "id": 9787650253, "lat": 47.6582299, "lon": -117.2030942}, {"type": "node", "id": 9787650254, "lat": 47.6582139, "lon": -117.2030927}, {"type": "node", "id": 9787650255, "lat": 47.6582139, "lon": -117.2031734}, {"type": "node", "id": 9787650256, "lat": 47.6582299, "lon": -117.203175}, {"type": "node", "id": 9787650257, "lat": 47.6582395, "lon": -117.2038402}, {"type": "node", "id": 9831253308, "lat": 47.656374, "lon": -117.2382107}, {"type": "node", "id": 9831253309, "lat": 47.6563733, "lon": -117.2380036}, {"type": "node", "id": 9831253310, "lat": 47.6560249, "lon": -117.2380047}, {"type": "node", "id": 9831253311, "lat": 47.6560219, "lon": -117.2382174}, {"type": "node", "id": 10676749296, "lat": 47.6567188, "lon": -117.2266663, "tags": {"addr:city": "Spokane Valley", "addr:housenumber": "13220", "addr:postcode": "99216", "addr:state": "WA", "addr:street": "East Sprague Avenue", "leisure": "fitness_centre", "name": "9 Rounds", "opening_hours": "Mo-Fr 06:00-13:00,15:00-19:00; Sa 07:00-12:00", "phone": "+1-509-241-3736", "sport": "kick_boxing", "website": "https://www.9round.com/"}}, {"type": "node", "id": 11582838660, "lat": 47.6559239, "lon": -117.2138281, "tags": {"leisure": "fitness_centre"}}, {"type": "way", "id": 360972821, "nodes": [3655101741, 9285033374, 9285033371, 3655101739, 3655101738, 9285033372, 9285033373, 3655101740, 3655101741], "tags": {"brand": "Planet Fitness", "brand:wikidata": "Q7201095", "building": "yes", "leisure": "fitness_centre", "name": "Planet Fitness"}}, {"type": "way", "id": 1065811954, "nodes": [9787650244, 9787650245, 9787650246, 9787650247, 9787650248, 9787650249, 9787650250, 9787650251, 9787650252, 9787650253, 9787650254, 9787650255, 9787650256, 9787650257, 9787650244], "tags": {"addr:city": "Spokane Valley", "addr:housenumber": "14927", "addr:postcode": "99216", "addr:state": "WA", "addr:street": "East Sprague Avenue", "brand": "MUV Fitness", "brand:wikidata": "Q126371577", "building": "yes", "leisure": "fitness_centre", "name": "Muv Fitness", "opening_hours": "Mo-Th 05:00-23:00; Fr 05:00-22:00; Sa,Su 06:00-20:00", "phone": "+1-509-926-1241", "website": "https://www.muvfitness.com/spokane-valley/"}}, {"type": "way", "id": 1071304280, "nodes": [9831253308, 9831253309, 9831253310, 9831253311, 9831253308], "tags": {"addr:city": "Spokane Valley", "addr:housenumber": "12403", "addr:state": "WA", "addr:street": "East 1st Avenue", "building": "yes", "leisure": "fitness_centre", "name": "Crossfit"}}]}