{"version": 0.6, "generator": "Overpass API 0.7.62.8 e802775f", "osm3s": {"timestamp_osm_base": "2025-11-08T19:37:02Z", "copyright": "The data included in this document is from www.openstreetmap.org. The data is made available under ODbL."}, "elements": [{"type": "node", "id": 5474507225, "lat": 39.28431, "lon": -89.106592, "tags": {"leisure": "park", "name": "Oconee Park"}}, {"type": "node", "id": 5474510779, "lat": 39.2886229, "lon": -89.1093382, "tags": {"addr:city": "Oconee", "addr:postcode": "62553", "addr:state": "IL", "addr:street": "North 2nd Street", "leisure": "park", "name": "Lions Club Park"}}, {"type": "node", "id": 5474530779, "lat": 39.2884913, "lon": -89.1101201}, {"type": "node", "id": 5474530780, "lat": 39.2885224, "lon": -89.109283}, {"type": "node", "id": 5474530781, "lat": 39.2896524, "lon": -89.1091959}, {"type": "node", "id": 5474530782, "lat": 39.2896697, "lon": -89.1099831}, {"type": "node", "id": 5474530783, "lat": 39.2894691, "lon": -89.110063}, {"type": "node", "id": 5477050966, "lat": 39.2838479, "lon": -89.1056705}, {"type": "node", "id": 5477050967, "lat": 39.28383, "lon": -89.1068887}, {"type": "node", "id": 5477050968, "lat": 39.2844626, "lon": -89.1068579}, {"type": "node", "id": 5477050970, "lat": 39.2844575, "lon": -89.105686}, {"type": "way", "id": 569168194, "nodes": [5474530779, 5474530780, 5474530781, 5474530782, 5474530783, 5474530779], "tags": {"leisure": "park", "name": "Lions Club Park"}}, {"type": "way", "id": 569512162, "nodes": [5477050966, 5477050967, 5477050968, 5477050970, 5477050966], "tags": {"leisure": "park", "name": "Oconee Park"}}]}