{"version": 0.6, "generator": "Overpass API 0.7.62.8 e802775f", "osm3s": {"timestamp_osm_base": "2025-12-06T05:54:54Z", "copyright": "The data included in this document is from www.openstreetmap.org. The data is made available under ODbL."}, "elements": [{"type": "node", "id": 5037189814, "lat": 44.1152519, "lon": -115.9718602}, {"type": "node", "id": 5037189815, "lat": 44.1151461, "lon": -115.9718976}, {"type": "node", "id": 5037189816, "lat": 44.1151756, "lon": -115.9720596}, {"type": "node", "id": 5037189817, "lat": 44.1161654, "lon": -115.9697062}, {"type": "node", "id": 5037189819, "lat": 44.1158575, "lon": -115.9692931}, {"type": "node", "id": 5037189825, "lat": 44.1162015, "lon": -115.9692917}, {"type": "node", "id": 5037189826, "lat": 44.1162031, "lon": -115.9693951}, {"type": "node", "id": 5037189827, "lat": 44.1161655, "lon": -115.9694082}, {"type": "node", "id": 9600717794, "lat": 44.1158584, "lon": -115.9697071}, {"type": "node", "id": 12411492660, "lat": 44.1152814, "lon": -115.9720222}, {"type": "way", "id": 515893371, "nodes": [12411492660, 5037189814, 5037189815, 5037189816, 12411492660], "tags": {"addr:city": "Crouch", "addr:housenumber": "44", "addr:postcode": "83622", "addr:state": "ID", "addr:street": "Roark Lane", "building": "yes", "name": "Garden Valley Chamber of Commerce", "office": "government", "opening_hours": "Mo-Sa 08:00-20:00"}}, {"type": "way", "id": 515893373, "nodes": [5037189817, 9600717794, 5037189819, 5037189825, 5037189826, 5037189827, 5037189817], "tags": {"addr:city": "Crouch", "addr:housenumber": "284", "addr:postcode": "83622", "addr:state": "ID", "addr:street": "Village Circle", "building": "yes", "name": "Garden Valley Market", "opening_hours": "Mo-Su 06:00-22:00", "shop": "supermarket"}}]}