{"version": 0.6, "generator": "Overpass API 0.7.62.8 e802775f", "osm3s": {"timestamp_osm_base": "2025-12-12T23:13:35Z", "copyright": "The data included in this document is from www.openstreetmap.org. The data is made available under ODbL."}, "elements": [{"type": "node", "id": 2297786249, "lat": 40.4149501, "lon": -104.9074602, "tags": {"addr:housenumber": "28607", "addr:postcode": "80550", "addr:street": "County Road 17", "cheese": "cow", "name": "Cozy Cow Dairy", "shop": "dairy", "website": "http://cozycows.com"}}, {"type": "node", "id": 3364561315, "lat": 40.4089541, "lon": -104.8703948}, {"type": "node", "id": 3364561348, "lat": 40.4092462, "lon": -104.871567}, {"type": "node", "id": 3364561371, "lat": 40.4095709, "lon": -104.8709796}, {"type": "node", "id": 3364561377, "lat": 40.4086232, "lon": -104.8709769}, {"type": "node", "id": 8235833809, "lat": 40.4054875, "lon": -104.862379, "tags": {"addr:city": "Greeley", "addr:housenumber": "11521", "addr:postcode": "80634", "addr:state": "CO", "addr:street": "21st Street", "name": "The Great Outdoors RV", "opening_hours": "Mo-Sa 09:00-14:00", "payment:cash": "yes", "payment:credit_cards": "yes", "payment:debit_cards": "yes", "payment:mastercard": "yes", "payment:visa": "yes", "phone": "+1-970-313-4337", "second_hand": "yes", "service:vehicle:accessories": "yes", "service:vehicle:car_parts": "yes", "service:vehicle:car_repair": "yes", "shop": "caravan", "website": "https://www.tgorv.com/"}}, {"type": "way", "id": 329565985, "nodes": [3364561348, 3364561377, 3364561315, 3364561371, 3364561348], "tags": {"amenity": "parking", "capacity": "140", "fee": "no", "name": "Greeley Park-n-Ride", "park_ride": "yes", "parking": "surface", "source": "Bing", "supervised": "no", "surface": "asphalt"}}]}