{"version": 0.6, "generator": "Overpass API 0.7.62.8 e802775f", "osm3s": {"timestamp_osm_base": "2025-12-06T22:41:44Z", "copyright": "The data included in this document is from www.openstreetmap.org. The data is made available under ODbL."}, "elements": [{"type": "node", "id": 6828562814, "lat": 47.8129272, "lon": -122.2431735}, {"type": "node", "id": 6828562815, "lat": 47.8129916, "lon": -122.2429142}, {"type": "node", "id": 6828562816, "lat": 47.8129266, "lon": -122.2428785}, {"type": "node", "id": 6828562838, "lat": 47.812704, "lon": -122.2428206}, {"type": "node", "id": 6828562839, "lat": 47.8126537, "lon": -122.243023}, {"type": "node", "id": 7147747839, "lat": 47.8127193, "lon": -122.2427619}, {"type": "way", "id": 765285239, "nodes": [6828562814, 6828562839, 6828562838, 7147747839, 6828562816, 6828562815, 6828562814], "tags": {"addr:city": "Lynnwood", "addr:housenumber": "20425", "addr:postcode": "98036", "addr:state": "WA", "addr:street": "Damson Road", "building:part": "yes", "leisure": "fitness_centre", "name": "Elementary Gymnasium", "opening_hours": "Mo-Fr 08:00-17:00", "phone": "+1-425-431-7604", "sport": "All"}}]}