{"version": 0.6, "generator": "Overpass API 0.7.62.8 e802775f", "osm3s": {"timestamp_osm_base": "2025-12-13T00:25:08Z", "copyright": "The data included in this document is from www.openstreetmap.org. The data is made available under ODbL."}, "elements": [{"type": "node", "id": 4090232804, "lat": 39.8038976, "lon": -105.4957288}, {"type": "node", "id": 4090232805, "lat": 39.8040666, "lon": -105.4955651}, {"type": "node", "id": 4090232806, "lat": 39.8041119, "lon": -105.4957824}, {"type": "node", "id": 4090232807, "lat": 39.8042459, "lon": -105.4963752}, {"type": "node", "id": 4090232808, "lat": 39.8041923, "lon": -105.4964449}, {"type": "node", "id": 4090232809, "lat": 39.8041243, "lon": -105.4964476}, {"type": "node", "id": 4090232810, "lat": 39.8040604, "lon": -105.4963457}, {"type": "node", "id": 4090232811, "lat": 39.8040068, "lon": -105.496056}, {"type": "node", "id": 5512519116, "lat": 39.8001311, "lon": -105.4998232}, {"type": "node", "id": 5512519117, "lat": 39.8001926, "lon": -105.4996906}, {"type": "node", "id": 5512519150, "lat": 39.8001356, "lon": -105.4996874}, {"type": "node", "id": 5512519151, "lat": 39.8001881, "lon": -105.4998264}, {"type": "way", "id": 406988939, "nodes": [4090232804, 4090232805, 4090232806, 4090232807, 4090232808, 4090232809, 4090232810, 4090232811, 4090232804], "tags": {"leisure": "park", "name": "Mountain Life Park"}}, {"type": "way", "id": 574211476, "nodes": [5512519151, 5512519117, 5512519150, 5512519116, 5512519151], "tags": {"addr:city": "Black Hawk", "addr:housenumber": "400", "addr:postcode": "80422", "addr:state": "CO", "addr:street": "Gregory Street", "building": "yes", "leisure": "park", "name": "Mountain City Historic Park"}}]}