{"version": 0.6, "generator": "Overpass API 0.7.62.8 e802775f", "osm3s": {"timestamp_osm_base": "2025-12-06T04:35:42Z", "copyright": "The data included in this document is from www.openstreetmap.org. The data is made available under ODbL."}, "elements": [{"type": "node", "id": 3480240968, "lat": 48.3939336, "lon": -107.0852933, "tags": {"amenity": "bar", "name": "Stoghie's Bar and Grill"}}, {"type": "node", "id": 7038330446, "lat": 48.3933962, "lon": -107.0882079}, {"type": "node", "id": 7038330447, "lat": 48.3934035, "lon": -107.0882028}, {"type": "node", "id": 7038330448, "lat": 48.393341, "lon": -107.0882464}, {"type": "node", "id": 7038330449, "lat": 48.3933941, "lon": -107.0884194}, {"type": "node", "id": 7038330450, "lat": 48.3934763, "lon": -107.0884396}, {"type": "node", "id": 7038330868, "lat": 48.3940112, "lon": -107.0847951}, {"type": "node", "id": 7038330869, "lat": 48.3939561, "lon": -107.084612}, {"type": "node", "id": 7038330870, "lat": 48.3938693, "lon": -107.0846733}, {"type": "node", "id": 7038330871, "lat": 48.3939209, "lon": -107.0848563}, {"type": "node", "id": 7045524822, "lat": 48.3934137, "lon": -107.0884832}, {"type": "way", "id": 753279821, "nodes": [7038330450, 7038330447, 7038330446, 7038330448, 7038330449, 7045524822, 7038330450], "tags": {"amenity": "restaurant", "building": "yes", "cuisine": "barbecue", "name": "Pot Luck Cafe", "opening_hours": "Th-Su 08:00-08:00", "phone": "+1-406-942-2107"}}, {"type": "way", "id": 753279907, "nodes": [7038330871, 7038330868, 7038330869, 7038330870, 7038330871], "tags": {"addr:city": "Hinsdale", "addr:housenumber": "235", "addr:postcode": "59241", "addr:state": "MT", "addr:street": "Montana Street", "amenity": "restaurant", "building": "yes", "cuisine": "coffee_shop;ice_cream", "name": "Sweet Memories", "opening_hours": "Tu-Sa 07:00-17:00", "phone": "+1-406-364-2128"}}]}