{"version": 0.6, "generator": "Overpass API 0.7.62.8 e802775f", "osm3s": {"timestamp_osm_base": "2025-12-07T00:30:19Z", "copyright": "The data included in this document is from www.openstreetmap.org. The data is made available under ODbL."}, "elements": [{"type": "node", "id": 356541713, "lat": 47.4153567, "lon": -122.0051455}, {"type": "node", "id": 721781017, "lat": 47.4197938, "lon": -121.9728129}, {"type": "node", "id": 721781018, "lat": 47.415634, "lon": -121.973007}, {"type": "node", "id": 2774542243, "lat": 47.4199512, "lon": -121.97305, "tags": {"amenity": "fuel", "brand": "76", "brand:wikidata": "Q1658320", "check_date": "2024-12-15", "name": "76"}}, {"type": "node", "id": 2774546156, "lat": 47.4222074, "lon": -121.9733938}, {"type": "node", "id": 2774546158, "lat": 47.4222109, "lon": -121.9735973}, {"type": "node", "id": 2774546159, "lat": 47.4224457, "lon": -121.9733849}, {"type": "node", "id": 2774546160, "lat": 47.4224492, "lon": -121.9735884}, {"type": "node", "id": 2912458161, "lat": 47.4198088, "lon": -121.9725213}, {"type": "node", "id": 2912458162, "lat": 47.4200418, "lon": -121.972429}, {"type": "node", "id": 2912458163, "lat": 47.4200358, "lon": -121.9725467}, {"type": "node", "id": 2912458164, "lat": 47.4200806, "lon": -121.9728451}, {"type": "node", "id": 2912458165, "lat": 47.4201017, "lon": -121.9724358}, {"type": "node", "id": 5003365320, "lat": 47.4092033, "lon": -121.9941662}, {"type": "node", "id": 5003367221, "lat": 47.4091924, "lon": -121.9921009}, {"type": "node", "id": 5003367222, "lat": 47.408196, "lon": -121.9921124}, {"type": "node", "id": 5003367223, "lat": 47.4082069, "lon": -121.9941777}, {"type": "node", "id": 5003367306, "lat": 47.4141896, "lon": -122.005167}, {"type": "node", "id": 5003367307, "lat": 47.4141986, "lon": -122.0062396}, {"type": "node", "id": 5003367308, "lat": 47.4153657, "lon": -122.0062181}, {"type": "node", "id": 6021216393, "lat": 47.4200636, "lon": -121.9728488, "tags": {"amenity": "polling_station", "check_date": "2024-12-15", "contact:email": "elections@kingcounty.gov", "contact:facebook": "https://www.facebook.com/kcelections", "contact:instagram": "https://www.instagram.com/kcelections/", "contact:phone": "+1-206-296-8683", "contact:phone:tollfree": "+1-800-325-6165", "contact:tty": "711", "contact:twitter": "https://twitter.com/KCElections", "contact:website": "https://kingcounty.gov/depts/elections.aspx", "contact:youtube": "https://www.youtube.com/user/kingcountyelections/", "opening_hours:url": "https://www.kingcounty.gov/depts/elections/how-to-vote/ballots/returning-my-ballot/ballot-drop-boxes.aspx", "operator": "King County Elections", "polling_station": "ballot_box"}}, {"type": "node", "id": 6151171277, "lat": 47.415634, "lon": -121.972838}, {"type": "node", "id": 6151171279, "lat": 47.415752, "lon": -121.973007}, {"type": "node", "id": 6151171280, "lat": 47.415752, "lon": -121.972838}, {"type": "node", "id": 8176991920, "lat": 47.4155578, "lon": -121.9732359}, {"type": "node", "id": 8176991921, "lat": 47.4155527, "lon": -121.9729028}, {"type": "node", "id": 8176991922, "lat": 47.4152548, "lon": -121.9729127}, {"type": "node", "id": 8176991923, "lat": 47.4152599, "lon": -121.9732459}, {"type": "node", "id": 9083000516, "lat": 47.4200438, "lon": -121.972761, "tags": {"amenity": "post_office", "check_date": "2024-12-15", "name": "Hobart Post Office", "operator": "United States Postal Service", "operator:short": "USPS", "operator:type": "public", "operator:website": "https://www.usps.com", "operator:wikidata": "Q668687", "operator:wikipedia": "en:United States Postal Service", "short_name": "USPS"}}, {"type": "node", "id": 10656095978, "lat": 47.4222087, "lon": -121.9734676}, {"type": "node", "id": 10656095979, "lat": 47.4222097, "lon": -121.9735283}, {"type": "node", "id": 10656095980, "lat": 47.4221893, "lon": -121.9734683}, {"type": "node", "id": 10656095981, "lat": 47.4221903, "lon": -121.973529}, {"type": "way", "id": 272519663, "nodes": [2774546160, 2774546159, 2774546156, 10656095978, 10656095980, 10656095981, 10656095979, 2774546158, 2774546160], "tags": {"addr:city": "Maple Valley", "addr:housenumber": "27524", "addr:postcode": "98038", "addr:state": "WA", "addr:street": "Southeast 200th Street", "amenity": "place_of_worship", "building": "yes", "check_date": "2024-12-15", "name": "Hobart Community Church", "religion": "christian"}}, {"type": "way", "id": 287675745, "nodes": [2912458164, 721781017, 2912458161, 2912458163, 2912458162, 2912458165, 2912458164], "tags": {"addr:city": "Maple Valley", "addr:housenumber": "20250", "addr:postcode": "98038", "addr:state": "WA", "addr:street": "276th Avenue Southeast", "building": "yes", "check_date": "2024-12-15", "name": "Hobart Food Market", "shop": "convenience"}}, {"type": "way", "id": 511524928, "nodes": [5003367223, 5003365320, 5003367221, 5003367222, 5003367223], "tags": {"amenity": "place_of_worship", "religion": "christian"}}, {"type": "way", "id": 511524941, "nodes": [5003367308, 356541713, 5003367306, 5003367307, 5003367308], "tags": {"amenity": "grave_yard", "ele": "160", "gnis:feature_id": "1510056", "landuse": "cemetery", "name": "Maple Valley Hobart Cemetery"}}, {"type": "way", "id": 656680099, "nodes": [721781018, 6151171277, 6151171280, 6151171279, 721781018], "tags": {"addr:city": "Maple Valley", "addr:housenumber": "27605", "addr:postcode": "98038", "addr:state": "WA", "addr:street": "Southeast 208th Street", "amenity": "fire_station", "building": "yes", "name": "King County Fire Department Station 43"}}, {"type": "way", "id": 878970064, "nodes": [8176991920, 8176991921, 8176991922, 8176991923, 8176991920], "tags": {"amenity": "parking"}}]}