{"version": 0.6, "generator": "Overpass API 0.7.62.8 e802775f", "osm3s": {"timestamp_osm_base": "2025-11-09T03:12:49Z", "copyright": "The data included in this document is from www.openstreetmap.org. The data is made available under ODbL."}, "elements": [{"type": "node", "id": 5266660557, "lat": 39.146441, "lon": -84.0073118, "tags": {"leisure": "park", "name": "Marathon Park Sign"}}, {"type": "node", "id": 5266919442, "lat": 39.1476414, "lon": -84.0060196}, {"type": "node", "id": 5266919443, "lat": 39.1463355, "lon": -84.007038}, {"type": "node", "id": 5266919445, "lat": 39.1460643, "lon": -84.0073668}, {"type": "node", "id": 5266962382, "lat": 39.1464672, "lon": -84.0076258}, {"type": "node", "id": 5282006077, "lat": 39.1468838, "lon": -84.0069781}, {"type": "node", "id": 8964146619, "lat": 39.1471227, "lon": -84.0068826}, {"type": "node", "id": 8964146620, "lat": 39.1469056, "lon": -84.0067975}, {"type": "node", "id": 8964146621, "lat": 39.1468613, "lon": -84.0069689}, {"type": "node", "id": 8964146622, "lat": 39.1470801, "lon": -84.0070585}, {"type": "node", "id": 12674542801, "lat": 39.1462927, "lon": -84.0075234}, {"type": "node", "id": 12674542802, "lat": 39.148051, "lon": -84.0082778}, {"type": "node", "id": 12674542803, "lat": 39.1471696, "lon": -84.0079129}, {"type": "node", "id": 12674542804, "lat": 39.1466427, "lon": -84.0077144}, {"type": "way", "id": 544901907, "nodes": [5266962382, 12674542804, 12674542803, 12674542802, 5266919442, 5266919443, 5266919445, 12674542801, 5266962382], "tags": {"addr:city": "Williamsburg", "addr:country": "US", "addr:housenumber": "5464", "addr:postcode": "45176", "addr:state": "OH", "addr:street": "Marathon-Edenton Road", "leisure": "park", "name": "Marathon Park", "operator": "Jackson Township", "operator:type": "public"}}, {"type": "way", "id": 968907532, "nodes": [8964146619, 8964146620, 8964146621, 5282006077, 8964146622, 8964146619], "tags": {"hoops": "2", "leisure": "pitch", "lit": "no", "name": "Marathon Park Basketball Court", "sport": "basketball", "surface": "asphalt"}}]}