{"version": 0.6, "generator": "Overpass API 0.7.62.8 e802775f", "osm3s": {"timestamp_osm_base": "2025-12-06T04:28:26Z", "copyright": "The data included in this document is from www.openstreetmap.org. The data is made available under ODbL."}, "elements": [{"type": "node", "id": 7092871759, "lat": 45.7591639, "lon": -111.319276}, {"type": "node", "id": 7092873517, "lat": 45.7591894, "lon": -111.3167586}, {"type": "node", "id": 7092873518, "lat": 45.7582704, "lon": -111.3167931}, {"type": "node", "id": 8165380431, "lat": 45.7582432, "lon": -111.3193302}, {"type": "node", "id": 8165380432, "lat": 45.7592276, "lon": -111.3175278}, {"type": "node", "id": 8165380433, "lat": 45.7593623, "lon": -111.3176941}, {"type": "node", "id": 8165380434, "lat": 45.7594184, "lon": -111.3179355}, {"type": "node", "id": 8165380435, "lat": 45.7594708, "lon": -111.3181876}, {"type": "node", "id": 8165380436, "lat": 45.759497, "lon": -111.3183432}, {"type": "node", "id": 8165380437, "lat": 45.7594371, "lon": -111.3184612}, {"type": "node", "id": 8165380438, "lat": 45.7591602, "lon": -111.3184934}, {"type": "node", "id": 8165380439, "lat": 45.7591752, "lon": -111.318885}, {"type": "way", "id": 877607858, "nodes": [7092871759, 8165380431, 7092873518, 7092873517, 8165380432, 8165380433, 8165380434, 8165380435, 8165380436, 8165380437, 8165380438, 8165380439, 7092871759], "tags": {"addr:city": "Amsterdam-Churchill", "addr:housenumber": "6605", "addr:postcode": "59741", "addr:state": "MT", "addr:street": "Amsterdam Road", "brand": "Chevrolet", "brand:wikidata": "Q29570", "name": "Danhoff Chevrolet", "payment:cash": "yes", "payment:credit_cards": "yes", "phone": "+1 406-282-7831", "second_hand": "yes", "service:vehicle:car_repair": "yes", "service:vehicle:new_car_sales": "yes", "shop": "car"}}]}