{"version": 0.6, "generator": "Overpass API 0.7.62.8 e802775f", "osm3s": {"timestamp_osm_base": "2025-12-13T00:27:11Z", "copyright": "The data included in this document is from www.openstreetmap.org. The data is made available under ODbL."}, "elements": [{"type": "node", "id": 2077153725, "lat": 38.9395109, "lon": -104.762552}, {"type": "node", "id": 2077153805, "lat": 38.9396197, "lon": -104.7619213}, {"type": "node", "id": 2077153845, "lat": 38.9398272, "lon": -104.7619227}, {"type": "node", "id": 2077153877, "lat": 38.9398321, "lon": -104.7625531}, {"type": "node", "id": 2077153898, "lat": 38.9395145, "lon": -104.7619206}, {"type": "node", "id": 2077153955, "lat": 38.9397104, "lon": -104.7618816}, {"type": "node", "id": 2077153961, "lat": 38.9397102, "lon": -104.761922}, {"type": "node", "id": 2077153963, "lat": 38.9396198, "lon": -104.761881}, {"type": "node", "id": 7139668035, "lat": 38.9328676, "lon": -104.7405721, "tags": {"addr:city": "Colorado Springs", "addr:housenumber": "6945", "addr:postcode": "80923", "addr:state": "CO", "addr:street": "Austin Bluffs Parkway", "branch": "Colorado Springs", "brand": "Anytime Fitness", "brand:wikidata": "Q4778364", "leisure": "fitness_centre", "name": "Anytime Fitness", "opening_hours": "Mo-Fr 10:00-18:00; Sa 08:00-12:00", "phone": "+1 719-284-5200", "ref": "4280", "website": "https://www.anytimefitness.com/gyms/4280/colorado-springs-co-80923/"}}, {"type": "node", "id": 7154788365, "lat": 38.957839, "lon": -104.7672641, "tags": {"leisure": "fitness_centre"}}, {"type": "node", "id": 7154948712, "lat": 38.9395141, "lon": -104.7620205}, {"type": "node", "id": 7159624126, "lat": 38.9215004, "lon": -104.7394238, "tags": {"leisure": "fitness_centre", "name": "CrossFit Controlled Chaos"}}, {"type": "node", "id": 7472610346, "lat": 38.939514, "lon": -104.7620932}, {"type": "node", "id": 7472610349, "lat": 38.9395132, "lon": -104.7621815}, {"type": "node", "id": 7472610350, "lat": 38.9395125, "lon": -104.7622722}, {"type": "node", "id": 7472610352, "lat": 38.9395125, "lon": -104.7624473}, {"type": "way", "id": 197476183, "nodes": [2077153898, 2077153805, 2077153963, 2077153955, 2077153961, 2077153845, 2077153877, 2077153725, 7472610352, 7472610350, 7472610349, 7472610346, 7154948712, 2077153898], "tags": {"addr:city": "Colorado Springs", "addr:housenumber": "3536", "addr:postcode": "80920", "addr:state": "CO", "addr:street": "Hartsel Drive", "building": "yes", "leisure": "fitness_centre", "name": "Aerial's Gymnastics", "source": "Bing"}}]}