{"version": 0.6, "generator": "Overpass API 0.7.62.8 e802775f", "osm3s": {"timestamp_osm_base": "2025-12-06T04:24:23Z", "copyright": "The data included in this document is from www.openstreetmap.org. The data is made available under ODbL."}, "elements": [{"type": "node", "id": 7865626042, "lat": 45.4845704, "lon": -108.9708018}, {"type": "node", "id": 8090949827, "lat": 45.4846237, "lon": -108.9708414}, {"type": "node", "id": 8090949828, "lat": 45.4845463, "lon": -108.9710521}, {"type": "node", "id": 8090949829, "lat": 45.4844904, "lon": -108.9710119}, {"type": "node", "id": 8243199483, "lat": 45.481885, "lon": -108.97903}, {"type": "node", "id": 8243199484, "lat": 45.481666, "lon": -108.978899}, {"type": "node", "id": 8243199485, "lat": 45.481652, "lon": -108.978946}, {"type": "node", "id": 8243199486, "lat": 45.481596, "lon": -108.978913}, {"type": "node", "id": 8243199487, "lat": 45.481658, "lon": -108.978706}, {"type": "node", "id": 8243199488, "lat": 45.481728, "lon": -108.978748}, {"type": "node", "id": 8243199489, "lat": 45.481713, "lon": -108.978798}, {"type": "node", "id": 8243199490, "lat": 45.481828, "lon": -108.978867}, {"type": "node", "id": 8243199491, "lat": 45.481893, "lon": -108.978648}, {"type": "node", "id": 8243199492, "lat": 45.481982, "lon": -108.978702}, {"type": "node", "id": 8245549752, "lat": 45.486653, "lon": -108.971785}, {"type": "node", "id": 8245549753, "lat": 45.486476, "lon": -108.971674}, {"type": "node", "id": 8245549754, "lat": 45.48654, "lon": -108.971467}, {"type": "node", "id": 8245549755, "lat": 45.486717, "lon": -108.971579}, {"type": "node", "id": 8245549756, "lat": 45.486674, "lon": -108.97172}, {"type": "node", "id": 8245549757, "lat": 45.486673, "lon": -108.97172}, {"type": "node", "id": 8245568719, "lat": 45.4846519, "lon": -108.9700156}, {"type": "node", "id": 8245568720, "lat": 45.4847193, "lon": -108.9700661}, {"type": "node", "id": 8245568721, "lat": 45.4846471, "lon": -108.9702584}, {"type": "node", "id": 8245568722, "lat": 45.4845797, "lon": -108.9702079}, {"type": "node", "id": 8245568804, "lat": 45.4849879, "lon": -108.9711279, "tags": {"amenity": "restaurant", "cuisine": "pizza", "name": "Jane Dough's Pizza", "phone": "+1-406-962-3000"}}, {"type": "node", "id": 8245568806, "lat": 45.4848619, "lon": -108.9710715, "tags": {"addr:city": "Joliet", "addr:housenumber": "105", "addr:postbox": "PO Box 247", "addr:postcode": "59041", "addr:state": "MT", "addr:street": "South Main street", "email": "dave@engelscoachshop.com", "name": "Engels Coach Shop", "shop": "gift", "website": "https://engelscoachshop.com/"}}, {"type": "node", "id": 8245568811, "lat": 45.4849731, "lon": -108.9706702, "tags": {"amenity": "bar", "name": "Frontier Bar"}}, {"type": "node", "id": 8245568813, "lat": 45.4846787, "lon": -108.9704533, "tags": {"name": "Trash and Treasures", "shop": "antiques"}}, {"type": "node", "id": 8245568814, "lat": 45.4844662, "lon": -108.970761, "tags": {"name": "Beartooth Insurance", "office": "insurance"}}, {"type": "node", "id": 8245585285, "lat": 45.4840282, "lon": -108.9704304, "tags": {"name": "Rowli's Food Farm", "shop": "supermarket"}}, {"type": "node", "id": 8245610869, "lat": 45.4865907, "lon": -108.9715962, "tags": {"name": "Joliet Public Works Shop", "office": "government"}}, {"type": "way", "id": 868023059, "nodes": [7865626042, 8090949827, 8090949828, 8090949829, 7865626042], "tags": {"amenity": "bar", "building": "yes", "name": "J Bar & Grill"}}, {"type": "way", "id": 886507181, "nodes": [8243199483, 8243199484, 8243199485, 8243199486, 8243199487, 8243199488, 8243199489, 8243199490, 8243199491, 8243199492, 8243199483], "tags": {"amenity": "bar", "building": "yes", "name": "212 Bar & Grill", "source": "microsoft/BuildingFootprints"}}, {"type": "way", "id": 886745765, "nodes": [8245549752, 8245549753, 8245549754, 8245549755, 8245549756, 8245549757, 8245549752], "tags": {"building": "yes", "office": "government", "source": "microsoft/BuildingFootprints"}}, {"type": "way", "id": 886748828, "nodes": [8245568719, 8245568720, 8245568721, 8245568722, 8245568719], "tags": {"building": "yes", "office": "government", "source": "microsoft/BuildingFootprints"}}]}