{"version": 0.6, "generator": "Overpass API 0.7.62.8 e802775f", "osm3s": {"timestamp_osm_base": "2025-12-06T04:19:16Z", "copyright": "The data included in this document is from www.openstreetmap.org. The data is made available under ODbL."}, "elements": [{"type": "node", "id": 1276573454, "lat": 46.8308713, "lon": -114.0478268}, {"type": "node", "id": 1276573530, "lat": 46.8322354, "lon": -114.0465333}, {"type": "node", "id": 1276573613, "lat": 46.8314487, "lon": -114.0460016}, {"type": "node", "id": 1276573776, "lat": 46.8316323, "lon": -114.0482123}, {"type": "node", "id": 3968909515, "lat": 46.8308916, "lon": -114.0479135}, {"type": "node", "id": 3968909517, "lat": 46.8309877, "lon": -114.0478687}, {"type": "node", "id": 3968909518, "lat": 46.831013, "lon": -114.0477963}, {"type": "node", "id": 3968909519, "lat": 46.8311866, "lon": -114.0481733}, {"type": "node", "id": 3968909520, "lat": 46.8312543, "lon": -114.0479594}, {"type": "node", "id": 3968909521, "lat": 46.8313709, "lon": -114.0482978}, {"type": "node", "id": 3968909522, "lat": 46.8314392, "lon": -114.0480818}, {"type": "node", "id": 3968909523, "lat": 46.8319101, "lon": -114.0473341}, {"type": "node", "id": 3968909524, "lat": 46.8319693, "lon": -114.0473741}, {"type": "node", "id": 6122650845, "lat": 46.8348834, "lon": -114.018085}, {"type": "node", "id": 6122650846, "lat": 46.8347442, "lon": -114.0180838}, {"type": "node", "id": 6122650847, "lat": 46.8347453, "lon": -114.0178086}, {"type": "node", "id": 6122650848, "lat": 46.8348846, "lon": -114.0178098}, {"type": "node", "id": 7579417189, "lat": 46.8321793, "lon": -114.0464954}, {"type": "node", "id": 7638889426, "lat": 46.8353948, "lon": -114.0151647, "tags": {"beauty": "hair;nails;skin_care;massage", "brand": "Sola Salons", "brand:wikidata": "Q64337426", "name": "Sola Salons", "shop": "beauty"}}, {"type": "node", "id": 7638889460, "lat": 46.8349117, "lon": -114.0151503, "tags": {"name": "Fresh Natural Cleaners", "shop": "dry_cleaning"}}, {"type": "node", "id": 7638889461, "lat": 46.8349742, "lon": -114.0151499, "tags": {"brand": "H&R Block", "brand:wikidata": "Q5627799", "name": "H&R Block", "office": "tax_advisor"}}, {"type": "node", "id": 7638889463, "lat": 46.8347658, "lon": -114.0163119, "tags": {"beauty": "nails", "name": "Saigon Nails", "shop": "beauty"}}, {"type": "node", "id": 7639577276, "lat": 46.8348368, "lon": -114.0178094}, {"type": "node", "id": 10696017088, "lat": 46.835138, "lon": -114.0123347, "tags": {"amenity": "restaurant", "cuisine": "italian", "name": "Romeo's Italian Kitchen"}}, {"type": "node", "id": 10696017097, "lat": 46.8345635, "lon": -114.0120018, "tags": {"name": "Milodragovich Dale & Steinbrenner P.C.", "office": "lawyer"}}, {"type": "node", "id": 10696017102, "lat": 46.8350407, "lon": -114.015149, "tags": {"amenity": "restaurant", "name": "The Breakfast Club"}}, {"type": "node", "id": 11133051316, "lat": 46.8037178, "lon": -114.0479076, "tags": {"amenity": "restaurant", "name": "The Den"}}, {"type": "way", "id": 112267625, "nodes": [1276573454, 1276573613, 7579417189, 1276573530, 3968909524, 3968909523, 1276573776, 3968909522, 3968909521, 3968909519, 3968909520, 3968909518, 3968909517, 3968909515, 1276573454], "tags": {"addr:city": "Missoula", "addr:country": "US", "addr:housenumber": "4000", "addr:postcode": "59804", "addr:state": "MT", "addr:street": "Highway 93 South", "brand": "Walmart", "brand:wikidata": "Q483551", "building": "commercial", "name": "Walmart Supercenter", "opening_hours": "Mo-Su 06:00-24:00", "operator": "Walmart", "operator:wikidata": "Q483551", "payment:app:walmart": "yes", "payment:apple_pay": "no", "payment:google_pay": "no", "payment:samsung_pay": "no", "phone": "+1 406-251-6060", "ref": "2147", "ref:walmart": "2147", "sensory_friendly:accommodation": "dimmed_light;static_screens;no_pa", "sensory_friendly:conditional": "yes @ 08:00-10:00", "shop": "supermarket", "website": "https://www.walmart.com/store/2147-missoula-mt"}}, {"type": "way", "id": 653297768, "nodes": [6122650845, 6122650846, 6122650847, 7639577276, 6122650848, 6122650845], "tags": {"building": "yes", "name": "Noon's", "shop": "convenience"}}]}