{"version": 0.6, "generator": "Overpass API 0.7.62.8 e802775f", "osm3s": {"timestamp_osm_base": "2025-12-06T05:43:44Z", "copyright": "The data included in this document is from www.openstreetmap.org. The data is made available under ODbL."}, "elements": [{"type": "node", "id": 3328626999, "lat": 44.0608093, "lon": -116.9238229}, {"type": "node", "id": 3328627000, "lat": 44.0604392, "lon": -116.9238251}, {"type": "node", "id": 3328627001, "lat": 44.0604384, "lon": -116.9235374}, {"type": "node", "id": 3328627002, "lat": 44.0608084, "lon": -116.9235352}, {"type": "node", "id": 3328638244, "lat": 44.0703604, "lon": -116.9345804}, {"type": "node", "id": 3328638245, "lat": 44.0700537, "lon": -116.9345793}, {"type": "node", "id": 3328638246, "lat": 44.0700536, "lon": -116.9346472}, {"type": "node", "id": 3328638247, "lat": 44.0699743, "lon": -116.9346469}, {"type": "node", "id": 3328638248, "lat": 44.0699745, "lon": -116.9345766}, {"type": "node", "id": 3328638249, "lat": 44.0699301, "lon": -116.9345764}, {"type": "node", "id": 3328638250, "lat": 44.0699305, "lon": -116.9343524}, {"type": "node", "id": 3328638251, "lat": 44.0699076, "lon": -116.9343523}, {"type": "node", "id": 3328638252, "lat": 44.0699086, "lon": -116.9338047}, {"type": "node", "id": 3328638253, "lat": 44.0699393, "lon": -116.9338048}, {"type": "node", "id": 3328638254, "lat": 44.0699395, "lon": -116.9336838}, {"type": "node", "id": 3328638255, "lat": 44.0703624, "lon": -116.9336853}, {"type": "node", "id": 3328638256, "lat": 44.0703623, "lon": -116.93376}, {"type": "node", "id": 3328638257, "lat": 44.0704142, "lon": -116.9337602}, {"type": "node", "id": 3328638258, "lat": 44.0704139, "lon": -116.9338842}, {"type": "node", "id": 3328638259, "lat": 44.0703617, "lon": -116.933884}, {"type": "way", "id": 326241361, "nodes": [3328626999, 3328627000, 3328627001, 3328627002, 3328626999], "tags": {"brand": "Family Dollar", "brand:wikidata": "Q5433101", "building": "yes", "name": "Family Dollar", "shop": "variety_store"}}, {"type": "way", "id": 326242310, "nodes": [3328638244, 3328638245, 3328638246, 3328638247, 3328638248, 3328638249, 3328638250, 3328638251, 3328638252, 3328638253, 3328638254, 3328638255, 3328638256, 3328638257, 3328638258, 3328638259, 3328638244], "tags": {"addr:city": "Payette", "addr:housenumber": "405", "addr:postcode": "83661", "addr:state": "ID", "addr:street": "South Main Street", "brand": "Albertsons", "brand:wikidata": "Q2831861", "building": "yes", "name": "Albertsons", "opening_hours": "Mo-Fr 07:00-23:00; Sa 07:00-23:00; Su 07:00-23:00", "phone": "+1 208-642-9075", "shop": "supermarket", "website": "https://local.albertsons.com/id/payette/405-s-main-st.html"}}]}