{"version": 0.6, "generator": "Overpass API 0.7.62.8 e802775f", "osm3s": {"timestamp_osm_base": "2025-11-09T07:15:34Z", "copyright": "The data included in this document is from www.openstreetmap.org. The data is made available under ODbL."}, "elements": [{"type": "node", "id": 4172309813, "lat": 41.2221296, "lon": -76.0191803}, {"type": "node", "id": 4172309814, "lat": 41.2220995, "lon": -76.0190038}, {"type": "node", "id": 4172309815, "lat": 41.2218749, "lon": -76.0190717}, {"type": "node", "id": 4172309816, "lat": 41.221905, "lon": -76.0192482}, {"type": "node", "id": 5118604069, "lat": 41.2210061, "lon": -76.016846, "tags": {"addr:city": "Nanticoke", "addr:postcode": "18634", "addr:state": "PA", "addr:street": "Canal Street", "leisure": "park", "name": "Canal Park"}}, {"type": "way", "id": 416487823, "nodes": [4172309813, 4172309814, 4172309815, 4172309816, 4172309813], "tags": {"leisure": "pitch", "sport": "basketball"}}]}