{"version": 0.6, "generator": "Overpass API 0.7.62.8 e802775f", "osm3s": {"timestamp_osm_base": "2025-12-08T22:25:01Z", "copyright": "The data included in this document is from www.openstreetmap.org. The data is made available under ODbL."}, "elements": [{"type": "node", "id": 7147633733, "lat": 46.7087173, "lon": -111.938605, "tags": {"amenity": "post_box", "drive_through": "yes", "operator": "United States Postal Service", "operator:short": "USPS", "operator:type": "public", "operator:website": "https://www.usps.com", "operator:wikidata": "Q668687", "operator:wikipedia": "en:United States Postal Service", "short_name": "USPS"}}, {"type": "node", "id": 9208550897, "lat": 46.703392, "lon": -111.9591247}, {"type": "node", "id": 9208550898, "lat": 46.7032779, "lon": -111.9591515}, {"type": "node", "id": 9208550899, "lat": 46.7032706, "lon": -111.9582825}, {"type": "node", "id": 9208550900, "lat": 46.7033368, "lon": -111.9582771}, {"type": "node", "id": 9208550901, "lat": 46.7033846, "lon": -111.9583415}, {"type": "node", "id": 9208550902, "lat": 46.7033993, "lon": -111.958422}, {"type": "node", "id": 9750814160, "lat": 46.7223674, "lon": -111.958979, "tags": {"addr:city": "Helena", "addr:country": "US", "addr:housenumber": "5980", "addr:postcode": "59602", "addr:state": "MT", "addr:street": "Ferry Drive", "name": "Heads, Hides and Horns", "opening_hours": "Mo-Tu,Fr-Sa 08:00-20:00, We-Th 08:30-20:00", "phone": "+1 406-458-6404", "shop": "antler", "website": "https://headshidesandhorns.com"}}, {"type": "way", "id": 997272612, "nodes": [9208550897, 9208550898, 9208550899, 9208550900, 9208550901, 9208550902, 9208550897], "tags": {"amenity": "parking"}}]}