{"version": 0.6, "generator": "Overpass API 0.7.62.8 e802775f", "osm3s": {"timestamp_osm_base": "2025-12-06T16:39:14Z", "copyright": "The data included in this document is from www.openstreetmap.org. The data is made available under ODbL."}, "elements": [{"type": "node", "id": 357969781, "lat": 46.2942284, "lon": -108.9382252, "tags": {"amenity": "post_office", "ele": "1051", "gnis:feature_id": "1722989", "name": "Lavina Post Office"}}, {"type": "node", "id": 357969842, "lat": 46.2930139, "lon": -108.9357129, "tags": {"amenity": "school", "ele": "1054", "gnis:feature_id": "1723023", "name": "Lavina Public School"}}, {"type": "node", "id": 357969872, "lat": 46.2946805, "lon": -108.9379352, "tags": {"amenity": "place_of_worship", "denomination": "methodist", "ele": "1051", "gnis:feature_id": "1723064", "name": "Lavina Methodist Church", "religion": "christian"}}, {"type": "node", "id": 357969874, "lat": 46.2946805, "lon": -108.9379352, "tags": {"amenity": "place_of_worship", "denomination": "lutheran", "ele": "1051", "gnis:feature_id": "1723065", "name": "Holy Trinity Lutheran Church", "religion": "christian"}}, {"type": "node", "id": 4947442689, "lat": 46.2952538, "lon": -108.9377449, "tags": {"amenity": "post_box"}}, {"type": "node", "id": 4947442690, "lat": 46.2953591, "lon": -108.9377368, "tags": {"amenity": "post_office"}}]}