{"version": 0.6, "generator": "Overpass API 0.7.62.8 e802775f", "osm3s": {"timestamp_osm_base": "2025-10-31T04:44:35Z", "copyright": "The data included in this document is from www.openstreetmap.org. The data is made available under ODbL."}, "elements": [{"type": "node", "id": 6868623454, "lat": 35.4118762, "lon": -113.6474285}, {"type": "node", "id": 6868623455, "lat": 35.4113354, "lon": -113.6476227}, {"type": "node", "id": 6868623456, "lat": 35.4103792, "lon": -113.6481001}, {"type": "node", "id": 6868623457, "lat": 35.4089218, "lon": -113.648804}, {"type": "node", "id": 6868623458, "lat": 35.4070951, "lon": -113.649775}, {"type": "node", "id": 6868623459, "lat": 35.4078535, "lon": -113.6539258}, {"type": "node", "id": 6868623460, "lat": 35.4104649, "lon": -113.6520325}, {"type": "node", "id": 6868623461, "lat": 35.4127796, "lon": -113.6504951}, {"type": "node", "id": 10575928416, "lat": 35.3871491, "lon": -113.6606138}, {"type": "node", "id": 10575928417, "lat": 35.3869285, "lon": -113.6607408}, {"type": "node", "id": 10575928418, "lat": 35.386984, "lon": -113.6608856}, {"type": "node", "id": 10575928419, "lat": 35.3872045, "lon": -113.6607585}, {"type": "way", "id": 733437597, "nodes": [6868623454, 6868623455, 6868623456, 6868623457, 6868623458, 6868623459, 6868623460, 6868623461, 6868623454], "tags": {"addr:city": "Valentine", "addr:housenumber": "13441", "addr:postcode": "86437", "addr:state": "AZ", "addr:street": "East Highway 66", "leisure": "park", "name": "Keepers of the Wild Nature Park", "opening_hours": "We-Mo 09:00-17:00", "operator": "Keepers of the Wild", "website": "https://www.keepersofthewild.org/"}}, {"type": "way", "id": 1134425305, "nodes": [10575928419, 10575928416, 10575928417, 10575928418, 10575928419], "tags": {"leisure": "pitch", "sport": "basketball"}}]}