{"version": 0.6, "generator": "Overpass API 0.7.62.8 e802775f", "osm3s": {"timestamp_osm_base": "2025-12-13T00:24:06Z", "copyright": "The data included in this document is from www.openstreetmap.org. The data is made available under ODbL."}, "elements": [{"type": "node", "id": 2654201903, "lat": 40.1554632, "lon": -106.9100413}, {"type": "node", "id": 2654201909, "lat": 40.1554561, "lon": -106.9087627}, {"type": "node", "id": 2654201918, "lat": 40.154019, "lon": -106.9088029}, {"type": "node", "id": 2654202009, "lat": 40.1540231, "lon": -106.9100232}, {"type": "node", "id": 6382475241, "lat": 40.1516562, "lon": -106.9090574}, {"type": "node", "id": 6382475242, "lat": 40.1516562, "lon": -106.9088991}, {"type": "node", "id": 6382475243, "lat": 40.1517434, "lon": -106.9088991}, {"type": "node", "id": 6382475244, "lat": 40.1517434, "lon": -106.9090574}, {"type": "node", "id": 6382475261, "lat": 40.1507452, "lon": -106.9092125}, {"type": "node", "id": 6382475262, "lat": 40.15075, "lon": -106.9088974}, {"type": "node", "id": 6382475263, "lat": 40.1505301, "lon": -106.9088916}, {"type": "node", "id": 6382475264, "lat": 40.1505271, "lon": -106.9090896}, {"type": "node", "id": 6382475265, "lat": 40.1506234, "lon": -106.9090921}, {"type": "node", "id": 6382475266, "lat": 40.1506216, "lon": -106.9092092}, {"type": "node", "id": 6382475403, "lat": 40.150052, "lon": -106.9081553}, {"type": "node", "id": 6382475404, "lat": 40.150051, "lon": -106.9078616}, {"type": "node", "id": 6382475405, "lat": 40.1501309, "lon": -106.9078611}, {"type": "node", "id": 6382475406, "lat": 40.150132, "lon": -106.9081548}, {"type": "node", "id": 6382475508, "lat": 40.1505456, "lon": -106.9032763}, {"type": "node", "id": 6382475509, "lat": 40.1505456, "lon": -106.9032518}, {"type": "node", "id": 6382475510, "lat": 40.1506798, "lon": -106.9032515}, {"type": "node", "id": 6382475511, "lat": 40.1504344, "lon": -106.9032766}, {"type": "node", "id": 6382475512, "lat": 40.1504341, "lon": -106.9031119}, {"type": "node", "id": 6382475513, "lat": 40.1506796, "lon": -106.9031112}, {"type": "node", "id": 6382475691, "lat": 40.1551095, "lon": -106.9099347}, {"type": "node", "id": 6382475692, "lat": 40.1545036, "lon": -106.9099557}, {"type": "node", "id": 6382475696, "lat": 40.1545059, "lon": -106.9100679}, {"type": "node", "id": 6382475697, "lat": 40.1551005, "lon": -106.9094916}, {"type": "node", "id": 6382475698, "lat": 40.1553905, "lon": -106.9094815}, {"type": "node", "id": 6382475699, "lat": 40.1554018, "lon": -106.9100543}, {"type": "node", "id": 9054015867, "lat": 40.1505656, "lon": -106.9030184, "tags": {"amenity": "fuel", "brand": "Sinclair"}}, {"type": "way", "id": 259965539, "nodes": [2654201918, 2654201909, 2654201903, 2654202009, 2654201918], "tags": {"addr:city": "Yampa", "addr:country": "US", "addr:housenumber": "448", "addr:postcode": "80483", "addr:state": "CO", "addr:street": "Main Street", "amenity": "school", "name": "South Routt Elementary School", "phone": "+1-970-638-4558"}}, {"type": "way", "id": 681533664, "nodes": [6382475244, 6382475243, 6382475242, 6382475241, 6382475244], "tags": {"addr:city": "Yampa", "addr:housenumber": "116", "addr:state": "CO", "addr:street": "Main Street", "amenity": "library", "building": "yes", "name": "Yampa Public Library", "phone": "+1-970-638-4654", "website": "https://southroutt.colibraries.org/"}}, {"type": "way", "id": 681533668, "nodes": [6382475266, 6382475265, 6382475264, 6382475263, 6382475262, 6382475261, 6382475266], "tags": {"addr:city": "Yampa", "addr:housenumber": "24", "addr:postcode": "80483", "addr:state": "CO", "addr:street": "Main Street", "building": "retail", "name": "Montgomery's General Merchandise", "shop": "general", "website": "https://montgomerysstore.com/"}}, {"type": "way", "id": 681533676, "nodes": [6382475406, 6382475405, 6382475404, 6382475403, 6382475406], "tags": {"addr:city": "Yampa", "addr:housenumber": "98", "addr:postcode": "80483", "addr:state": "CO", "addr:street": "Moffat Avenue", "amenity": "restaurant", "building": "yes", "cuisine": "american", "name": "Penny's Diner", "phone": "+1-970-638-1000", "website": "https://pennysdiner.com/"}}, {"type": "way", "id": 681533695, "nodes": [6382475513, 6382475512, 6382475511, 6382475508, 6382475509, 6382475510, 6382475513], "tags": {"amenity": "cafe", "building": "yes", "name": "Hunt's Pizza", "shop": "convenience"}}, {"type": "way", "id": 681533721, "nodes": [6382475699, 6382475698, 6382475697, 6382475691, 6382475692, 6382475696, 6382475699], "tags": {"amenity": "parking"}}]}