{"version": 0.6, "generator": "Overpass API 0.7.62.8 e802775f", "osm3s": {"timestamp_osm_base": "2025-12-06T05:11:34Z", "copyright": "The data included in this document is from www.openstreetmap.org. The data is made available under ODbL."}, "elements": [{"type": "node", "id": 2494070883, "lat": 46.7330098, "lon": -117.0017, "tags": {"addr:city": "Moscow", "addr:housenumber": "201", "addr:postcode": "83843", "addr:state": "ID", "addr:street": "South Main Street", "amenity": "cafe", "cuisine": "coffee_shop", "diet:vegetarian": "yes", "internet_access": "yes", "name": "Bucer's Coffeehouse Pub", "opening_hours": "Mo-Th 07:00-22:00; Fr-Sa 07:00-23:00", "phone": "+1-208-596-0887", "website": "https://bucerspub.com/"}}, {"type": "node", "id": 3458620278, "lat": 46.7376931, "lon": -117.0009754}, {"type": "node", "id": 3458620279, "lat": 46.737697, "lon": -117.0005168}, {"type": "node", "id": 3458620280, "lat": 46.7377211, "lon": -117.0010236}, {"type": "node", "id": 3458620281, "lat": 46.7379934, "lon": -117.0010285}, {"type": "node", "id": 3458620282, "lat": 46.7379976, "lon": -117.0005222}, {"type": "node", "id": 5194469082, "lat": 46.744488, "lon": -117.0007807}, {"type": "node", "id": 5194469083, "lat": 46.7443622, "lon": -117.0011937}, {"type": "node", "id": 5194469084, "lat": 46.7443642, "lon": -117.0007787}, {"type": "node", "id": 5194469089, "lat": 46.7422134, "lon": -117.000387, "tags": {"addr:city": "Moscow", "addr:housenumber": "760", "addr:postcode": "83843", "addr:state": "ID", "addr:street": "North Main Street", "name": "Moscow Building Supply", "opening_hours": "Mo-Fr 07:00-18:00; Sa 08:00-18:00; Su 09:00-17:00", "phone": "+1-208-882-4716", "shop": "hardware", "website": "https://mbspbs.com/", "wheelchair": "yes"}}, {"type": "node", "id": 5194469093, "lat": 46.744952, "lon": -116.990329, "tags": {"name": "Palouse-Clearwater Environmental Institute (PCEI)", "office": "ngo"}}, {"type": "node", "id": 5205125154, "lat": 46.7346437, "lon": -117.0010793}, {"type": "node", "id": 5205125155, "lat": 46.7346437, "lon": -117.0008433}, {"type": "node", "id": 5205125156, "lat": 46.7347503, "lon": -117.0008433}, {"type": "node", "id": 5205125157, "lat": 46.7347503, "lon": -117.0010793}, {"type": "node", "id": 5205125185, "lat": 46.7365616, "lon": -117.0008028}, {"type": "node", "id": 5205125186, "lat": 46.7364458, "lon": -117.0008021}, {"type": "node", "id": 5205125187, "lat": 46.7364445, "lon": -117.0012775}, {"type": "node", "id": 5205125188, "lat": 46.7365603, "lon": -117.0012781}, {"type": "node", "id": 5205125189, "lat": 46.7364403, "lon": -117.0007964}, {"type": "node", "id": 5205125190, "lat": 46.7361563, "lon": -117.0007933}, {"type": "node", "id": 5205125191, "lat": 46.736155, "lon": -117.0010442}, {"type": "node", "id": 5205125192, "lat": 46.736439, "lon": -117.0010474}, {"type": "node", "id": 5205125193, "lat": 46.7368809, "lon": -117.001766, "tags": {"addr:city": "Moscow", "addr:housenumber": "321", "addr:postcode": "83843", "addr:state": "ID", "addr:street": "North Main Street", "amenity": "cafe", "branch": "Moscow", "brand": "Dutch Bros. Coffee", "brand:wikidata": "Q5317253", "cuisine": "coffee_shop", "name": "Dutch Bros. Coffee", "opening_hours": "05:00-00:00", "ref": "DB199", "takeaway": "only", "website": "https://locations.dutchbros.com/dutch-bros-coffee-3c4f94a8fd03"}}, {"type": "node", "id": 5205125240, "lat": 46.7372356, "lon": -117.0020557}, {"type": "node", "id": 5205125241, "lat": 46.737333, "lon": -117.0020557}, {"type": "node", "id": 5205125242, "lat": 46.737333, "lon": -117.001656}, {"type": "node", "id": 5205125243, "lat": 46.7372356, "lon": -117.001656}, {"type": "node", "id": 5205125271, "lat": 46.7380739, "lon": -117.003257, "tags": {"addr:housenumber": "411", "addr:street": "North Main Street", "brand": "Rosauers", "brand:wikidata": "Q7367458", "description": "General and organic grocery store on north side of town.", "name": "Rosauers", "opening_hours": "Mo-Su 06:00-22:00", "phone": "+1-208-882-5574", "shop": "supermarket", "source": "Bing", "website": "https://www.rosauers.com/moscow"}}, {"type": "node", "id": 6917167362, "lat": 46.7401843, "lon": -116.9833133}, {"type": "node", "id": 6917167363, "lat": 46.7401797, "lon": -116.9830138}, {"type": "node", "id": 6917167364, "lat": 46.7400141, "lon": -116.9830192}, {"type": "node", "id": 6917167365, "lat": 46.7400188, "lon": -116.9833188}, {"type": "node", "id": 7083190815, "lat": 46.7348599, "lon": -117.0016491}, {"type": "node", "id": 7083190816, "lat": 46.7348564, "lon": -117.0018888}, {"type": "node", "id": 7083190817, "lat": 46.7346872, "lon": -117.0018835}, {"type": "node", "id": 7083190818, "lat": 46.7346907, "lon": -117.0016439}, {"type": "node", "id": 8504827091, "lat": 46.7357222, "lon": -117.0036448}, {"type": "node", "id": 8504827092, "lat": 46.7357281, "lon": -117.0029742}, {"type": "node", "id": 8504827093, "lat": 46.7354049, "lon": -117.0029682}, {"type": "node", "id": 8504827094, "lat": 46.7354017, "lon": -117.0036389}, {"type": "node", "id": 8504994184, "lat": 46.73423, "lon": -117.001964}, {"type": "node", "id": 8504994210, "lat": 46.734072, "lon": -117.001723}, {"type": "node", "id": 8504994225, "lat": 46.73423, "lon": -117.001903}, {"type": "node", "id": 8504994263, "lat": 46.734071, "lon": -117.002079}, {"type": "node", "id": 8504994275, "lat": 46.734319, "lon": -117.00208}, {"type": "node", "id": 8504994306, "lat": 46.734189, "lon": -117.001903}, {"type": "node", "id": 8504994321, "lat": 46.73432, "lon": -117.001965}, {"type": "node", "id": 8504994347, "lat": 46.734189, "lon": -117.001723}, {"type": "node", "id": 8505336920, "lat": 46.7373281, "lon": -117.0008453}, {"type": "node", "id": 8505336921, "lat": 46.7373293, "lon": -117.0006423}, {"type": "node", "id": 8505336922, "lat": 46.7371834, "lon": -117.0006512}, {"type": "node", "id": 8505336923, "lat": 46.7371199, "lon": -117.0007412}, {"type": "node", "id": 8505336924, "lat": 46.7371088, "lon": -117.0008425}, {"type": "node", "id": 8694602780, "lat": 46.7444859, "lon": -117.0011947}, {"type": "node", "id": 8703246803, "lat": 46.7354035, "lon": -117.0034239}, {"type": "node", "id": 8703246804, "lat": 46.7354668, "lon": -117.0034251}, {"type": "node", "id": 8703246805, "lat": 46.7354689, "lon": -117.0031725}, {"type": "node", "id": 8703246806, "lat": 46.7354031, "lon": -117.0031712}, {"type": "way", "id": 338722819, "nodes": [3458620280, 3458620281, 3458620282, 3458620279, 3458620278, 3458620280], "tags": {"addr:city": "Moscow", "addr:country": "US", "addr:county": "Latah", "addr:housenumber": "414", "addr:postcode": "83843", "addr:state": "ID", "addr:street": "North Main Street", "brand": "Walgreens", "brand:wikidata": "Q1591889", "building": "yes", "name": "Walgreens", "opening_hours": "Su-Sa 08:00-22:00", "phone": "+1-208-882-6076", "shop": "chemist", "website": "https://www.walgreens.com/locator/walgreens-414+n+main+st-moscow-id-83843/id=12503"}}, {"type": "way", "id": 536136863, "nodes": [5194469084, 5194469083, 8694602780, 5194469082, 5194469084], "tags": {"addr:city": "Moscow", "addr:housenumber": "970", "addr:postcode": "83843", "addr:state": "ID", "addr:street": "North Main Street", "brand": "Meineke", "brand:wikidata": "Q6810159", "building": "yes", "name": "Meineke", "official_name": "Meineke Car Care Center", "opening_hours": "Mo-Fr 07:30-18:00; Sa 08:00-17:00", "phone": "+1-208-997-2003", "service:vehicle:air_conditioning": "yes", "service:vehicle:brakes": "yes", "service:vehicle:muffler": "yes", "service:vehicle:oil_change": "yes", "service:vehicle:tyres": "yes", "service:vehicle:wheels": "yes", "shop": "car_repair", "website": "https://www.meineke.com/locations/id/moscow-2410/"}}, {"type": "way", "id": 537535937, "nodes": [5205125157, 5205125156, 5205125155, 5205125154, 5205125157], "tags": {"addr:housenumber": "202", "addr:state": "ID", "addr:street": "North Main Street", "amenity": "bar", "building": "yes", "name": "Corner Club"}}, {"type": "way", "id": 537535944, "nodes": [5205125188, 5205125185, 5205125186, 5205125187, 5205125188], "tags": {"addr:city": "Moscow", "addr:housenumber": "310", "addr:postcode": "83843", "addr:state": "ID", "addr:street": "North Main Street", "building": "retail", "name": "Palouse Habitat for Humanity ReStore", "operator": "Habitat for Humanity", "phone": "+1 208-882-5246", "second_hand": "yes", "shop": "second_hand"}}, {"type": "way", "id": 537535945, "nodes": [5205125192, 5205125189, 5205125190, 5205125191, 5205125192], "tags": {"addr:city": "Moscow", "addr:housenumber": "304", "addr:postcode": "83843", "addr:state": "ID", "addr:street": "North Main Street", "building": "retail", "building:levels": "1", "name": "Palouse Habitat ReStore", "operator": "Habitat for Humanity", "phone": "+1 208-882-5246", "roof:shape": "gabled", "second_hand": "yes", "shop": "second_hand", "smoking": "no"}}, {"type": "way", "id": 537535956, "nodes": [5205125243, 5205125240, 5205125241, 5205125242, 5205125243], "tags": {"addr:city": "Moscow", "addr:housenumber": "337", "addr:postcode": "83843", "addr:state": "ID", "addr:street": "North Main Street", "building": "yes", "name": "Chris' Appliance and Refrigeration", "opening_hours": "Mo-Fr 07:00-16:30", "phone": "+1-208-882-4622", "repair": "yes", "shop": "appliance", "website": "https://www.chrisapplianceandrefrigeration.com/"}}, {"type": "way", "id": 738690506, "nodes": [6917167362, 6917167363, 6917167364, 6917167365, 6917167362], "tags": {"building": "yes", "name": "Moscow School District", "office": "government"}}, {"type": "way", "id": 758440104, "nodes": [7083190815, 7083190816, 7083190817, 7083190818, 7083190815], "tags": {"addr:city": "Moscow", "addr:housenumber": "201", "addr:postcode": "83843", "addr:state": "ID", "addr:street": "North Main Street", "building": "government", "check_date": "2024-10-19", "fax": "+1-208-883-7113", "name": "Moscow Water Department", "office": "water_utility", "phone": "+1-208-882-3122", "website": "https://www.ci.moscow.id.us/664/Water"}}, {"type": "way", "id": 915588212, "nodes": [8504827091, 8504827092, 8504827093, 8703246806, 8703246805, 8703246804, 8703246803, 8504827094, 8504827091], "tags": {"addr:city": "Moscow", "addr:housenumber": "232", "addr:postcode": "83843", "addr:state": "ID", "addr:street": "North Almon Street", "building": "office", "fax": "+1-208-882-3317", "name": "Lightcast", "office": "company", "phone": "+1-208-883-3500", "website": "https://lightcast.io/"}}, {"type": "way", "id": 915608395, "nodes": [8504994263, 8504994210, 8504994347, 8504994306, 8504994225, 8504994184, 8504994321, 8504994275, 8504994263], "tags": {"addr:city": "Moscow", "addr:housenumber": "113", "addr:postcode": "83843", "addr:state": "ID", "addr:street": "North Main Street", "amenity": "restaurant", "building": "yes", "cuisine": "hawaiian", "diet:vegetarian": "yes", "name": "LocoGrinz", "opening_hours": "Mo-Sa 11:00-20:00", "phone": "+1-208-883-4463", "website": "https://locogrinz.com"}}, {"type": "way", "id": 915647784, "nodes": [8505336920, 8505336921, 8505336922, 8505336923, 8505336924, 8505336920], "tags": {"building": "yes", "name": "Nom nom", "shop": "convenience"}}]}