{"version": 0.6, "generator": "Overpass API 0.7.62.8 e802775f", "osm3s": {"timestamp_osm_base": "2025-11-08T22:50:24Z", "copyright": "The data included in this document is from www.openstreetmap.org. The data is made available under ODbL."}, "elements": [{"type": "node", "id": 234339402, "lat": 39.026299, "lon": -88.570071}, {"type": "node", "id": 234340813, "lat": 39.026273, "lon": -88.568816}, {"type": "node", "id": 4946353991, "lat": 39.026691, "lon": -88.5700557}, {"type": "node", "id": 4946353992, "lat": 39.0266574, "lon": -88.5687979}, {"type": "node", "id": 12786245436, "lat": 39.0266413, "lon": -88.5697399}, {"type": "node", "id": 12786245437, "lat": 39.026557, "lon": -88.5697432}, {"type": "node", "id": 12786245438, "lat": 39.0265609, "lon": -88.5699121}, {"type": "node", "id": 12786245439, "lat": 39.0266453, "lon": -88.5699088}, {"type": "node", "id": 12786245464, "lat": 39.0262846, "lon": -88.5693743}, {"type": "way", "id": 504476168, "nodes": [234339402, 4946353991, 4946353992, 234340813, 12786245464, 234339402], "tags": {"addr:city": "Watson", "addr:postcode": "62473", "addr:state": "IL", "addr:street": "Vine Street", "leisure": "park", "name": "Willow Park"}}, {"type": "way", "id": 1381175676, "nodes": [12786245436, 12786245437, 12786245438, 12786245439, 12786245436], "tags": {"hoops": "2", "leisure": "pitch", "sport": "basketball"}}]}