{"version": 0.6, "generator": "Overpass API 0.7.62.8 e802775f", "osm3s": {"timestamp_osm_base": "2025-12-13T00:37:19Z", "copyright": "The data included in this document is from www.openstreetmap.org. The data is made available under ODbL."}, "elements": [{"type": "node", "id": 358930384, "lat": 39.2791122, "lon": -103.4995169, "tags": {"amenity": "place_of_worship", "denomination": "lutheran", "ele": "1708", "gnis:feature_id": "195105", "name": "Christ Lutheran Church", "religion": "christian"}}, {"type": "node", "id": 7519695009, "lat": 39.278861, "lon": -103.500424}, {"type": "node", "id": 7519695010, "lat": 39.278861, "lon": -103.500269}, {"type": "node", "id": 7519695011, "lat": 39.278944, "lon": -103.500269}, {"type": "node", "id": 7519695012, "lat": 39.278944, "lon": -103.500424}, {"type": "node", "id": 7519695036, "lat": 39.278884, "lon": -103.496079}, {"type": "node", "id": 7519695037, "lat": 39.278795, "lon": -103.496079}, {"type": "node", "id": 7519695038, "lat": 39.278795, "lon": -103.496009}, {"type": "node", "id": 7519695039, "lat": 39.278884, "lon": -103.496009}, {"type": "node", "id": 7519695044, "lat": 39.2790259, "lon": -103.4960482, "tags": {"amenity": "toilets"}}, {"type": "node", "id": 7519704209, "lat": 39.2801426, "lon": -103.5000854}, {"type": "node", "id": 7519704210, "lat": 39.2799349, "lon": -103.5000833}, {"type": "node", "id": 7519704211, "lat": 39.2799343, "lon": -103.5001813}, {"type": "node", "id": 7519704212, "lat": 39.2800444, "lon": -103.5001824}, {"type": "node", "id": 7519704213, "lat": 39.2800436, "lon": -103.5003251}, {"type": "node", "id": 7519704214, "lat": 39.2801092, "lon": -103.5003257}, {"type": "node", "id": 7519704215, "lat": 39.2801102, "lon": -103.5001528}, {"type": "node", "id": 7519704216, "lat": 39.2801421, "lon": -103.5001532}, {"type": "way", "id": 803892150, "nodes": [7519695009, 7519695010, 7519695011, 7519695012, 7519695009], "tags": {"addr:city": "Genoa", "addr:housenumber": "217", "addr:postcode": "80818", "addr:state": "CO", "addr:street": "Main Street", "amenity": "post_office", "brand": "United States Post Office", "brand:wikidata": "Q668687", "building": "yes", "name": "United States Post Office", "source": "microsoft/BuildingFootprints"}}, {"type": "way", "id": 803892155, "nodes": [7519695036, 7519695037, 7519695038, 7519695039, 7519695036], "tags": {"amenity": "bbq", "building": "roof", "source": "microsoft/BuildingFootprints"}}, {"type": "way", "id": 803893115, "nodes": [7519704209, 7519704210, 7519704211, 7519704212, 7519704213, 7519704214, 7519704215, 7519704216, 7519704209], "tags": {"addr:city": "Genoa", "addr:housenumber": "203", "addr:postcode": "80818", "addr:state": "CO", "addr:street": "Main Street", "amenity": "place_of_worship", "building": "yes", "name": "Genoa United Methodist Church", "religion": "christian"}}]}