{"version": 0.6, "generator": "Overpass API 0.7.62.8 e802775f", "osm3s": {"timestamp_osm_base": "2025-12-06T10:25:21Z", "copyright": "The data included in this document is from www.openstreetmap.org. The data is made available under ODbL."}, "elements": [{"type": "node", "id": 357985028, "lat": 45.8360313, "lon": -113.9856353, "tags": {"ele": "1364", "gnis:feature_id": "1803001", "leisure": "park", "name": "Ross Hole Historical Marker"}}, {"type": "node", "id": 3659666145, "lat": 45.8456174, "lon": -113.9822169}, {"type": "node", "id": 3659666146, "lat": 45.8454527, "lon": -113.9822822}, {"type": "node", "id": 3659666147, "lat": 45.8454292, "lon": -113.9821598}, {"type": "node", "id": 3659666148, "lat": 45.8455939, "lon": -113.9820945}, {"type": "node", "id": 3753644567, "lat": 45.8363011, "lon": -113.9821246, "tags": {"amenity": "fuel", "brand": "Conoco", "name": "Conoco"}}, {"type": "node", "id": 3753644570, "lat": 45.8363061, "lon": -113.9825252, "tags": {"name": "Sula Country Store & resort", "shop": "convenience"}}, {"type": "node", "id": 4350214937, "lat": 45.8362337, "lon": -113.9810208, "tags": {"name": "Lewis and Clark and geological history", "tourism": "information"}}, {"type": "node", "id": 4350218308, "lat": 45.8370467, "lon": -113.9825768, "tags": {"name": "Sula Resort", "tourism": "camp_site"}}, {"type": "node", "id": 5896332180, "lat": 45.8364506, "lon": -113.9831285, "tags": {"leisure": "miniature_golf"}}, {"type": "node", "id": 6835765461, "lat": 45.8501028, "lon": -113.9569987}, {"type": "node", "id": 6835765462, "lat": 45.8501485, "lon": -113.9569473}, {"type": "node", "id": 6835765463, "lat": 45.8502211, "lon": -113.9570786}, {"type": "node", "id": 6835765464, "lat": 45.8501972, "lon": -113.9571}, {"type": "node", "id": 6835765465, "lat": 45.8501803, "lon": -113.9570772}, {"type": "node", "id": 6835765466, "lat": 45.8501575, "lon": -113.9571029}, {"type": "node", "id": 8403473623, "lat": 45.8368052, "lon": -113.9828727, "tags": {"amenity": "toilets"}}, {"type": "way", "id": 361503301, "nodes": [3659666145, 3659666146, 3659666147, 3659666148, 3659666145], "tags": {"addr:city": "Sula", "addr:housenumber": "248", "addr:postcode": "59871", "addr:state": "MT", "addr:street": "East Fork Road", "amenity": "fire_station", "building": "yes", "name": "Sula Rural Fire District Station #2", "source": "Bing"}}, {"type": "way", "id": 729737974, "nodes": [6835765461, 6835765462, 6835765463, 6835765464, 6835765465, 6835765466, 6835765461], "tags": {"addr:city": "Sula", "addr:housenumber": "502", "addr:postcode": "59871", "addr:state": "MT", "addr:street": "East Fork Road", "amenity": "post_office", "building": "yes", "name": "Sula Post Office"}}]}