{"version": 0.6, "generator": "Overpass API 0.7.62.8 e802775f", "osm3s": {"timestamp_osm_base": "2025-12-06T08:26:57Z", "copyright": "The data included in this document is from www.openstreetmap.org. The data is made available under ODbL."}, "elements": [{"type": "node", "id": 357961815, "lat": 45.0246451, "lon": -104.4164445, "tags": {"amenity": "place_of_worship", "ele": "1048", "gnis:feature_id": "1688694", "name": "Alzada Congregational Church", "religion": "christian"}}, {"type": "node", "id": 357961923, "lat": 45.0213358, "lon": -104.4067345, "tags": {"amenity": "post_office", "ele": "1050", "gnis:feature_id": "1688734", "name": "Alzada Post Office"}}, {"type": "node", "id": 357961939, "lat": 45.0276311, "lon": -104.4166644, "tags": {"amenity": "place_of_worship", "denomination": "baptist", "ele": "1047", "gnis:feature_id": "1688740", "name": "Alzada Baptist Church", "religion": "christian"}}, {"type": "node", "id": 357961942, "lat": 45.0246548, "lon": -104.4162719, "tags": {"amenity": "place_of_worship", "ele": "1048", "gnis:feature_id": "1688741", "name": "Alzada Mission"}}, {"type": "node", "id": 357961996, "lat": 45.020794, "lon": -104.4130089, "tags": {"amenity": "school", "ele": "1050", "gnis:feature_id": "1688773", "name": "Alzada School"}}, {"type": "node", "id": 4922741275, "lat": 45.0224427, "lon": -104.4062589, "tags": {"amenity": "fuel"}}, {"type": "node", "id": 4922741351, "lat": 45.0212024, "lon": -104.4068833}, {"type": "node", "id": 4922741355, "lat": 45.0211464, "lon": -104.4067278}, {"type": "node", "id": 4922741405, "lat": 45.0212167, "lon": -104.4066771}, {"type": "node", "id": 4922741456, "lat": 45.0212727, "lon": -104.4068326}, {"type": "node", "id": 4922741468, "lat": 45.0256762, "lon": -104.4134326, "tags": {"amenity": "bar", "name": "Stoneville Saloon"}}, {"type": "node", "id": 4922741501, "lat": 45.0207798, "lon": -104.406055, "tags": {"amenity": "restaurant", "name": "Little Jaded"}}, {"type": "way", "id": 501470464, "nodes": [4922741456, 4922741405, 4922741355, 4922741351, 4922741456], "tags": {"amenity": "post_office", "building": "yes"}}]}