{"version": 0.6, "generator": "Overpass API 0.7.62.8 e802775f", "osm3s": {"timestamp_osm_base": "2025-12-06T04:21:20Z", "copyright": "The data included in this document is from www.openstreetmap.org. The data is made available under ODbL."}, "elements": [{"type": "node", "id": 7024842147, "lat": 46.5892711, "lon": -111.9083547, "tags": {"amenity": "cafe", "name": "Leilani's Lattes"}}, {"type": "node", "id": 7024842148, "lat": 46.5893506, "lon": -111.9100252}, {"type": "node", "id": 7024842149, "lat": 46.589235, "lon": -111.9100252}, {"type": "node", "id": 7024842150, "lat": 46.589235, "lon": -111.9098478}, {"type": "node", "id": 7024842151, "lat": 46.5893024, "lon": -111.9098478}, {"type": "node", "id": 7024842152, "lat": 46.5893056, "lon": -111.909731}, {"type": "node", "id": 7024842153, "lat": 46.5893554, "lon": -111.9097334}, {"type": "node", "id": 7024842180, "lat": 46.5894042, "lon": -111.9143758}, {"type": "node", "id": 7024842181, "lat": 46.5892133, "lon": -111.9143641}, {"type": "node", "id": 7024842182, "lat": 46.5892133, "lon": -111.9142543}, {"type": "node", "id": 7024842183, "lat": 46.5894074, "lon": -111.9142613}, {"type": "node", "id": 7024842184, "lat": 46.5894026, "lon": -111.9149151}, {"type": "node", "id": 7024842185, "lat": 46.5894026, "lon": -111.9151089}, {"type": "node", "id": 7024842186, "lat": 46.5891844, "lon": -111.915123}, {"type": "node", "id": 7024842187, "lat": 46.5891796, "lon": -111.9148871}, {"type": "node", "id": 7024842188, "lat": 46.5892149, "lon": -111.9148895}, {"type": "node", "id": 7024842189, "lat": 46.5892165, "lon": -111.9149175}, {"type": "way", "id": 751442613, "nodes": [7024842148, 7024842149, 7024842150, 7024842151, 7024842152, 7024842153, 7024842148], "tags": {"brand": "U-Haul", "brand:wikidata": "Q7862902", "building": "yes", "name": "U-Haul", "shop": "rental"}}, {"type": "way", "id": 751442617, "nodes": [7024842180, 7024842181, 7024842182, 7024842183, 7024842180], "tags": {"building": "yes", "name": "Creative Stitiches", "shop": "fabric"}}, {"type": "way", "id": 751442618, "nodes": [7024842184, 7024842185, 7024842186, 7024842187, 7024842188, 7024842189, 7024842184], "tags": {"building": "yes", "name": "Helena Farm Supply", "shop": "agrarian"}}]}