{"version": 0.6, "generator": "Overpass API 0.7.62.8 e802775f", "osm3s": {"timestamp_osm_base": "2025-12-06T23:13:30Z", "copyright": "The data included in this document is from www.openstreetmap.org. The data is made available under ODbL."}, "elements": [{"type": "node", "id": 11501863983, "lat": 46.6518465, "lon": -120.6182724}, {"type": "node", "id": 11501863984, "lat": 46.6518352, "lon": -120.6183458}, {"type": "node", "id": 11501863985, "lat": 46.651797, "lon": -120.6182413}, {"type": "node", "id": 11501863986, "lat": 46.6517411, "lon": -120.6182846}, {"type": "node", "id": 11501863987, "lat": 46.6517794, "lon": -120.6183891}, {"type": "node", "id": 11501863988, "lat": 46.6518377, "lon": -120.6182396}, {"type": "node", "id": 12079045569, "lat": 46.6706195, "lon": -120.6322109, "tags": {"amenity": "toilets"}}, {"type": "node", "id": 12162124830, "lat": 46.6669379, "lon": -120.6317174, "tags": {"addr:city": "Yakima", "addr:housenumber": "4680", "addr:postcode": "98908", "addr:state": "WA", "addr:street": "US 12 (super)", "amenity": "social_facility", "check_date": "2025-09-13", "name": "Tumbleweed Ranch - Pegasus Project", "operator:type": "private_non_profit", "social_facility": "equine_assisted_centre", "social_facility:for": "child;disabled;juvenile", "website": "https://pegasusrides.com/"}}, {"type": "way", "id": 1238199989, "nodes": [11501863984, 11501863983, 11501863988, 11501863985, 11501863986, 11501863987, 11501863984], "tags": {"access": "yes", "amenity": "parking", "description": "McCormick Public Access", "operator": "WDFW", "operator:type": "government", "surface": "gravel", "website": "https://wdfw.wa.gov/places-to-go/water-access-sites/30622"}}]}