{"version": 0.6, "generator": "Overpass API 0.7.62.8 e802775f", "osm3s": {"timestamp_osm_base": "2025-11-08T20:29:00Z", "copyright": "The data included in this document is from www.openstreetmap.org. The data is made available under ODbL."}, "elements": [{"type": "node", "id": 5571774147, "lat": 37.9659114, "lon": -120.323432}, {"type": "node", "id": 5571774176, "lat": 37.9660493, "lon": -120.3227511}, {"type": "node", "id": 6032970870, "lat": 37.9660015, "lon": -120.32307, "tags": {"addr:city": "Sonora", "addr:housenumber": "18960", "addr:postcode": "95370", "addr:state": "CA", "addr:street": "Waylon Way", "building": "commercial", "leisure": "sports_centre", "name": "High Country Sports Arena", "sport": "Roller_Skating;Roller_Hockey;Roller_Derby;hockey;indoor_soccer;soccer", "website": "http://www.highcountrysportsarena.com/"}}, {"type": "node", "id": 6032970871, "lat": 37.965744, "lon": -120.3229082}, {"type": "node", "id": 6032970872, "lat": 37.9662349, "lon": -120.3233318}, {"type": "node", "id": 6032970873, "lat": 37.9659295, "lon": -120.3234888}, {"type": "node", "id": 8285892245, "lat": 37.9660668, "lon": -120.322806}, {"type": "way", "id": 640398896, "nodes": [5571774147, 6032970871, 5571774176, 8285892245, 6032970872, 6032970873, 5571774147], "tags": {"addr:city": "Sonora", "addr:country": "US", "addr:housenumber": "18960", "addr:postcode": "95370", "addr:state": "CA", "addr:street": "Waylon Way", "building": "commercial", "leisure": "sports_centre", "name": "High Country Sports Arena", "sport": "Roller_Hockey;Roller_Derby;roller_skating;hockey;indoor_soccer;soccer"}}]}