{"version": 0.6, "generator": "Overpass API 0.7.62.8 e802775f", "osm3s": {"timestamp_osm_base": "2025-12-05T20:57:36Z", "copyright": "The data included in this document is from www.openstreetmap.org. The data is made available under ODbL."}, "elements": [{"type": "node", "id": 4797338313, "lat": 45.7025558, "lon": -111.0439831}, {"type": "node", "id": 4797338314, "lat": 45.7025588, "lon": -111.0445801}, {"type": "node", "id": 4797338315, "lat": 45.7022872, "lon": -111.0445829}, {"type": "node", "id": 8902384350, "lat": 45.7022842, "lon": -111.0439859}, {"type": "node", "id": 9877598315, "lat": 45.7019475, "lon": -111.059255, "tags": {"leisure": "fitness_centre", "name": "Lone Mountain Gymnastics"}}, {"type": "node", "id": 10655926253, "lat": 45.7072772, "lon": -111.0414859, "tags": {"leisure": "fitness_centre", "name": "East Gallatin Rec"}}, {"type": "way", "id": 487223692, "nodes": [8902384350, 4797338313, 4797338314, 4797338315, 8902384350], "tags": {"addr:city": "Bozeman", "addr:housenumber": "2308", "addr:postcode": "59715", "addr:state": "MT", "addr:street": "North 7th Avenue", "building": "commercial", "leisure": "fitness_centre", "name": "CrossFit Bozeman"}}]}