{"version": 0.6, "generator": "Overpass API 0.7.62.8 e802775f", "osm3s": {"timestamp_osm_base": "2025-12-12T22:41:44Z", "copyright": "The data included in this document is from www.openstreetmap.org. The data is made available under ODbL."}, "elements": [{"type": "node", "id": 11552209073, "lat": 39.9708352, "lon": -104.9913058}, {"type": "node", "id": 11552209074, "lat": 39.9708973, "lon": -104.9910619}, {"type": "node", "id": 11552209075, "lat": 39.9712703, "lon": -104.9912237}, {"type": "node", "id": 11552209076, "lat": 39.9712513, "lon": -104.9912985}, {"type": "node", "id": 11552209077, "lat": 39.9712568, "lon": -104.991301}, {"type": "node", "id": 11552209078, "lat": 39.9712138, "lon": -104.99147}, {"type": "way", "id": 1243005149, "nodes": [11552209073, 11552209074, 11552209075, 11552209076, 11552209077, 11552209078, 11552209073], "tags": {"addr:city": "Broomfield", "addr:housenumber": "330", "addr:postcode": "80023", "addr:state": "CO", "addr:street": "West 152nd Avenue", "building": "yes", "source": "esri_USDOT_ColoradoOITGIS;microsoft/BuildingFootprints"}}]}