{"version": 0.6, "generator": "Overpass API 0.7.62.8 e802775f", "osm3s": {"timestamp_osm_base": "2025-12-06T17:47:45Z", "copyright": "The data included in this document is from www.openstreetmap.org. The data is made available under ODbL."}, "elements": [{"type": "node", "id": 5811129954, "lat": 47.9736781, "lon": -124.4031914, "tags": {"amenity": "weighbridge"}}, {"type": "node", "id": 5811649156, "lat": 47.967202, "lon": -124.4070492}, {"type": "node", "id": 5811649157, "lat": 47.9671331, "lon": -124.4073905}, {"type": "node", "id": 5811667554, "lat": 47.9685773, "lon": -124.4073355}, {"type": "node", "id": 5811667555, "lat": 47.9688279, "lon": -124.4046827}, {"type": "node", "id": 5811667556, "lat": 47.9675179, "lon": -124.4043451}, {"type": "node", "id": 5811667557, "lat": 47.9673029, "lon": -124.4064573}, {"type": "node", "id": 5811678053, "lat": 47.9674257, "lon": -124.4055851}, {"type": "node", "id": 5895708959, "lat": 47.9660392, "lon": -124.4119332, "tags": {"amenity": "fuel", "name": "CFN", "operator": "PetroCard"}}, {"type": "node", "id": 5895708960, "lat": 47.966555, "lon": -124.4097751}, {"type": "node", "id": 5895708961, "lat": 47.9685951, "lon": -124.4096987}, {"type": "node", "id": 7316837052, "lat": 47.962292, "lon": -124.3991215, "tags": {"shop": "car_repair"}}, {"type": "node", "id": 7316850174, "lat": 47.9730632, "lon": -124.4013739, "tags": {"amenity": "fuel", "brand": "Pacific Pride", "brand:wikidata": "Q7122637", "name": "Pacific Pride"}}, {"type": "node", "id": 9890816685, "lat": 47.9666149, "lon": -124.4111714, "tags": {"atm": "yes", "name": "Cannabis Coast", "shop": "cannabis"}}, {"type": "way", "id": 614377473, "nodes": [5811667554, 5811667555, 5811667556, 5811678053, 5811667557, 5811649156, 5811649157, 5811667554], "tags": {"amenity": "community_centre", "check_date": "2025-09-07", "landuse": "commercial", "name": "Kitla Center"}}, {"type": "way", "id": 624333375, "nodes": [5811667554, 5895708961, 5895708960, 5811649157, 5811667554], "tags": {"amenity": "waste_transfer_station", "landuse": "industrial", "name": "West Waste Transfer Facility"}}]}