{"version": 0.6, "generator": "Overpass API 0.7.62.8 e802775f", "osm3s": {"timestamp_osm_base": "2025-12-06T16:45:28Z", "copyright": "The data included in this document is from www.openstreetmap.org. The data is made available under ODbL."}, "elements": [{"type": "node", "id": 7612585777, "lat": 47.1191925, "lon": -119.2749013}, {"type": "node", "id": 7612585778, "lat": 47.1192556, "lon": -119.2749006}, {"type": "node", "id": 7612585779, "lat": 47.1192559, "lon": -119.2749782}, {"type": "node", "id": 7612585780, "lat": 47.1193231, "lon": -119.2749775}, {"type": "node", "id": 7612585781, "lat": 47.1193215, "lon": -119.2746374}, {"type": "node", "id": 7612585782, "lat": 47.1191913, "lon": -119.2746387}, {"type": "way", "id": 814982086, "nodes": [7612585777, 7612585778, 7612585779, 7612585780, 7612585781, 7612585782, 7612585777], "tags": {"addr:city": "Moses Lake", "addr:housenumber": "1066", "addr:postcode": "98837", "addr:state": "WA", "addr:street": "South Division Street", "building": "yes", "leisure": "fitness_centre", "name": "Moses Lake Athletic Club"}}]}