{"version": 0.6, "generator": "Overpass API 0.7.62.8 e802775f", "osm3s": {"timestamp_osm_base": "2025-11-03T00:56:42Z", "copyright": "The data included in this document is from www.openstreetmap.org. The data is made available under ODbL."}, "elements": [{"type": "node", "id": 358395620, "lat": 29.8638665, "lon": -89.9004062, "tags": {"ele": "1", "gnis:feature_id": "1629411", "leisure": "park", "name": "Saint Bernard State Park", "wikidata": "Q3180923", "wikipedia": "en:St. Bernard State Park"}}, {"type": "node", "id": 8461841142, "lat": 29.8639802, "lon": -89.9008106}, {"type": "node", "id": 8461841143, "lat": 29.8639603, "lon": -89.9028733}, {"type": "node", "id": 8461841144, "lat": 29.8613851, "lon": -89.9028808}, {"type": "node", "id": 8461841145, "lat": 29.858142, "lon": -89.902727}, {"type": "node", "id": 8461841146, "lat": 29.8557857, "lon": -89.9026997}, {"type": "node", "id": 8461841147, "lat": 29.8573583, "lon": -89.8998825}, {"type": "node", "id": 8461841148, "lat": 29.8577261, "lon": -89.8945564}, {"type": "node", "id": 8461841149, "lat": 29.8628301, "lon": -89.8948162}, {"type": "node", "id": 8461841150, "lat": 29.8647426, "lon": -89.8957108}, {"type": "way", "id": 911312906, "nodes": [8461841142, 8461841143, 8461841144, 8461841145, 8461841146, 8461841147, 8461841148, 8461841149, 8461841150, 8461841142], "tags": {"addr:city": "Braithwaite", "addr:housenumber": "501", "addr:postcode": "70040", "addr:state": "LA", "addr:street": "Saint Bernard Pkwy", "leisure": "park", "name": "Saint Bernard State Park", "website": "https://www.lastateparks.com/parks-preserves/st-bernard-state-park"}}]}