{"version": 0.6, "generator": "Overpass API 0.7.62.8 e802775f", "osm3s": {"timestamp_osm_base": "2025-11-30T01:24:38Z", "copyright": "The data included in this document is from www.openstreetmap.org. The data is made available under ODbL."}, "elements": [{"type": "node", "id": 10793152276, "lat": 36.0607489, "lon": -90.5059448}, {"type": "node", "id": 10793152277, "lat": 36.0607685, "lon": -90.5066413}, {"type": "node", "id": 10793152278, "lat": 36.0606192, "lon": -90.5066478}, {"type": "node", "id": 10793152279, "lat": 36.0606163, "lon": -90.5065422}, {"type": "node", "id": 10793152280, "lat": 36.0603735, "lon": -90.5065527}, {"type": "node", "id": 10793152281, "lat": 36.0603568, "lon": -90.5059617}, {"type": "node", "id": 13140394534, "lat": 36.0607591, "lon": -90.506305}, {"type": "way", "id": 1160487176, "nodes": [10793152276, 13140394534, 10793152277, 10793152278, 10793152279, 10793152280, 10793152281, 10793152276], "tags": {"addr:city": "Paragould", "addr:housenumber": "121", "addr:state": "AR", "addr:street": "Centre 1 N", "building": "yes", "leisure": "fitness_centre", "name": "10 Fitness", "phone": "+1-855-691-0348"}}]}