{"version": 0.6, "generator": "Overpass API 0.7.62.8 e802775f", "osm3s": {"timestamp_osm_base": "2025-12-08T22:06:44Z", "copyright": "The data included in this document is from www.openstreetmap.org. The data is made available under ODbL."}, "elements": [{"type": "node", "id": 357969978, "lat": 46.597759, "lon": -107.8689938, "tags": {"amenity": "post_office", "ele": "889", "gnis:feature_id": "1723116", "name": "Melstone Post Office"}}, {"type": "node", "id": 357970001, "lat": 46.6010923, "lon": -107.8673272, "tags": {"amenity": "school", "ele": "905", "gnis:feature_id": "1723176", "name": "Melstone Public School"}}, {"type": "node", "id": 366093155, "lat": 46.597759, "lon": -107.8681604, "tags": {"addr:state": "MT", "amenity": "fire_station", "ele": "890", "gnis:feature_id": "1723085", "name": "Melstone Fire Department", "source": "USGS Geonames"}}, {"type": "node", "id": 8855646888, "lat": 46.6008519, "lon": -107.8690789}, {"type": "node", "id": 8855646889, "lat": 46.600852, "lon": -107.8691674}, {"type": "node", "id": 8855646890, "lat": 46.6008274, "lon": -107.8691675}, {"type": "node", "id": 8855646891, "lat": 46.6008273, "lon": -107.869079}, {"type": "node", "id": 8855646892, "lat": 46.6008272, "lon": -107.8690526}, {"type": "node", "id": 8855646893, "lat": 46.600662, "lon": -107.869053}, {"type": "node", "id": 8855646894, "lat": 46.6006621, "lon": -107.8691899}, {"type": "node", "id": 8855646895, "lat": 46.6008274, "lon": -107.8691895}, {"type": "node", "id": 9262635539, "lat": 46.59786, "lon": -107.868508}, {"type": "node", "id": 9262635540, "lat": 46.597934, "lon": -107.868507}, {"type": "node", "id": 9262635541, "lat": 46.597935, "lon": -107.8687}, {"type": "node", "id": 9262635542, "lat": 46.597862, "lon": -107.868701}, {"type": "way", "id": 957004892, "nodes": [8855646895, 8855646890, 8855646889, 8855646888, 8855646891, 8855646892, 8855646893, 8855646894, 8855646895], "tags": {"addr:city": "Melstone", "addr:housenumber": "121", "addr:postcode": "59054", "addr:state": "MT", "addr:street": "6th Avenue", "amenity": "place_of_worship", "building": "church", "denomination": "roman_catholic", "description": "Administered From: St Benedict Church 503 Main St Roundup, MT 59072", "diocese": "Great Falls-Billings", "name": "Our Lady of Mercy Catholic Church", "phone": "+1 406-323-1019", "religion": "christian"}}, {"type": "way", "id": 1003839099, "nodes": [9262635539, 9262635540, 9262635541, 9262635542, 9262635539], "tags": {"amenity": "bar", "building": "yes", "name": "Melstone Bar & Cafe", "source": "microsoft/BuildingFootprints"}}]}