{"version": 0.6, "generator": "Overpass API 0.7.62.8 e802775f", "osm3s": {"timestamp_osm_base": "2025-12-08T22:42:30Z", "copyright": "The data included in this document is from www.openstreetmap.org. The data is made available under ODbL."}, "elements": [{"type": "node", "id": 357975499, "lat": 47.4943944, "lon": -111.9286051, "tags": {"amenity": "place_of_worship", "denomination": "methodist", "ele": "1087", "gnis:feature_id": "1761806", "name": "Simms United Methodist Church", "religion": "christian"}}, {"type": "node", "id": 357975502, "lat": 47.4930056, "lon": -111.9269383, "tags": {"amenity": "place_of_worship", "ele": "1086", "gnis:feature_id": "1761807", "name": "Simms Community Church", "religion": "christian"}}, {"type": "node", "id": 357975676, "lat": 47.4916167, "lon": -111.9280495, "tags": {"amenity": "school", "ele": "1088", "gnis:feature_id": "1761856", "name": "Simms High School"}}, {"type": "node", "id": 357977141, "lat": 47.4945685, "lon": -111.9281826, "tags": {"addr:housenumber": "310", "addr:street": "North Main Street", "entrance": "main"}}, {"type": "node", "id": 366093189, "lat": 47.4916167, "lon": -111.9280495, "tags": {"addr:state": "MT", "amenity": "fire_station", "ele": "1088", "gnis:feature_id": "1762296", "name": "Simms Fire Department", "source": "USGS Geonames"}}, {"type": "node", "id": 6964924587, "lat": 47.4945771, "lon": -111.928459}, {"type": "node", "id": 6964927287, "lat": 47.4945757, "lon": -111.9281825}, {"type": "node", "id": 6964947985, "lat": 47.4945764, "lon": -111.9283121}, {"type": "node", "id": 6964948085, "lat": 47.4945112, "lon": -111.9281832}, {"type": "node", "id": 6964948185, "lat": 47.4945126, "lon": -111.9284597}, {"type": "node", "id": 11974261770, "lat": 47.4936581, "lon": -111.9356708, "tags": {"addr:housenumber": "12742", "addr:postcode": "59477", "addr:street": "MT-200", "name": "Curtiss Service Center", "opening_hours": "Mo-Fr 07:00-18:00; Sa 08:00-16:00", "phone": "+1 406-264-5640", "shop": "convenience"}}, {"type": "node", "id": 11974269769, "lat": 47.4942682, "lon": -111.9359182, "tags": {"addr:housenumber": "12742", "addr:postcode": "59477", "addr:street": "MT-200", "name": "Curtiss Service Center", "opening_hours": "Mo-Fr 07:00-18:00; Sa 08:00-16:00", "phone": "+1 406-264-5640", "shop": "convenience"}}, {"type": "way", "id": 744191223, "nodes": [6964927287, 6964947985, 6964924587, 6964948185, 6964948085, 357977141, 6964927287], "tags": {"addr:housenumber": "310", "addr:state": "MT", "addr:street": "North Main Street", "amenity": "post_office", "building": "public", "ele": "1088", "gnis:feature_id": "1762463", "name": "Simms Post Office", "phone": "+1-406-264-5128"}}]}