{"version": 0.6, "generator": "Overpass API 0.7.62.8 e802775f", "osm3s": {"timestamp_osm_base": "2025-12-06T05:54:54Z", "copyright": "The data included in this document is from www.openstreetmap.org. The data is made available under ODbL."}, "elements": [{"type": "node", "id": 694534816, "lat": 43.603036, "lon": -116.605336}, {"type": "node", "id": 2401084728, "lat": 43.6075331, "lon": -116.6066069}, {"type": "node", "id": 2401084741, "lat": 43.6043421, "lon": -116.6062674}, {"type": "node", "id": 2401084748, "lat": 43.6041958, "lon": -116.607678, "tags": {"addr:city": "Nampa", "addr:housenumber": "2201", "addr:postcode": "83651", "addr:state": "ID", "addr:street": "North Cassia Street", "amenity": "restaurant", "cuisine": "coffee_shop", "name": "Moxie Java", "phone": "+1-208-442-0445", "website": "https://www.moxiejava.com/"}}, {"type": "node", "id": 2401084752, "lat": 43.6041954, "lon": -116.6061872}, {"type": "node", "id": 2401084755, "lat": 43.6033772, "lon": -116.607925, "tags": {"addr:city": "Nampa", "addr:housenumber": "2101", "addr:postcode": "83651", "addr:state": "ID", "addr:street": "North Cassia Street", "addr:unit": "2111", "amenity": "restaurant", "brand": "Buffalo Wild Wings", "brand:wikidata": "Q509255", "cuisine": "wings", "name": "Buffalo Wild Wings", "opening_hours": "Su 10:00-23:00; Mo 11:00-23:00; Tu-Th 11:00-24:00; Fr 11:00-01:00; Sa 10:00-01:00", "phone": "+1-208-463-9453", "short_name": "BW3", "website": "https://www.buffalowildwings.com/"}}, {"type": "node", "id": 2671731015, "lat": 43.6052411, "lon": -116.633214, "tags": {"addr:city": "Nampa", "addr:housenumber": "12020", "addr:postcode": "83651-8149", "addr:state": "ID", "addr:street": "Karcher Road", "name": "Brown Bus Company", "office": "transport", "phone": "+1-208-455-2532", "website": "https://www.brownbuscompany.com/"}}, {"type": "node", "id": 3353395696, "lat": 43.6053165, "lon": -116.6095607, "tags": {"addr:city": "Nampa", "addr:housenumber": "2302", "addr:postcode": "83651", "addr:state": "ID", "addr:street": "West Karcher Road", "name": "Karcher Ranch Market", "phone": "+1-208-467-2302", "shop": "greengrocer", "wheelchair": "yes"}}, {"type": "node", "id": 3353395765, "lat": 43.6073788, "lon": -116.6067991}, {"type": "node", "id": 3353395766, "lat": 43.6072432, "lon": -116.6065914}, {"type": "node", "id": 3353395767, "lat": 43.6073975, "lon": -116.6063992}, {"type": "node", "id": 3353395768, "lat": 43.6068982, "lon": -116.6060857}, {"type": "node", "id": 3353395769, "lat": 43.6068982, "lon": -116.6067941}, {"type": "node", "id": 3353395770, "lat": 43.6068407, "lon": -116.6067941}, {"type": "node", "id": 3353395771, "lat": 43.6068407, "lon": -116.6066797}, {"type": "node", "id": 3353395772, "lat": 43.6064842, "lon": -116.6066765}, {"type": "node", "id": 3353395773, "lat": 43.6064842, "lon": -116.6060698}, {"type": "node", "id": 3353395774, "lat": 43.6066268, "lon": -116.6060762}, {"type": "node", "id": 3353395775, "lat": 43.6066199, "lon": -116.6060412}, {"type": "node", "id": 3353395776, "lat": 43.606774, "lon": -116.6060412}, {"type": "node", "id": 3353395777, "lat": 43.606774, "lon": -116.6060857}, {"type": "node", "id": 3354473357, "lat": 43.6046279, "lon": -116.6062709}, {"type": "node", "id": 3354473359, "lat": 43.604344, "lon": -116.6059849}, {"type": "node", "id": 3354473360, "lat": 43.6046297, "lon": -116.6059885}, {"type": "node", "id": 3354473362, "lat": 43.6041397, "lon": -116.6061867}, {"type": "node", "id": 3354473363, "lat": 43.6041394, "lon": -116.606254}, {"type": "node", "id": 3354473364, "lat": 43.6039836, "lon": -116.6062526}, {"type": "node", "id": 3354473365, "lat": 43.6039347, "lon": -116.6061835}, {"type": "node", "id": 3354473366, "lat": 43.6039694, "lon": -116.6061368}, {"type": "node", "id": 3354473367, "lat": 43.6039685, "lon": -116.6059594}, {"type": "node", "id": 3354473368, "lat": 43.6041459, "lon": -116.6059577}, {"type": "node", "id": 3354473369, "lat": 43.6041862, "lon": -116.6059231}, {"type": "node", "id": 3354473370, "lat": 43.6042355, "lon": -116.6059877}, {"type": "node", "id": 3354473371, "lat": 43.6041961, "lon": -116.606045}, {"type": "node", "id": 3354588433, "lat": 43.6028803, "lon": -116.6053347}, {"type": "node", "id": 3354588434, "lat": 43.6028795, "lon": -116.6055324}, {"type": "node", "id": 3354588435, "lat": 43.6028374, "lon": -116.6055321}, {"type": "node", "id": 3354588436, "lat": 43.6028368, "lon": -116.6056925}, {"type": "node", "id": 3354588437, "lat": 43.6024505, "lon": -116.6056893}, {"type": "node", "id": 3354588438, "lat": 43.6024511, "lon": -116.6055416}, {"type": "node", "id": 3354588439, "lat": 43.6022389, "lon": -116.6055398}, {"type": "node", "id": 3354588440, "lat": 43.6022462, "lon": -116.6038922}, {"type": "node", "id": 3354588441, "lat": 43.6023957, "lon": -116.6038935}, {"type": "node", "id": 3354588442, "lat": 43.6023958, "lon": -116.6040282}, {"type": "node", "id": 3354588443, "lat": 43.6028878, "lon": -116.6040272}, {"type": "node", "id": 3354588444, "lat": 43.6028877, "lon": -116.6042583}, {"type": "node", "id": 3354588445, "lat": 43.6029409, "lon": -116.6042588}, {"type": "node", "id": 3354588446, "lat": 43.6029394, "lon": -116.6046086}, {"type": "node", "id": 3354588447, "lat": 43.6028936, "lon": -116.6046082}, {"type": "node", "id": 3354588448, "lat": 43.602892, "lon": -116.6049873}, {"type": "node", "id": 3354588449, "lat": 43.6029269, "lon": -116.6049876}, {"type": "node", "id": 3354588450, "lat": 43.6029267, "lon": -116.6050481}, {"type": "node", "id": 3354588451, "lat": 43.6030372, "lon": -116.6050489}, {"type": "node", "id": 3355153110, "lat": 43.603031, "lon": -116.6080129, "tags": {"addr:city": "Nampa", "addr:housenumber": "2101", "addr:postcode": "83651", "addr:state": "ID", "addr:street": "North Cassia Street", "amenity": "restaurant", "cuisine": "chinese", "fax": "+1-208-467-9200", "name": "Chung Hing", "opening_hours": "Su 12:00-21:00, Mo-Th 11:00-21:00, Fr 11:00-22:00, Sa 12:00-22:00", "phone": "+1-208-467-9100"}}, {"type": "node", "id": 3567255295, "lat": 43.6057843, "lon": -116.6125844}, {"type": "node", "id": 3567255296, "lat": 43.6056627, "lon": -116.6125864}, {"type": "node", "id": 3567255297, "lat": 43.6056474, "lon": -116.6121781}, {"type": "node", "id": 3567255298, "lat": 43.6057806, "lon": -116.6121759}, {"type": "node", "id": 4848722523, "lat": 43.6032454, "lon": -116.6079167, "tags": {"amenity": "restaurant", "cuisine": "sushi", "name": "IOU Sushi II"}}, {"type": "node", "id": 6422400770, "lat": 43.6057033, "lon": -116.6082306}, {"type": "node", "id": 6422400773, "lat": 43.6066563, "lon": -116.6082291}, {"type": "node", "id": 6422400774, "lat": 43.6085662, "lon": -116.6082262}, {"type": "node", "id": 6543535072, "lat": 43.6055452, "lon": -116.6092902}, {"type": "node", "id": 10288542256, "lat": 43.6085651, "lon": -116.6093285}, {"type": "node", "id": 10288542258, "lat": 43.6055471, "lon": -116.6082308}, {"type": "node", "id": 10740631575, "lat": 43.6110994, "lon": -116.6094532}, {"type": "node", "id": 10740631576, "lat": 43.6109801, "lon": -116.6092855}, {"type": "node", "id": 10740631577, "lat": 43.6105489, "lon": -116.6098579}, {"type": "node", "id": 10740631578, "lat": 43.6106577, "lon": -116.6100256}, {"type": "node", "id": 10740631579, "lat": 43.6110221, "lon": -116.6119048}, {"type": "node", "id": 10740631580, "lat": 43.6108815, "lon": -116.6117012}, {"type": "node", "id": 10740631581, "lat": 43.6106721, "lon": -116.6119769}, {"type": "node", "id": 10740631582, "lat": 43.6108126, "lon": -116.6121805}, {"type": "node", "id": 10740631595, "lat": 43.612376, "lon": -116.6120283}, {"type": "node", "id": 10740631596, "lat": 43.6122623, "lon": -116.6118577}, {"type": "node", "id": 10740631597, "lat": 43.611982, "lon": -116.6122142}, {"type": "node", "id": 10740631598, "lat": 43.6120956, "lon": -116.6123847}, {"type": "node", "id": 10740633612, "lat": 43.6114314, "lon": -116.6130171}, {"type": "node", "id": 10740633613, "lat": 43.6114321, "lon": -116.6127296}, {"type": "node", "id": 10740633614, "lat": 43.6112982, "lon": -116.612729}, {"type": "node", "id": 10740633615, "lat": 43.6112981, "lon": -116.612764}, {"type": "node", "id": 10740633616, "lat": 43.611265, "lon": -116.6127638}, {"type": "node", "id": 10740633617, "lat": 43.6112643, "lon": -116.6130163}, {"type": "node", "id": 10740633883, "lat": 43.6101709, "lon": -116.6096974}, {"type": "node", "id": 10740633884, "lat": 43.6103128, "lon": -116.6095114}, {"type": "node", "id": 10740633885, "lat": 43.610245, "lon": -116.6094123}, {"type": "node", "id": 10740633886, "lat": 43.6100997, "lon": -116.6096013}, {"type": "node", "id": 10740633887, "lat": 43.6094533, "lon": -116.6081549}, {"type": "node", "id": 10740633888, "lat": 43.6094523, "lon": -116.6079668}, {"type": "node", "id": 10740633889, "lat": 43.6092473, "lon": -116.6079687}, {"type": "node", "id": 10740633890, "lat": 43.6090824, "lon": -116.6077233}, {"type": "node", "id": 10740633891, "lat": 43.6090001, "lon": -116.6078288}, {"type": "node", "id": 10740633892, "lat": 43.6092208, "lon": -116.6081571}, {"type": "node", "id": 10740633893, "lat": 43.6095517, "lon": -116.6075178}, {"type": "node", "id": 10740633894, "lat": 43.6088449, "lon": -116.6074984}, {"type": "node", "id": 10740633895, "lat": 43.6088477, "lon": -116.6073018}, {"type": "node", "id": 10740633896, "lat": 43.6092176, "lon": -116.6073121}, {"type": "node", "id": 10740633897, "lat": 43.6092191, "lon": -116.6072126}, {"type": "node", "id": 10740633898, "lat": 43.609556, "lon": -116.6072219}, {"type": "node", "id": 11209154679, "lat": 43.6054114, "lon": -116.6061127, "tags": {"addr:city": "Nampa", "addr:housenumber": "2002", "addr:postcode": "83651", "addr:state": "ID", "addr:street": "West Karcher Road", "brand": "NAPA AutoCare Center", "brand:wikidata": "Q6970842", "name": "NAPA AutoCare Center", "opening_hours": "Mo-Fr 08:00-17:00", "phone": "+12083916067", "service:vehicle:car_repair": "yes", "service:vehicle:rebuild": "yes", "service:vehicle:tuning": "yes", "service:vehicle:turbo": "yes", "shop": "car_repair", "website": "https://nampadieseltruckandautorepair.com/"}}, {"type": "node", "id": 11306515204, "lat": 43.6059554, "lon": -116.6060602, "tags": {"addr:city": "Nampa", "addr:housenumber": "1813", "addr:postcode": "83651", "addr:state": "ID", "addr:street": "Caldwell Boulevard", "check_date": "2024-04-05", "name": "The Big Box Outlet", "note": "Formerly a Kmart building\nSpirit Halloween: Sept 21st, 2023\nThe Big Box Outlet: Apr 4th, 2024", "opening_hours": "Mo-Sa 10:00-20:00, Su 11:00-20:00", "phone": "+12084424396", "shop": "variety_store"}}, {"type": "node", "id": 11396961961, "lat": 43.6083602, "lon": -116.6093254}, {"type": "node", "id": 12158706801, "lat": 43.6027825, "lon": -116.6040274}, {"type": "node", "id": 12158706806, "lat": 43.6023357, "lon": -116.603893, "tags": {"amenity": "loading_dock"}}, {"type": "node", "id": 12158706807, "lat": 43.6023029, "lon": -116.6038927, "tags": {"amenity": "loading_dock"}}, {"type": "node", "id": 12158706808, "lat": 43.6022692, "lon": -116.6038924, "tags": {"amenity": "loading_dock"}}, {"type": "node", "id": 12618643831, "lat": 43.6056622, "lon": -116.6125257}, {"type": "node", "id": 12618643832, "lat": 43.6056505, "lon": -116.6125259}, {"type": "way", "id": 328510372, "nodes": [2401084728, 3353395765, 3353395766, 3353395767, 2401084728], "tags": {"addr:city": "Nampa", "addr:housenumber": "1921", "addr:postcode": "83651", "addr:state": "ID", "addr:street": "Caldwell Boulevard", "amenity": "restaurant", "building": "yes", "cuisine": "mexican", "name": "Jalepenos Bar and Grill", "opening_hours": "Su 11:00-21:00, Mo-Th 11:00-22:00, Fr-Sa 11:00-22:30", "phone": "+1 208 442 6355", "website": "https://jalapenosidaho.com/"}}, {"type": "way", "id": 328510373, "nodes": [3353395768, 3353395769, 3353395770, 3353395771, 3353395772, 3353395773, 3353395774, 3353395775, 3353395776, 3353395777, 3353395768], "tags": {"addr:city": "Nampa", "addr:housenumber": "1901", "addr:postcode": "83651", "addr:state": "ID", "addr:street": "Caldwell Boulevard", "brand": "Staples", "brand:wikidata": "Q785943", "building": "retail", "name": "Staples", "opening_hours": "Mo-Fr 08:00-20:00; Sa 09:00-19:00; Su 11:00-17:00", "shop": "stationery", "website": "https://stores.staples.com/id/nampa/1901-caldwell-blvd"}}, {"type": "way", "id": 328634782, "nodes": [3354473357, 2401084741, 3354473359, 3354473360, 3354473357], "tags": {"addr:city": "Nampa", "addr:housenumber": "2011", "addr:postcode": "83651", "addr:state": "ID", "addr:street": "West Karcher Road", "amenity": "restaurant", "brand": "Outback Steakhouse", "brand:wikidata": "Q1064893", "building": "commercial", "cuisine": "american;steak", "name": "Outback Steakhouse", "opening_hours": "Su 11:30-21:00, Mo-Th 11:30-22:00, Fr-Sa 11:30-23:00", "phone": "+1 208 461 4585", "ref:shop:num": "1313", "roof:shape": "flat", "takeaway": "yes", "website": "https://www.buffalowildwings.com/"}}, {"type": "way", "id": 328634783, "nodes": [2401084752, 3354473362, 3354473363, 3354473364, 3354473365, 3354473366, 3354473367, 3354473368, 3354473369, 3354473370, 3354473371, 2401084752], "tags": {"addr:city": "Nampa", "addr:housenumber": "2007", "addr:postcode": "83651", "addr:state": "ID", "addr:street": "North Cassia Street", "amenity": "restaurant", "building": "commercial", "cuisine": "pizza", "name": "Smoky Mountain Pizza", "opening_hours": "Su 12:00-21:00, Mo-Th 11:00-21:30, Fr-Sa 11:00-22:00", "phone": "+1 208 461 7333", "website": "https://smokymountainpizza.com/"}}, {"type": "way", "id": 328643324, "nodes": [694534816, 3354588433, 3354588434, 3354588435, 3354588436, 3354588437, 3354588438, 3354588439, 3354588440, 12158706808, 12158706807, 12158706806, 3354588441, 3354588442, 12158706801, 3354588443, 3354588444, 3354588445, 3354588446, 3354588447, 3354588448, 3354588449, 3354588450, 3354588451, 694534816], "tags": {"addr:city": "Nampa", "addr:housenumber": "2003", "addr:postcode": "83651", "addr:state": "ID", "addr:street": "North Cassia Street", "alt_name": "Home Depot", "branch": "Nampa", "brand": "The Home Depot", "brand:wikidata": "Q864407", "building": "retail", "name": "The Home Depot", "opening_hours": "Su 08:00-19:00, Mo-Sa 06:00-21:00", "operator": "The Home Depot U.S.A. Inc", "phone": "+1 208-461-6476", "ref": "8941", "ref:home_depot": "8941", "roof:shape": "flat", "shop": "doityourself", "website": "https://www.homedepot.com/l/nampa/id/nampa/83651/8941"}}, {"type": "way", "id": 351007192, "nodes": [3567255295, 3567255296, 12618643831, 12618643832, 3567255297, 3567255298, 3567255295], "tags": {"addr:city": "Nampa", "addr:housenumber": "2516", "addr:postcode": "83651", "addr:state": "ID", "addr:street": "West Karcher Road", "brand": "Maverik", "brand:wikidata": "Q64149010", "building": "yes", "building:levels": "1", "name": "Maverik", "shop": "convenience"}}, {"type": "way", "id": 1125076122, "nodes": [10288542256, 6422400774, 6422400773, 6422400770, 10288542258, 6543535072, 11396961961, 10288542256], "tags": {"landuse": "industrial", "shop": "storage_rental"}}, {"type": "way", "id": 1154904669, "nodes": [10740631575, 10740631576, 10740631577, 10740631578, 10740631575], "tags": {"addr:city": "Nampa", "addr:housenumber": "2324", "addr:postcode": "83644", "addr:state": "ID", "addr:street": "Caldwell Boulevard", "brand": "Bobcat", "building": "yes", "name": "High Desert Bobcat", "opening_hours": "Mo-Fr 07:00-17:00", "phone": "+1-208-475-4820", "shop": "truck", "website": "https://www.hdbobcat.com/contact-bobcat-of-nampa"}}, {"type": "way", "id": 1154904670, "nodes": [10740631579, 10740631580, 10740631581, 10740631582, 10740631579], "tags": {"brand": "NAPA Auto Parts", "brand:wikidata": "Q6970842", "building": "yes", "name": "NAPA Auto Parts", "shop": "car_parts"}}, {"type": "way", "id": 1154904674, "nodes": [10740631595, 10740631596, 10740631597, 10740631598, 10740631595], "tags": {"addr:city": "Nampa", "addr:housenumber": "2510", "addr:postcode": "83652", "addr:state": "ID", "addr:street": "Caldwell Boulevard", "brand": "Honda", "brand:wikidata": "Q9584", "building": "yes", "name": "Dennis Dillon Canyon Honda", "phone": "+1-208-495-5758", "shop": "car", "website": "https://www.dennisdilloncanyonhonda.com"}}, {"type": "way", "id": 1154904677, "nodes": [10740633612, 10740633613, 10740633614, 10740633615, 10740633616, 10740633617, 10740633612], "tags": {"building": "yes", "shop": "convenience"}}, {"type": "way", "id": 1154904723, "nodes": [10740633883, 10740633884, 10740633885, 10740633886, 10740633883], "tags": {"addr:city": "Nampa", "addr:housenumber": "341", "addr:postcode": "83651", "addr:state": "ID", "addr:street": "Caldwell Boulevard", "brand": "H&R Block", "brand:wikidata": "Q5627799", "building": "yes", "building:levels": "1", "name": "H&R Block", "office": "tax_advisor", "phone": "+1-208-461-9308", "website": "https://www.hrblock.com/local-tax-offices/idaho/nampa/341-caldwell-blvd/48965"}}, {"type": "way", "id": 1154904724, "nodes": [10740633887, 10740633888, 10740633889, 10740633890, 10740633891, 10740633892, 10740633887], "tags": {"brand": "Point S", "brand:wikidata": "Q3393358", "building": "yes", "name": "Point S", "shop": "car_repair"}}, {"type": "way", "id": 1154904725, "nodes": [10740633893, 10740633894, 10740633895, 10740633896, 10740633897, 10740633898, 10740633893], "tags": {"addr:city": "Nampa", "addr:housenumber": "2204", "addr:postcode": "83644", "addr:state": "ID", "addr:street": "Caldwell Boulevard", "brand": "Kubota", "building": "yes", "name": "Idaho Tractor Inc.", "opening_hours": "Mo-Fr 8:00-17:00; Sa 8:00-12:00", "phone": "+1-208-466-4611", "second_hand": "yes", "service:vehicle:rental": "yes", "shop": "truck"}}]}