{"version": 0.6, "generator": "Overpass API 0.7.62.8 e802775f", "osm3s": {"timestamp_osm_base": "2025-12-06T19:37:45Z", "copyright": "The data included in this document is from www.openstreetmap.org. The data is made available under ODbL."}, "elements": [{"type": "node", "id": 3992536159, "lat": 47.5609875, "lon": -122.6512066}, {"type": "node", "id": 3992536160, "lat": 47.5609875, "lon": -122.6516843}, {"type": "node", "id": 3992536167, "lat": 47.5610141, "lon": -122.6509503}, {"type": "node", "id": 3992536168, "lat": 47.5610141, "lon": -122.6512066}, {"type": "node", "id": 3992536169, "lat": 47.5610141, "lon": -122.6516843}, {"type": "node", "id": 3992536170, "lat": 47.5610141, "lon": -122.6517513}, {"type": "node", "id": 3992536222, "lat": 47.5611939, "lon": -122.6508454}, {"type": "node", "id": 3992536223, "lat": 47.5611939, "lon": -122.6509503}, {"type": "node", "id": 3992536264, "lat": 47.5613177, "lon": -122.6516843}, {"type": "node", "id": 3992536265, "lat": 47.5613177, "lon": -122.6517513}, {"type": "node", "id": 3992536341, "lat": 47.5615428, "lon": -122.6512081}, {"type": "node", "id": 3992536342, "lat": 47.5615428, "lon": -122.6516843}, {"type": "node", "id": 3992536355, "lat": 47.5615732, "lon": -122.6511236}, {"type": "node", "id": 3992536356, "lat": 47.5615732, "lon": -122.6512081}, {"type": "node", "id": 3992536361, "lat": 47.5615997, "lon": -122.6510435}, {"type": "node", "id": 3992536362, "lat": 47.5615997, "lon": -122.6511236}, {"type": "node", "id": 3992536369, "lat": 47.5616282, "lon": -122.6509561}, {"type": "node", "id": 3992536370, "lat": 47.5616282, "lon": -122.6510435}, {"type": "node", "id": 3992536379, "lat": 47.5616548, "lon": -122.6508454}, {"type": "node", "id": 3992536380, "lat": 47.5616548, "lon": -122.6509561}, {"type": "node", "id": 12757803651, "lat": 47.5611939, "lon": -122.6509195, "tags": {"entrance": "yes"}}, {"type": "node", "id": 13347402201, "lat": 47.5653285, "lon": -122.6496489, "tags": {"addr:housenumber": "2315", "addr:postcode": "98312", "addr:street": "Burwell Street", "leisure": "fitness_centre", "name": "Insight Climbing & Movement", "opening_hours": "Tu-Fr 11:00-21:00; Sa-Su 10:00-17:00", "phone": "+1-360-627-7150", "website": "https://www.insightclimbing.com"}}, {"type": "way", "id": 396448238, "nodes": [3992536167, 3992536168, 3992536159, 3992536160, 3992536169, 3992536170, 3992536265, 3992536264, 3992536342, 3992536341, 3992536356, 3992536355, 3992536362, 3992536361, 3992536370, 3992536369, 3992536380, 3992536379, 3992536222, 12757803651, 3992536223, 3992536167], "tags": {"addr:housenumber": "1017", "building": "industrial", "leisure": "fitness_centre", "name": "Naval Base Kitsap Bremerton Gym"}}]}