{"version": 0.6, "generator": "Overpass API 0.7.62.8 e802775f", "osm3s": {"timestamp_osm_base": "2025-12-06T04:24:23Z", "copyright": "The data included in this document is from www.openstreetmap.org. The data is made available under ODbL."}, "elements": [{"type": "node", "id": 8153211995, "lat": 45.2976197, "lon": -108.9136751}, {"type": "node", "id": 8153211996, "lat": 45.2972591, "lon": -108.9136704}, {"type": "node", "id": 8153211997, "lat": 45.2972603, "lon": -108.9134687}, {"type": "node", "id": 8153211998, "lat": 45.297621, "lon": -108.9134732}, {"type": "node", "id": 8153252409, "lat": 45.2960677, "lon": -108.9139392}, {"type": "node", "id": 8153252410, "lat": 45.2960706, "lon": -108.9134572}, {"type": "node", "id": 8153252411, "lat": 45.2959926, "lon": -108.9134563}, {"type": "node", "id": 8153252412, "lat": 45.2959911, "lon": -108.913698}, {"type": "node", "id": 8153252413, "lat": 45.2959223, "lon": -108.9136972}, {"type": "node", "id": 8153252414, "lat": 45.2959209, "lon": -108.9139374}, {"type": "node", "id": 8153252415, "lat": 45.2960133, "lon": -108.913759, "tags": {"addr:city": "Bridger", "addr:housenumber": "105", "addr:postcode": "59014", "addr:state": "MT", "addr:street": "North Main Street", "name": "Valley Foods", "opening_hours": "Mo-Sa 08:00-20:00, Su 09:00-19:00", "phone": "+1 406-662-3591", "shop": "supermarket", "website": "https://valley-foods.edan.io/"}}, {"type": "node", "id": 9954039177, "lat": 45.2950227, "lon": -108.9139356}, {"type": "node", "id": 9954039178, "lat": 45.2950255, "lon": -108.9136352}, {"type": "node", "id": 9954039179, "lat": 45.2949425, "lon": -108.9136337}, {"type": "node", "id": 9954039180, "lat": 45.2949398, "lon": -108.9139341}, {"type": "way", "id": 875999406, "nodes": [8153211995, 8153211996, 8153211997, 8153211998, 8153211995], "tags": {"addr:city": "Bridger", "addr:housenumber": "209", "addr:postcode": "59014", "addr:state": "MT", "addr:street": "North Main Street", "building": "yes", "description": "Includes Farm Store, Gas Station, and Deli", "name": "Bridger C-Store & Farm Store", "phone": "+1 406-662-3623", "shop": "convenience", "website": "https://www.tandcsupply.com/convenience-stores/"}}, {"type": "way", "id": 876004356, "nodes": [8153252409, 8153252410, 8153252411, 8153252412, 8153252413, 8153252414, 8153252409], "tags": {"addr:city": "Bridger", "addr:housenumber": "105", "addr:postcode": "59014", "addr:state": "MT", "addr:street": "North Main Street", "building": "yes", "name": "Valley Foods", "opening_hours": "Mo-Sa 08:00-20:00, Su 09:00-19:00", "phone": "+1 406-662-3591", "shop": "supermarket", "website": "https://valley-foods.edan.io/"}}, {"type": "way", "id": 1086353990, "nodes": [9954039177, 9954039178, 9954039179, 9954039180, 9954039177], "tags": {"amenity": "bar", "building": "yes", "name": "Dry Creek Saloon"}}]}