{"version": 0.6, "generator": "Overpass API 0.7.62.8 e802775f", "osm3s": {"timestamp_osm_base": "2025-12-07T02:36:15Z", "copyright": "The data included in this document is from www.openstreetmap.org. The data is made available under ODbL."}, "elements": [{"type": "node", "id": 6678187674, "lat": 47.3311631, "lon": -122.6531671}, {"type": "node", "id": 6678187675, "lat": 47.3311624, "lon": -122.6530683}, {"type": "node", "id": 6678187676, "lat": 47.3310745, "lon": -122.6530697}, {"type": "node", "id": 6678187677, "lat": 47.331075, "lon": -122.6531688}, {"type": "node", "id": 13160560543, "lat": 47.3364562, "lon": -122.6491098}, {"type": "node", "id": 13160560544, "lat": 47.336627, "lon": -122.6489829}, {"type": "node", "id": 13160560545, "lat": 47.3366171, "lon": -122.6489539}, {"type": "node", "id": 13160560546, "lat": 47.3366951, "lon": -122.648896}, {"type": "node", "id": 13160560547, "lat": 47.3366536, "lon": -122.6487745}, {"type": "node", "id": 13160560548, "lat": 47.3364048, "lon": -122.6489593}, {"type": "way", "id": 710396833, "nodes": [6678187674, 6678187675, 6678187676, 6678187677, 6678187674], "tags": {"building": "roof", "building:levels": "1", "layer": "1"}}, {"type": "way", "id": 1431802451, "nodes": [13160560543, 13160560544, 13160560545, 13160560546, 13160560547, 13160560548, 13160560543], "tags": {"addr:city": "Gig Harbor", "addr:housenumber": "8210", "addr:postcode": "98332", "addr:state": "WA", "addr:street": "87th Street Court Northwest", "building": "house", "building:levels": "1", "house": "detached"}}]}