{"version": 0.6, "generator": "Overpass API 0.7.62.8 e802775f", "osm3s": {"timestamp_osm_base": "2025-12-06T05:18:59Z", "copyright": "The data included in this document is from www.openstreetmap.org. The data is made available under ODbL."}, "elements": [{"type": "node", "id": 6329194891, "lat": 42.5193226, "lon": -113.7937931}, {"type": "node", "id": 6329194892, "lat": 42.519135, "lon": -113.7938009}, {"type": "node", "id": 6329194893, "lat": 42.5191293, "lon": -113.7935521}, {"type": "node", "id": 6329194894, "lat": 42.519317, "lon": -113.7935443}, {"type": "node", "id": 6329194895, "lat": 42.5204238, "lon": -113.7936165, "tags": {"addr:city": "Burley", "addr:housenumber": "2570", "addr:postcode": "83318", "addr:state": "ID", "addr:street": "Overland Avenue", "amenity": "restaurant", "brand": "Pizza Hut", "brand:wikidata": "Q191615", "cuisine": "pizza", "name": "Pizza Hut", "phone": "+1 208-678-7867", "website": "https://locations.pizzahut.com/id/burley/2570-overland-ave"}}, {"type": "node", "id": 6329194896, "lat": 42.5209393, "lon": -113.7939405, "tags": {"name": "Wilson Bates", "shop": "furniture"}}, {"type": "node", "id": 6329194897, "lat": 42.5212274, "lon": -113.7939508, "tags": {"addr:city": "Burley", "addr:housenumber": "2556", "addr:postcode": "83318-2941", "addr:state": "ID", "addr:street": "Overland Avenue", "brand": "Ace Hardware", "brand:wikidata": "Q4672981", "name": "Ace Hardware", "opening_hours": "Mo-Sa 08:00-19:00; Su 09:00-17:00", "phone": "+1 208-678-5534", "ref": "03352", "shop": "doityourself"}}, {"type": "node", "id": 6329194898, "lat": 42.521849, "lon": -113.7938736, "tags": {"name": "Branded Boutique & Tack", "shop": "clothes"}}, {"type": "node", "id": 6329194899, "lat": 42.522986, "lon": -113.7935239, "tags": {"shop": "hairdresser"}}, {"type": "node", "id": 6329194900, "lat": 42.5238009, "lon": -113.7936782, "tags": {"brand": "Sears", "brand:wikidata": "Q6499202", "name": "Sears", "shop": "department_store"}}, {"type": "node", "id": 7201826780, "lat": 42.5393713, "lon": -113.8042603}, {"type": "node", "id": 7201826781, "lat": 42.5393728, "lon": -113.803943}, {"type": "node", "id": 7201826782, "lat": 42.5391344, "lon": -113.8039471}, {"type": "node", "id": 7201826783, "lat": 42.5391328, "lon": -113.8040077}, {"type": "node", "id": 7201826784, "lat": 42.5389498, "lon": -113.8040035}, {"type": "node", "id": 7201826985, "lat": 42.5389482, "lon": -113.8040766}, {"type": "node", "id": 7201826986, "lat": 42.5391344, "lon": -113.8040766}, {"type": "node", "id": 7201826987, "lat": 42.5391328, "lon": -113.8042645}, {"type": "node", "id": 9950478885, "lat": 42.5179997, "lon": -113.7927926, "tags": {"shop": "storage_rental"}}, {"type": "node", "id": 9950478886, "lat": 42.5392626, "lon": -113.8041201, "tags": {"name": "Burley Livestock Auction", "shop": "auction_house"}}, {"type": "node", "id": 9950528851, "lat": 42.534636, "lon": -113.8139322, "tags": {"shop": "storage_rental"}}, {"type": "node", "id": 9950528854, "lat": 42.5353026, "lon": -113.8126912, "tags": {"shop": "convenience"}}, {"type": "node", "id": 9950535044, "lat": 42.5378605, "lon": -113.805171, "tags": {"shop": "storage_rental"}}, {"type": "node", "id": 9950535045, "lat": 42.5365044, "lon": -113.8074886, "tags": {"brand": "Chevrolet", "brand:wikidata": "Q29570", "name": "Chevrolet", "shop": "car"}}, {"type": "way", "id": 675837287, "nodes": [6329194891, 6329194892, 6329194893, 6329194894, 6329194891], "tags": {"building": "yes", "name": "Ross Manufacturing & Welding", "shop": "hardware"}}, {"type": "way", "id": 771468249, "nodes": [7201826780, 7201826781, 7201826782, 7201826783, 7201826784, 7201826985, 7201826986, 7201826987, 7201826780], "tags": {"addr:city": "Burley", "addr:housenumber": "1111", "addr:postcode": "83318", "addr:state": "ID", "addr:street": "Bedke Boulevard", "building": "yes", "name": "Gavilon Grain", "opening_hours": "Mo-Fr 07:30-16:30", "phone": "+1 208-677-5120", "shop": "agrarian", "trade": "yes", "website": "https://www.gavilon.com/location/Burley-ID"}}]}