{"version": 0.6, "generator": "Overpass API 0.7.62.8 e802775f", "osm3s": {"timestamp_osm_base": "2025-12-06T04:26:36Z", "copyright": "The data included in this document is from www.openstreetmap.org. The data is made available under ODbL."}, "elements": [{"type": "node", "id": 9733951863, "lat": 48.0681106, "lon": -114.0820729, "tags": {"shop": "laundry"}}, {"type": "node", "id": 12433929267, "lat": 48.067323, "lon": -114.1051047}, {"type": "node", "id": 12433929268, "lat": 48.0675137, "lon": -114.1051129}, {"type": "node", "id": 12433929269, "lat": 48.0684494, "lon": -114.1053671}, {"type": "node", "id": 12433929270, "lat": 48.0686543, "lon": -114.1043406}, {"type": "node", "id": 12433929271, "lat": 48.0679585, "lon": -114.1040357}, {"type": "node", "id": 12433929272, "lat": 48.0673197, "lon": -114.1040127}, {"type": "way", "id": 1343827378, "nodes": [12433929267, 12433929268, 12433929269, 12433929270, 12433929271, 12433929272, 12433929267], "tags": {"addr:city": "Bigfork", "addr:housenumber": "560", "addr:postcode": "59911", "addr:state": "MT", "addr:street": "Holt Drive", "landuse": "retail", "name": "Eagle Bend Storage Center", "phone": "+1 406-837-1574", "shop": "storage_rental"}}]}