{"version": 0.6, "generator": "Overpass API 0.7.62.8 e802775f", "osm3s": {"timestamp_osm_base": "2025-11-30T00:15:37Z", "copyright": "The data included in this document is from www.openstreetmap.org. The data is made available under ODbL."}, "elements": [{"type": "node", "id": 9225935079, "lat": 34.3377591, "lon": -93.5053346}, {"type": "node", "id": 9225935080, "lat": 34.3377546, "lon": -93.5056913}, {"type": "node", "id": 9225935081, "lat": 34.3376797, "lon": -93.5057966}, {"type": "node", "id": 9225935082, "lat": 34.3375841, "lon": -93.5056967}, {"type": "node", "id": 9225935083, "lat": 34.337584, "lon": -93.5053373}, {"type": "node", "id": 9225935084, "lat": 34.337666, "lon": -93.5053373}, {"type": "way", "id": 999346430, "nodes": [9225935079, 9225935080, 9225935081, 9225935082, 9225935083, 9225935084, 9225935079], "tags": {"addr:city": "Glenwood", "addr:housenumber": "584", "addr:postcode": "71943", "addr:state": "AR", "addr:street": "US-70", "building": "yes", "name": "Glenwood Country Club", "tourism": "hotel"}}]}