{"version": 0.6, "generator": "Overpass API 0.7.62.8 e802775f", "osm3s": {"timestamp_osm_base": "2025-12-05T21:14:00Z", "copyright": "The data included in this document is from www.openstreetmap.org. The data is made available under ODbL."}, "elements": [{"type": "node", "id": 11366883871, "lat": 47.8292405, "lon": -110.6559973}, {"type": "node", "id": 11366883872, "lat": 47.8294378, "lon": -110.6557814}, {"type": "node", "id": 11366883873, "lat": 47.8295063, "lon": -110.6559204}, {"type": "node", "id": 11366883874, "lat": 47.829309, "lon": -110.6561363}, {"type": "node", "id": 11741922766, "lat": 47.8292763, "lon": -110.6560701, "tags": {"door": "hinged", "entrance": "yes"}}, {"type": "way", "id": 1225709763, "nodes": [11366883874, 11366883873, 11366883872, 11366883871, 11741922766, 11366883874], "tags": {"addr:city": "Fort Benton", "addr:country": "US", "addr:housenumber": "2701", "addr:postcode": "59442", "addr:state": "MT", "addr:street": "Main Street", "building": "yes", "leisure": "pitch", "name": "4H Archery Range", "operator": "Fort Benton Archery Club", "sport": "shooting", "start_date": "1965"}}]}