{"version": 0.6, "generator": "Overpass API 0.7.62.8 e802775f", "osm3s": {"timestamp_osm_base": "2025-12-06T19:37:45Z", "copyright": "The data included in this document is from www.openstreetmap.org. The data is made available under ODbL."}, "elements": [{"type": "node", "id": 5371659237, "lat": 47.6049129, "lon": -122.6273858, "tags": {"addr:city": "Bremerton", "addr:housenumber": "4310", "addr:postcode": "98310", "addr:state": "WA", "addr:street": "Wheaton Way", "brand": "Planet Fitness", "brand:wikidata": "Q7201095", "leisure": "fitness_centre", "name": "Planet Fitness", "website": "https://www.planetfitness.com/gyms/bremerton-wa"}}, {"type": "node", "id": 12739944313, "lat": 47.5912167, "lon": -122.6272186}, {"type": "node", "id": 12739944314, "lat": 47.5908156, "lon": -122.6272179}, {"type": "node", "id": 12739944315, "lat": 47.5908219, "lon": -122.6263684}, {"type": "node", "id": 12739944316, "lat": 47.5912321, "lon": -122.6263751}, {"type": "way", "id": 1375962566, "nodes": [12739944313, 12739944314, 12739944315, 12739944316, 12739944313], "tags": {"building": "yes", "leisure": "sports_hall", "name": "East Bremerton Community Gym"}}]}