{"version": 0.6, "generator": "Overpass API 0.7.62.8 e802775f", "osm3s": {"timestamp_osm_base": "2025-12-12T18:37:11Z", "copyright": "The data included in this document is from www.openstreetmap.org. The data is made available under ODbL."}, "elements": [{"type": "node", "id": 4126931931, "lat": 38.7039383, "lon": -107.611094, "tags": {"addr:city": "Crawford", "addr:housename": "Crawford Public Library", "addr:housenumber": "425", "addr:postcode": "81415", "addr:street": "Highway 92", "amenity": "library", "name": "Crawford Public Library", "website": "https://librarytechnology.org/libraries/library.pl?id=10831"}}, {"type": "node", "id": 4126952424, "lat": 38.7034903, "lon": -107.6085191, "tags": {"addr:city": "Crawford", "addr:housename": "Wild Country Keepsakes", "addr:housenumber": "344", "addr:postcode": "81415", "addr:state": "CO", "addr:street": "Highway 92", "name": "Wild Country Keepsakes", "note": "Includes arts, crafts, books, souvenirs, photography", "operator": "Wild Country Keepsakes Ltd.", "shop": "gift", "website": "https://wildcountrykeepsakes.com/"}}, {"type": "node", "id": 4127009599, "lat": 38.7058263, "lon": -107.6037555, "tags": {"addr:city": "Crawford", "addr:housename": "Crawford Elementary", "addr:housenumber": "51", "addr:postcode": "81415", "addr:street": "Fir Street", "alt_name": "Crawford Elementary School", "amenity": "school", "designation": "Elementary School", "name": "North Fork Montessori at Crawford", "source": "Delta County School District"}}, {"type": "node", "id": 4127011119, "lat": 38.7031198, "lon": -107.607537, "tags": {"amenity": "post_office", "name": "Crawford Post Office", "operator": "United States Postal Service", "operator:short": "USPS", "operator:type": "public", "operator:website": "https://www.usps.com", "operator:wikidata": "Q668687", "operator:wikipedia": "en:United States Postal Service", "short_name": "USPS"}}, {"type": "node", "id": 4127012189, "lat": 38.7034234, "lon": -107.6097073, "tags": {"amenity": "bank", "atm": "yes", "name": "First State Bank of Colorado", "operator": "First State Bank of Colorado"}}, {"type": "node", "id": 4127019048, "lat": 38.7032894, "lon": -107.60809, "tags": {"addr:city": "Crawford", "addr:housenumber": "345", "addr:postcode": "81415", "addr:state": "CO", "addr:street": "CO 92", "shop": "vacant"}}, {"type": "node", "id": 4127357304, "lat": 38.7041014, "lon": -107.6100164, "tags": {"amenity": "townhall", "name": "Crawford Town Hall"}}, {"type": "node", "id": 5376271889, "lat": 38.7038465, "lon": -107.6113898}, {"type": "node", "id": 5376271890, "lat": 38.704043, "lon": -107.6113756}, {"type": "node", "id": 5376271891, "lat": 38.7040272, "lon": -107.6110166}, {"type": "node", "id": 5376271892, "lat": 38.7039199, "lon": -107.6110243}, {"type": "node", "id": 5376271893, "lat": 38.7039299, "lon": -107.6112508}, {"type": "node", "id": 5376271894, "lat": 38.7038407, "lon": -107.6112573}, {"type": "node", "id": 12850913471, "lat": 38.7028614, "lon": -107.6074715}, {"type": "node", "id": 12850913472, "lat": 38.7026837, "lon": -107.6073736}, {"type": "node", "id": 12850913473, "lat": 38.7026732, "lon": -107.6073348}, {"type": "node", "id": 12850913474, "lat": 38.7027141, "lon": -107.60721}, {"type": "node", "id": 12850913475, "lat": 38.7027266, "lon": -107.6072073}, {"type": "node", "id": 12850913476, "lat": 38.7028069, "lon": -107.6069676}, {"type": "node", "id": 12850913477, "lat": 38.7029415, "lon": -107.6070417}, {"type": "node", "id": 12850913478, "lat": 38.7028425, "lon": -107.6073374}, {"type": "node", "id": 12850913479, "lat": 38.7028964, "lon": -107.6073671}, {"type": "node", "id": 12850913480, "lat": 38.7027051, "lon": -107.6077796}, {"type": "node", "id": 12850913481, "lat": 38.702705, "lon": -107.6076866}, {"type": "node", "id": 12850913482, "lat": 38.7026422, "lon": -107.6076869}, {"type": "node", "id": 12850913483, "lat": 38.7026424, "lon": -107.6077796}, {"type": "node", "id": 12850913487, "lat": 38.7029747, "lon": -107.6078137, "tags": {"addr:city": "Crawford", "addr:housenumber": "286", "addr:postcode": "81415", "addr:state": "CO", "addr:street": "CO 92", "amenity": "cafe", "cuisine": "coffee_shop", "description": "The Lazy J serves coffee and has a selection of snacks and breakfast and lunch items.", "name": "The Lazy J Coffee Shop", "opening_hours": "Mo-Sa 07:00-12:30", "outdoor_seating": "yes", "toilets": "yes", "website": "https://www.lazyjcoffee.com/"}}, {"type": "way", "id": 557450233, "nodes": [5376271889, 5376271890, 5376271891, 5376271892, 5376271893, 5376271894, 5376271889], "tags": {"addr:city": "Crawford", "addr:housenumber": "595", "addr:postcode": "81415", "addr:state": "CO", "addr:street": "CO 92", "amenity": "library", "building": "yes", "name": "Crawford Library"}}, {"type": "way", "id": 1388234414, "nodes": [12850913471, 12850913472, 12850913473, 12850913474, 12850913475, 12850913476, 12850913477, 12850913478, 12850913479, 12850913471], "tags": {"addr:city": "Crawford", "addr:housenumber": "273", "addr:postcode": "81415", "addr:state": "CO", "addr:street": "CO 92", "air_conditioning": "yes", "amenity": "restaurant", "bar": "yes", "building": "yes", "contact:facebook": "https://www.facebook.com/NorthForkBoardwalk/", "cuisine": "burger;sandwich;american", "delivery": "no", "name": "North Fork Boardwalk", "opening_hours": "Tu-Th 11:00-22:00, Fr-Sa 11:00-23:59, Su 08:00-22:00", "outdoor_seating": "yes", "phone": "+1-970-921-1036", "toilets": "yes", "toilets:wheelchair": "yes", "wheelchair": "yes"}}, {"type": "way", "id": 1388234415, "nodes": [12850913480, 12850913481, 12850913482, 12850913483, 12850913480], "tags": {"addr:city": "Crawford", "addr:housenumber": "270", "addr:postcode": "81415", "addr:state": "CO", "addr:street": "CO 92", "building": "yes", "description": "The Lucky Horseshoe is a gift shop and local visitor center, they stock gifts, snacks, and vintage records.", "name": "The Lucky Horseshoe", "opening_hours": "We-Mo 10:00-18:00", "phone": "+1-970-417-6601", "shop": "gift", "website": "https://www.stonehouseinn.net/lucky-horseshoe.html"}}]}