{"version": 0.6, "generator": "Overpass API 0.7.62.8 e802775f", "osm3s": {"timestamp_osm_base": "2025-12-05T21:32:17Z", "copyright": "The data included in this document is from www.openstreetmap.org. The data is made available under ODbL."}, "elements": [{"type": "node", "id": 357982498, "lat": 47.7981362, "lon": -114.2922744}, {"type": "node", "id": 8908320301, "lat": 47.7993454, "lon": -114.2903816}, {"type": "node", "id": 8908320302, "lat": 47.7993098, "lon": -114.290379}, {"type": "node", "id": 8908320303, "lat": 47.7993201, "lon": -114.2903114}, {"type": "node", "id": 8908320304, "lat": 47.7993504, "lon": -114.2903191}, {"type": "node", "id": 12271800340, "lat": 47.7981365, "lon": -114.2921593}, {"type": "node", "id": 12271800341, "lat": 47.7979776, "lon": -114.2921586}, {"type": "node", "id": 12271800342, "lat": 47.7979774, "lon": -114.2922737}, {"type": "node", "id": 12271800343, "lat": 47.7981364, "lon": -114.2921856}, {"type": "node", "id": 12271800349, "lat": 47.7979775, "lon": -114.2922588}, {"type": "node", "id": 12271800352, "lat": 47.7979773, "lon": -114.2922203}, {"type": "node", "id": 12708340494, "lat": 47.7976664, "lon": -114.2952683}, {"type": "node", "id": 12708340495, "lat": 47.797665, "lon": -114.2951208}, {"type": "node", "id": 12708340496, "lat": 47.7977947, "lon": -114.2951181}, {"type": "node", "id": 12708340497, "lat": 47.7977961, "lon": -114.2952656}, {"type": "way", "id": 963046347, "nodes": [8908320301, 8908320302, 8908320303, 8908320304, 8908320301], "tags": {"addr:city": "Big Arm", "addr:housenumber": "44227", "addr:postcode": "59860", "addr:state": "MT", "addr:street": "A Street", "building": "yes", "name": "Boat Rentals and Rides"}}, {"type": "way", "id": 1326342139, "nodes": [357982498, 12271800343, 12271800340, 12271800341, 12271800352, 12271800349, 12271800342, 357982498], "tags": {"addr:city": "Big Arm", "addr:housenumber": "28541", "addr:postcode": "59910", "addr:state": "MT", "addr:street": "5th Street", "amenity": "post_office", "building": "yes", "ele": "895", "gnis:feature_id": "1796931", "name": "United States Post Office", "operator": "United States Postal Service", "operator:short": "USPS", "operator:type": "public", "operator:wikidata": "Q668687"}}, {"type": "way", "id": 1372496418, "nodes": [12708340494, 12708340495, 12708340496, 12708340497, 12708340494], "tags": {"addr:city": "Big Arm", "addr:housenumber": "28565", "addr:postcode": "59910", "addr:state": "MT", "addr:street": "7th Street", "building": "fire_station", "source": "microsoft/BuildingFootprints"}}]}