{"version": 0.6, "generator": "Overpass API 0.7.62.8 e802775f", "osm3s": {"timestamp_osm_base": "2025-12-06T21:14:59Z", "copyright": "The data included in this document is from www.openstreetmap.org. The data is made available under ODbL."}, "elements": [{"type": "node", "id": 1832601781, "lat": 47.4958836, "lon": -122.205942}, {"type": "node", "id": 1832601804, "lat": 47.4962892, "lon": -122.205939}, {"type": "node", "id": 1832601836, "lat": 47.4962854, "lon": -122.2068294}, {"type": "node", "id": 1832601943, "lat": 47.4957541, "lon": -122.2068219}, {"type": "node", "id": 1832602054, "lat": 47.4957598, "lon": -122.2059403}, {"type": "node", "id": 2969241502, "lat": 47.4963395, "lon": -122.2063977}, {"type": "node", "id": 4238376591, "lat": 47.4802154, "lon": -122.2064238, "tags": {"addr:city": "Renton", "addr:housenumber": "222", "addr:postcode": "98057", "addr:state": "WA", "addr:street": "Williams Avenue South", "leisure": "fitness_centre", "name": "Hot Yoga Renton", "sport": "yoga"}}, {"type": "node", "id": 4294826518, "lat": 47.4962838, "lon": -122.2064779}, {"type": "node", "id": 4294826519, "lat": 47.4962842, "lon": -122.2062685}, {"type": "node", "id": 4294826521, "lat": 47.4963083, "lon": -122.2064648}, {"type": "node", "id": 4294826522, "lat": 47.4963082, "lon": -122.2062857}, {"type": "node", "id": 4294826524, "lat": 47.4963267, "lon": -122.2064367}, {"type": "node", "id": 4294826525, "lat": 47.4963283, "lon": -122.2063143}, {"type": "node", "id": 4294826526, "lat": 47.4963392, "lon": -122.2063554}, {"type": "node", "id": 5850718866, "lat": 47.4811077, "lon": -122.2044354, "tags": {"check_date": "2023-02-17", "leisure": "fitness_centre", "name": "Fortified Fitness"}}, {"type": "node", "id": 6136491023, "lat": 47.4787718, "lon": -122.204652}, {"type": "node", "id": 6136491024, "lat": 47.4787697, "lon": -122.2043535}, {"type": "node", "id": 6136491051, "lat": 47.4788992, "lon": -122.2046492}, {"type": "node", "id": 6136491052, "lat": 47.4788997, "lon": -122.2043511}, {"type": "node", "id": 9661919818, "lat": 47.4797952, "lon": -122.2075241, "tags": {"addr:city": "Renton", "addr:housenumber": "700", "addr:postcode": "98057", "addr:state": "WA", "addr:street": "South 3rd Street", "leisure": "fitness_centre", "name": "Spotlight Dance Center", "wheelchair": "yes"}}, {"type": "node", "id": 9696308970, "lat": 47.4963404, "lon": -122.2063766, "tags": {"entrance": "main"}}, {"type": "node", "id": 9993839817, "lat": 47.4623125, "lon": -122.2031995, "tags": {"addr:door": "183", "check_date": "2025-04-17", "leisure": "fitness_centre", "name": "Spoon Fed", "phone": "+1-425-524-7386"}}, {"type": "node", "id": 10675042942, "lat": 47.4786394, "lon": -122.2077507, "tags": {"addr:city": "Renton", "addr:housenumber": "332", "addr:postcode": "98057", "addr:state": "WA", "addr:street": "Burnett Avenue South", "check_date": "2023-02-17", "leisure": "fitness_centre", "name": "Vigor Ground", "opening_hours": "08:00-15:30"}}, {"type": "node", "id": 12763177765, "lat": 47.4628423, "lon": -122.20339, "tags": {"addr:door": "225", "check_date": "2025-04-17", "leisure": "fitness_centre", "name": "Cedar River Yoga", "payment:cash": "yes", "payment:credit_cards": "yes", "payment:debit_cards": "yes", "sport": "yoga"}}, {"type": "way", "id": 172349639, "nodes": [4294826519, 4294826522, 4294826525, 4294826526, 9696308970, 2969241502, 4294826524, 4294826521, 4294826518, 1832601836, 1832601943, 1832602054, 1832601781, 1832601804, 4294826519], "tags": {"addr:city": "Renton", "addr:housenumber": "715", "addr:postcode": "98057", "addr:state": "WA", "addr:street": "North Landing Way", "brand": "LA Fitness", "brand:wikidata": "Q6457180", "building": "retail", "building:colour": "#85552e", "building:levels": "2", "contact:phone": "+1-206-922-0350", "leisure": "fitness_centre", "name": "LA Fitness", "opening_hours": "Mo-Th 05:00-24:00; Fr 05:00-20:00; Sa,Su 08:00-20:00", "roof:levels": "0", "roof:shape": "flat", "wheelchair": "limited"}}, {"type": "way", "id": 654879827, "nodes": [6136491052, 6136491024, 6136491023, 6136491051, 6136491052], "tags": {"addr:city": "Renton", "addr:housenumber": "319", "addr:postcode": "98057", "addr:state": "WA", "addr:street": "Main Avenue South", "building": "service", "building:levels": "1", "leisure": "fitness_centre", "name": "APT Health & Fitness", "opening_hours": "\"Based on class appointments found on website schedule\"", "phone": "+1-425-476-3341", "roof:levels": "0", "website": "https://www.apthfitness.com/"}}]}