{"version": 0.6, "generator": "Overpass API 0.7.62.8 e802775f", "osm3s": {"timestamp_osm_base": "2025-11-03T05:05:57Z", "copyright": "The data included in this document is from www.openstreetmap.org. The data is made available under ODbL."}, "elements": [{"type": "node", "id": 6975265446, "lat": 47.9155335, "lon": -97.3686274}, {"type": "node", "id": 6975265447, "lat": 47.9155356, "lon": -97.3693928}, {"type": "node", "id": 6975265448, "lat": 47.916073, "lon": -97.3693841}, {"type": "node", "id": 7826649865, "lat": 47.9155354, "lon": -97.3693427}, {"type": "node", "id": 12292305544, "lat": 47.9160675, "lon": -97.3686189}, {"type": "way", "id": 745148574, "nodes": [12292305544, 6975265446, 7826649865, 6975265447, 6975265448, 12292305544], "tags": {"addr:city": "Emerado", "addr:housenumber": "100", "addr:postcode": "58228", "addr:state": "ND", "addr:street": "East Hancock Avenue", "leisure": "park", "name": "City Park"}}]}