{"version": 0.6, "generator": "Overpass API 0.7.62.8 e802775f", "osm3s": {"timestamp_osm_base": "2025-12-08T22:17:59Z", "copyright": "The data included in this document is from www.openstreetmap.org. The data is made available under ODbL."}, "elements": [{"type": "node", "id": 357973386, "lat": 48.1923163, "lon": -112.4997248, "tags": {"amenity": "place_of_worship", "denomination": "baptist", "ele": "1256", "gnis:feature_id": "1748725", "name": "Dupuyer Baptist Church", "religion": "christian"}}, {"type": "node", "id": 357973390, "lat": 48.1924967, "lon": -112.4991408}, {"type": "node", "id": 357973692, "lat": 48.1926167, "lon": -112.4996819, "tags": {"amenity": "post_office", "ele": "1256", "gnis:feature_id": "1748892", "name": "Dupuyer Post Office"}}, {"type": "node", "id": 357973695, "lat": 48.1944134, "lon": -112.4975446, "tags": {"amenity": "school", "ele": "1251", "gnis:feature_id": "1748893", "name": "Dupuyer School"}}, {"type": "node", "id": 9954000012, "lat": 48.1920247, "lon": -112.5006934}, {"type": "node", "id": 9954000013, "lat": 48.191871, "lon": -112.5006891}, {"type": "node", "id": 9954000014, "lat": 48.1918736, "lon": -112.5004746}, {"type": "node", "id": 9954000015, "lat": 48.1919467, "lon": -112.5004766}, {"type": "node", "id": 9954000016, "lat": 48.1919461, "lon": -112.5005203}, {"type": "node", "id": 9954057517, "lat": 48.1920269, "lon": -112.5005225}, {"type": "node", "id": 13043675791, "lat": 48.1926481, "lon": -112.499329}, {"type": "node", "id": 13043675792, "lat": 48.192647, "lon": -112.4992331}, {"type": "node", "id": 13043675793, "lat": 48.1924479, "lon": -112.4992286}, {"type": "node", "id": 13043675794, "lat": 48.1924467, "lon": -112.4993287}, {"type": "node", "id": 13043675795, "lat": 48.1924948, "lon": -112.4989336}, {"type": "node", "id": 13043675796, "lat": 48.1925775, "lon": -112.4989319}, {"type": "node", "id": 13043675797, "lat": 48.1925794, "lon": -112.4991391}, {"type": "way", "id": 1086354528, "nodes": [9954000012, 9954000013, 9954000014, 9954000015, 9954000016, 9954057517, 9954000012], "tags": {"building": "yes", "name": "Dupuyer Cache", "shop": "yes"}}, {"type": "way", "id": 1419476337, "nodes": [13043675791, 13043675792, 13043675793, 13043675794, 13043675791], "tags": {"amenity": "parking", "operator": "Holy Cross Catholic Church"}}, {"type": "way", "id": 1419476338, "nodes": [357973390, 13043675795, 13043675796, 13043675797, 357973390], "tags": {"addr:city": "Dupuyer", "addr:postcode": "59486", "addr:state": "MT", "amenity": "place_of_worship", "building": "church", "denomination": "roman_catholic", "diocese": "Helena", "ele": "1256", "gnis:feature_id": "1748726", "name": "Holy Cross Catholic Church", "phone": "+1 406-279-3327", "religion": "christian"}}]}