{"version": 0.6, "generator": "Overpass API 0.7.62.8 e802775f", "osm3s": {"timestamp_osm_base": "2025-12-07T02:49:40Z", "copyright": "The data included in this document is from www.openstreetmap.org. The data is made available under ODbL."}, "elements": [{"type": "node", "id": 48505055, "lat": 47.7306648, "lon": -122.5513608}, {"type": "node", "id": 48505057, "lat": 47.7316458, "lon": -122.5509393}, {"type": "node", "id": 48527549, "lat": 47.7352317, "lon": -122.5583077}, {"type": "node", "id": 48542734, "lat": 47.7309311, "lon": -122.551451}, {"type": "node", "id": 48542735, "lat": 47.7316483, "lon": -122.5514365}, {"type": "node", "id": 356541842, "lat": 47.724712, "lon": -122.5577749}, {"type": "node", "id": 2975074847, "lat": 47.7307075, "lon": -122.5513985}, {"type": "node", "id": 2975074848, "lat": 47.7307543, "lon": -122.5514136}, {"type": "node", "id": 2975074849, "lat": 47.730839, "lon": -122.5514436}, {"type": "node", "id": 2975227660, "lat": 47.7351664, "lon": -122.5583078, "tags": {"crossing": "uncontrolled", "highway": "crossing"}}, {"type": "node", "id": 3604255830, "lat": 47.7348904, "lon": -122.5583081}, {"type": "node", "id": 3604255831, "lat": 47.7348993, "lon": -122.556974}, {"type": "node", "id": 3604255832, "lat": 47.7352425, "lon": -122.5583075}, {"type": "node", "id": 3604255833, "lat": 47.7352439, "lon": -122.5569776}, {"type": "node", "id": 3604272271, "lat": 47.725447, "lon": -122.5584788}, {"type": "node", "id": 3991182478, "lat": 47.7238988, "lon": -122.5577312}, {"type": "node", "id": 3991182479, "lat": 47.7240914, "lon": -122.5571444}, {"type": "node", "id": 3991182480, "lat": 47.7244195, "lon": -122.5582416}, {"type": "node", "id": 7170771119, "lat": 47.724665, "lon": -122.5577044}, {"type": "node", "id": 12578146139, "lat": 47.7295326, "lon": -122.5520831}, {"type": "node", "id": 12578146140, "lat": 47.7294189, "lon": -122.5520859}, {"type": "node", "id": 12578146141, "lat": 47.7294157, "lon": -122.5518062}, {"type": "node", "id": 12578146142, "lat": 47.7295295, "lon": -122.5518034}, {"type": "node", "id": 12589716424, "lat": 47.7252879, "lon": -122.5590965}, {"type": "node", "id": 12589716425, "lat": 47.7251432, "lon": -122.5589565}, {"type": "node", "id": 12589716426, "lat": 47.7256464, "lon": -122.558672}, {"type": "node", "id": 12589716427, "lat": 47.7254126, "lon": -122.5587852}, {"type": "node", "id": 12589716428, "lat": 47.725452, "lon": -122.5588421}, {"type": "node", "id": 12589716429, "lat": 47.7253703, "lon": -122.5589673}, {"type": "node", "id": 12589716430, "lat": 47.7253309, "lon": -122.5589104}, {"type": "node", "id": 12589716572, "lat": 47.7240389, "lon": -122.5573323}, {"type": "node", "id": 12589716573, "lat": 47.7240008, "lon": -122.5574756}, {"type": "node", "id": 12589716574, "lat": 47.7239532, "lon": -122.5576172}, {"type": "way", "id": 293935597, "nodes": [48505055, 2975074847, 2975074848, 2975074849, 48542734, 48542735], "tags": {"highway": "residential", "name": "Harris Avenue Northeast", "tiger:cfcc": "A41", "tiger:county": "Kitsap, WA", "tiger:name_base": "Harris", "tiger:name_base_1": "Harris", "tiger:name_direction_suffix": "NE", "tiger:name_direction_suffix_1": "NE", "tiger:name_type": "Ave", "tiger:name_type_1": "St"}}, {"type": "way", "id": 354725427, "nodes": [3604255832, 3604255833]}, {"type": "way", "id": 354725428, "nodes": [3604255831, 3604255830]}, {"type": "way", "id": 354725429, "nodes": [48505055, 48505057], "tags": {"highway": "residential", "name": "Angeline Avenue Northeast", "tiger:cfcc": "A41", "tiger:county": "Kitsap, WA", "tiger:name_base": "Angeline", "tiger:name_direction_suffix": "NE", "tiger:name_type": "Ave"}}, {"type": "way", "id": 354725431, "nodes": [3604255830, 2975227660, 48527549, 3604255832], "tags": {"highway": "secondary", "lanes": "2", "maxspeed": "25 mph", "name": "Division Avenue Northeast", "tiger:cfcc": "A41", "tiger:county": "Kitsap, WA", "tiger:name_base": "Division", "tiger:name_direction_suffix": "NE", "tiger:name_type": "Ave"}}, {"type": "way", "id": 354725434, "nodes": [48542735, 48505057], "tags": {"highway": "residential", "name": "Northeast Center Street", "tiger:cfcc": "A41", "tiger:county": "Kitsap, WA", "tiger:name_base": "Center", "tiger:name_direction_prefix": "NE", "tiger:name_type": "St"}}, {"type": "way", "id": 354725435, "nodes": [3604255831, 3604255833], "tags": {"highway": "residential", "maxspeed": "25 mph", "maxspeed:variable": "school_zone", "name": "Park Boulevard Northeast", "tiger:cfcc": "A41", "tiger:county": "Kitsap, WA", "tiger:name_base": "Park", "tiger:name_direction_suffix": "NE", "tiger:name_type": "Blvd"}}, {"type": "way", "id": 354727949, "nodes": [12589716426, 3604272271, 12589716425, 12589716424, 12589716426]}, {"type": "way", "id": 396310338, "nodes": [3991182478, 12589716574, 12589716573, 12589716572, 3991182479, 7170771119, 356541842, 3991182480, 3991182478], "tags": {"ele": "8", "gnis:feature_id": "1510557", "leisure": "park", "name": "Old Man House Park", "note": "This was formally Old Man House State Park", "wikidata": "Q49535103"}}, {"type": "way", "id": 1358964731, "nodes": [12578146139, 12578146140, 12578146141, 12578146142, 12578146139], "tags": {"leisure": "pitch", "sport": "basketball"}}, {"type": "way", "id": 1360046895, "nodes": [12589716430, 12589716429, 12589716428, 12589716427, 12589716430], "tags": {"leisure": "pitch", "sport": "pickleball"}}, {"type": "relation", "id": 5298444, "members": [{"type": "way", "ref": 354725434, "role": "outer"}, {"type": "way", "ref": 354725429, "role": "outer"}, {"type": "way", "ref": 293935597, "role": "outer"}], "tags": {"leisure": "park", "name": "Angeline Park", "operator": "Kitsap County Parks", "type": "multipolygon"}}, {"type": "relation", "id": 5298445, "members": [{"type": "way", "ref": 354725435, "role": "outer"}, {"type": "way", "ref": 354725428, "role": "outer"}, {"type": "way", "ref": 354725431, "role": "outer"}, {"type": "way", "ref": 354725427, "role": "outer"}], "tags": {"leisure": "park", "name": "Suquamish Pathway Park", "operator": "Kitsap County Parks", "type": "multipolygon"}}, {"type": "relation", "id": 5298452, "members": [{"type": "way", "ref": 354727949, "role": "outer"}], "tags": {"landuse": "recreation_ground", "leisure": "park", "name": "Suquamish Sports Court", "operator": "Kitsap County Parks", "type": "multipolygon"}}]}