{"version": 0.6, "generator": "Overpass API 0.7.62.8 e802775f", "osm3s": {"timestamp_osm_base": "2025-12-06T08:21:55Z", "copyright": "The data included in this document is from www.openstreetmap.org. The data is made available under ODbL."}, "elements": [{"type": "node", "id": 6018114266, "lat": 46.0966688, "lon": -108.8751558, "tags": {"amenity": "fuel", "name": "Farmer\u2019s Union Trading Station"}}, {"type": "node", "id": 6018127315, "lat": 46.1015331, "lon": -108.875566, "tags": {"amenity": "post_office", "operator": "United States Postal Service", "operator:short": "USPS", "operator:type": "public", "operator:website": "https://www.usps.com", "operator:wikidata": "Q668687", "operator:wikipedia": "en:United States Postal Service"}}, {"type": "node", "id": 7317531389, "lat": 46.0985613, "lon": -108.8754447}, {"type": "node", "id": 7317531390, "lat": 46.0985678, "lon": -108.8752073}, {"type": "node", "id": 7317531391, "lat": 46.0987161, "lon": -108.8752158}, {"type": "node", "id": 7317531392, "lat": 46.0987096, "lon": -108.8754532}, {"type": "node", "id": 7620731564, "lat": 46.1001507, "lon": -108.8762802}, {"type": "node", "id": 7620731565, "lat": 46.1001588, "lon": -108.8760633}, {"type": "node", "id": 7620731566, "lat": 46.1002423, "lon": -108.8760698}, {"type": "node", "id": 7620731567, "lat": 46.1002342, "lon": -108.8762867}, {"type": "node", "id": 8861640956, "lat": 46.1000208, "lon": -108.8760526}, {"type": "node", "id": 8861640957, "lat": 46.1000127, "lon": -108.8762695}, {"type": "node", "id": 10009322491, "lat": 46.0989371, "lon": -108.8805597}, {"type": "node", "id": 10009322492, "lat": 46.0989434, "lon": -108.8804158}, {"type": "node", "id": 10009322493, "lat": 46.0990215, "lon": -108.8804228}, {"type": "node", "id": 10009322494, "lat": 46.0990235, "lon": -108.8803768}, {"type": "node", "id": 10009322495, "lat": 46.0991182, "lon": -108.8803853}, {"type": "node", "id": 10009322496, "lat": 46.09911, "lon": -108.8805753}, {"type": "way", "id": 783517074, "nodes": [7317531392, 7317531391, 7317531390, 7317531389, 7317531392], "tags": {"amenity": "restaurant", "building": "yes", "name": "Homestead Inn", "phone": "+14066672315"}}, {"type": "way", "id": 815972844, "nodes": [7620731567, 7620731566, 7620731565, 7620731564, 7620731567], "tags": {"addr:city": "Broadview", "addr:housenumber": "16638", "addr:postcode": "59015", "addr:state": "MT", "addr:street": "Iowa Avenue", "amenity": "place_of_worship", "building": "church", "denomination": "roman_catholic", "description": "Administered From: St Benedict Church 503 Main St Roundup, MT 59072", "diocese": "Great Falls-Billings", "name": "Saint Theresa of the Little Flower Catholic Church", "phone": "+1 406-323-1019", "religion": "christian"}}, {"type": "way", "id": 957706022, "nodes": [8861640957, 7620731564, 7620731565, 8861640956, 8861640957], "tags": {"amenity": "parking", "operator": "Saint Theresa of the Little Flower Catholic Church"}}, {"type": "way", "id": 1092922718, "nodes": [10009322496, 10009322495, 10009322494, 10009322493, 10009322492, 10009322491, 10009322496], "tags": {"addr:housenumber": "14027", "addr:state": "MT", "addr:street": "4th Street", "amenity": "place_of_worship", "denomination": "evangelical", "name": "Bethel Evangelical Church", "phone": "+14066672148", "religion": "christian"}}]}