{"version": 0.6, "generator": "Overpass API 0.7.62.8 e802775f", "osm3s": {"timestamp_osm_base": "2025-12-05T22:39:04Z", "copyright": "The data included in this document is from www.openstreetmap.org. The data is made available under ODbL."}, "elements": [{"type": "node", "id": 357978521, "lat": 47.3163085, "lon": -114.3149274}, {"type": "node", "id": 9255278731, "lat": 47.317382, "lon": -114.3174117}, {"type": "node", "id": 9255278732, "lat": 47.3173406, "lon": -114.3170828}, {"type": "node", "id": 9255278733, "lat": 47.3174343, "lon": -114.3170571}, {"type": "node", "id": 9255278734, "lat": 47.3174757, "lon": -114.3173861}, {"type": "node", "id": 12501235014, "lat": 47.3163229, "lon": -114.3150394}, {"type": "node", "id": 12501235015, "lat": 47.3162271, "lon": -114.3150665}, {"type": "node", "id": 12501235016, "lat": 47.3162126, "lon": -114.3149544}, {"type": "way", "id": 1002881373, "nodes": [9255278731, 9255278732, 9255278733, 9255278734, 9255278731], "tags": {"building": "ruins", "name": "Dixon Train Station"}}, {"type": "way", "id": 1351258128, "nodes": [357978521, 12501235014, 12501235015, 12501235016, 357978521], "tags": {"addr:city": "Dixon", "addr:housenumber": "203", "addr:postcode": "59831", "addr:state": "MT", "addr:street": "A Street", "amenity": "post_office", "building": "yes", "ele": "769", "gnis:feature_id": "1780959", "name": "Dixon Post Office", "operator": "United States Postal Service", "operator:short": "USPS", "operator:type": "public", "operator:website": "https://www.usps.com", "operator:wikidata": "Q668687", "operator:wikipedia": "en:United States Postal Service", "short_name": "USPS", "source": "microsoft/BuildingFootprints"}}]}