{"version": 0.6, "generator": "Overpass API 0.7.62.8 e802775f", "osm3s": {"timestamp_osm_base": "2025-12-06T04:39:58Z", "copyright": "The data included in this document is from www.openstreetmap.org. The data is made available under ODbL."}, "elements": [{"type": "node", "id": 6641482304, "lat": 46.8562696, "lon": -114.040071, "tags": {"alt_name": "Verizon Wireless", "brand": "Verizon", "brand:wikidata": "Q919641", "name": "Verizon", "shop": "mobile_phone"}}, {"type": "node", "id": 6641482316, "lat": 46.8679485, "lon": -114.040291, "tags": {"brand": "Natural Grocers", "brand:wikidata": "Q17146520", "name": "Natural Grocers", "shop": "supermarket"}}, {"type": "node", "id": 6871866251, "lat": 46.8828772, "lon": -114.0407501}, {"type": "node", "id": 6874477594, "lat": 46.8815562, "lon": -114.0406847}, {"type": "node", "id": 6874477595, "lat": 46.8815609, "lon": -114.0395533}, {"type": "node", "id": 6874477596, "lat": 46.8826656, "lon": -114.0395258}, {"type": "node", "id": 6874477597, "lat": 46.8828872, "lon": -114.0395864}, {"type": "node", "id": 7830665674, "lat": 46.8588, "lon": -114.059637}, {"type": "node", "id": 7830665675, "lat": 46.858797, "lon": -114.059295}, {"type": "node", "id": 7830665676, "lat": 46.859067, "lon": -114.05929}, {"type": "node", "id": 7830665677, "lat": 46.859068, "lon": -114.059401}, {"type": "node", "id": 7830665678, "lat": 46.859099, "lon": -114.0594}, {"type": "node", "id": 7830665679, "lat": 46.8591, "lon": -114.059522}, {"type": "node", "id": 7830665680, "lat": 46.859068, "lon": -114.059523}, {"type": "node", "id": 7830665681, "lat": 46.859069, "lon": -114.059631}, {"type": "node", "id": 11577824949, "lat": 46.8815605, "lon": -114.0396583}, {"type": "way", "id": 734019919, "nodes": [6871866251, 6874477594, 11577824949, 6874477595, 6874477596, 6874477597, 6871866251], "tags": {"addr:city": "Missoula", "addr:housenumber": "3305", "addr:postcode": "59808", "addr:state": "MT", "addr:street": "Clark Fork Way", "name": "Clark Fork Storage", "opening_hours": "Mo-Fr 08:30-17:30; Sa 08:00-12:00", "payment:cash": "yes", "shop": "storage_rental"}}, {"type": "way", "id": 839147538, "nodes": [7830665674, 7830665675, 7830665676, 7830665677, 7830665678, 7830665679, 7830665680, 7830665681, 7830665674], "tags": {"building": "yes", "name": "Fish Wildlife & Parks Department", "office": "government", "source": "microsoft/BuildingFootprints"}}]}