{"version": 0.6, "generator": "Overpass API 0.7.62.8 e802775f", "osm3s": {"timestamp_osm_base": "2025-12-06T23:47:13Z", "copyright": "The data included in this document is from www.openstreetmap.org. The data is made available under ODbL."}, "elements": [{"type": "node", "id": 2456954505, "lat": 45.6368246, "lon": -122.3983796}, {"type": "node", "id": 2456954507, "lat": 45.6367935, "lon": -122.3983811}, {"type": "node", "id": 2456954509, "lat": 45.6367943, "lon": -122.3984177}, {"type": "node", "id": 2456954511, "lat": 45.6365971, "lon": -122.3984272}, {"type": "node", "id": 2456954513, "lat": 45.6365885, "lon": -122.3980649}, {"type": "node", "id": 2456954515, "lat": 45.6368169, "lon": -122.3980539}, {"type": "node", "id": 8589969124, "lat": 45.6363363, "lon": -122.3983508}, {"type": "node", "id": 8589969125, "lat": 45.6363328, "lon": -122.3982035}, {"type": "node", "id": 8589969126, "lat": 45.6363972, "lon": -122.3982004}, {"type": "node", "id": 8589969127, "lat": 45.6364007, "lon": -122.3983477}, {"type": "way", "id": 237832121, "nodes": [2456954505, 2456954507, 2456954509, 2456954511, 2456954513, 2456954515, 2456954505], "tags": {"addr:city": "Camas", "addr:housenumber": "1817", "addr:postcode": "98607", "addr:state": "WA", "addr:street": "Northeast 267th Avenue", "building": "yes", "name": "Fern Prairie Market", "opening_hours": "Mo-Sa 06:00-22:00; Su 06:00-21:00", "phone": "+1-360-834-3504", "shop": "convenience"}}, {"type": "way", "id": 925589405, "nodes": [8589969127, 8589969126, 8589969125, 8589969124, 8589969127], "tags": {"amenity": "fuel", "brand": "Chevron", "brand:wikidata": "Q319642", "building": "roof", "name": "Chevron"}}]}