{"version": 0.6, "generator": "Overpass API 0.7.62.8 e802775f", "osm3s": {"timestamp_osm_base": "2025-12-06T08:21:55Z", "copyright": "The data included in this document is from www.openstreetmap.org. The data is made available under ODbL."}, "elements": [{"type": "node", "id": 3005046941, "lat": 48.4647693, "lon": -114.3529633}, {"type": "node", "id": 8389539772, "lat": 48.4689955, "lon": -114.3487695}, {"type": "node", "id": 8389539773, "lat": 48.4690116, "lon": -114.347686}, {"type": "node", "id": 8389539774, "lat": 48.4686898, "lon": -114.3476751}, {"type": "node", "id": 8389539775, "lat": 48.4686735, "lon": -114.3487585}, {"type": "node", "id": 8389539777, "lat": 48.4688469, "lon": -114.3487644}, {"type": "node", "id": 8389539794, "lat": 48.4688419, "lon": -114.3476542, "tags": {"board_type": "map", "information": "board", "tourism": "information"}}, {"type": "node", "id": 8389539795, "lat": 48.4689656, "lon": -114.3476542, "tags": {"amenity": "vending_machine", "vending": "excrement_bags"}}, {"type": "node", "id": 8735557374, "lat": 48.4647716, "lon": -114.3527738}, {"type": "node", "id": 8735557375, "lat": 48.4647469, "lon": -114.3527308}, {"type": "node", "id": 8735557376, "lat": 48.4647143, "lon": -114.3527161}, {"type": "node", "id": 8735557377, "lat": 48.4646623, "lon": -114.3527478}, {"type": "node", "id": 8735557378, "lat": 48.4646535, "lon": -114.3529602}, {"type": "way", "id": 903279976, "nodes": [8389539772, 8389539773, 8389539774, 8389539775, 8389539777, 8389539772], "tags": {"amenity": "parking", "network": "GlacierNordic"}}, {"type": "way", "id": 943446500, "nodes": [3005046941, 8735557374, 8735557375, 8735557376, 8735557377, 8735557378, 3005046941], "tags": {"addr:city": "Whitefish", "addr:housenumber": "3000", "addr:postcode": "59937", "addr:state": "MT", "addr:street": "Big Mountain Road", "name": "Ptarmigan Village", "note": "Condos rentals", "phone": "+1-800-552-3952", "tourism": "hotel", "website": "https://www.ptarmiganvillage.com/"}}]}