{"version": 0.6, "generator": "Overpass API 0.7.62.8 e802775f", "osm3s": {"timestamp_osm_base": "2025-11-30T00:09:29Z", "copyright": "The data included in this document is from www.openstreetmap.org. The data is made available under ODbL."}, "elements": [{"type": "node", "id": 3942080972, "lat": 33.6114569, "lon": -112.2403856}, {"type": "node", "id": 3942080974, "lat": 33.6112657, "lon": -112.2403826}, {"type": "node", "id": 3942080976, "lat": 33.6117023, "lon": -112.2403895}, {"type": "node", "id": 3942080977, "lat": 33.6112592, "lon": -112.24099}, {"type": "node", "id": 3942080979, "lat": 33.6112579, "lon": -112.2408689}, {"type": "node", "id": 9847392078, "lat": 33.6116957, "lon": -112.240996}, {"type": "node", "id": 11218914473, "lat": 33.5968563, "lon": -112.2523293, "tags": {"leisure": "fitness_centre", "name": "The Barnyard"}}, {"type": "node", "id": 11218914474, "lat": 33.5971618, "lon": -112.2525229, "tags": {"leisure": "sports_hall", "name": "Hybrid Performance Center"}}, {"type": "node", "id": 11232808290, "lat": 33.5963835, "lon": -112.2555685, "tags": {"leisure": "fitness_centre", "name": "Rebel Fitness"}}, {"type": "node", "id": 11232808293, "lat": 33.5956804, "lon": -112.2572289, "tags": {"leisure": "fitness_centre", "name": "Every Body Training"}}, {"type": "way", "id": 391048120, "nodes": [9847392078, 3942080976, 3942080972, 3942080974, 3942080979, 3942080977, 9847392078], "tags": {"addr:city": "Peoria", "addr:housenumber": "8440", "addr:postcode": "85381", "addr:state": "AZ", "addr:street": "West Thunderbird Road", "brand": "Gold's Gym", "brand:wikidata": "Q1536234", "building": "yes", "leisure": "fitness_centre", "name": "Gold's Gym", "source": "esri/USA_NAD_Addresses"}}]}