{"version": 0.6, "generator": "Overpass API 0.7.62.8 e802775f", "osm3s": {"timestamp_osm_base": "2025-12-06T18:48:00Z", "copyright": "The data included in this document is from www.openstreetmap.org. The data is made available under ODbL."}, "elements": [{"type": "node", "id": 5530941022, "lat": 48.1051125, "lon": -123.4887235}, {"type": "node", "id": 5530941023, "lat": 48.104853, "lon": -123.4886991}, {"type": "node", "id": 5530941024, "lat": 48.1048001, "lon": -123.4899581}, {"type": "node", "id": 5530941027, "lat": 48.1042949, "lon": -123.4900802}, {"type": "node", "id": 5530941028, "lat": 48.1044065, "lon": -123.4892199}, {"type": "node", "id": 5530983922, "lat": 48.1050597, "lon": -123.4899826}, {"type": "node", "id": 5530983927, "lat": 48.1052987, "lon": -123.4885863}, {"type": "node", "id": 5530983933, "lat": 48.1038089, "lon": -123.4904858, "tags": {"addr:city": "Port Angeles", "addr:country": "US", "addr:housenumber": "2010", "addr:postcode": "98363", "addr:state": "WA", "addr:street": "Highway 101 West", "contact:facebook": "https://www.facebook.com/ButtCuttWoodWorks", "craft": "sculptor", "name": "ButtCutt Woodworks", "shop": "art"}}, {"type": "node", "id": 5530999726, "lat": 48.1044373, "lon": -123.4885551}, {"type": "node", "id": 5530999921, "lat": 48.1051995, "lon": -123.4901654}, {"type": "node", "id": 5530999922, "lat": 48.104395, "lon": -123.4893068}, {"type": "node", "id": 5531000121, "lat": 48.1044237, "lon": -123.4893153}, {"type": "node", "id": 5531000122, "lat": 48.1044351, "lon": -123.4892284}, {"type": "node", "id": 5540163040, "lat": 48.1027423, "lon": -123.499764}, {"type": "node", "id": 5540163041, "lat": 48.1025448, "lon": -123.499786}, {"type": "node", "id": 5540163046, "lat": 48.1027373, "lon": -123.50043, "tags": {"addr:housenumber": "2358", "addr:postcode": "98363", "addr:street": "Olympic Highway", "name": "Adventures Through Kayaking", "office": "company", "tourism": "attraction", "website": "https://www.atkayaking.com"}}, {"type": "node", "id": 5540164159, "lat": 48.1025525, "lon": -123.4999426}, {"type": "node", "id": 5540164162, "lat": 48.1027433, "lon": -123.5003309, "tags": {"addr:housenumber": "2358", "addr:postcode": "98363", "addr:street": "Highway 101 WEST", "check_date": "2024-10-12", "craft": "winery", "name": "Harbinger Winery", "shop": "wine", "website": "https://www.harbingerwinery.com"}}, {"type": "node", "id": 5540175624, "lat": 48.1027501, "lon": -123.4999207}, {"type": "node", "id": 5895717911, "lat": 48.1045942, "lon": -123.4842383}, {"type": "node", "id": 5895717912, "lat": 48.1030501, "lon": -123.4842607}, {"type": "node", "id": 5895717913, "lat": 48.1030574, "lon": -123.4853861}, {"type": "node", "id": 5895717914, "lat": 48.1044688, "lon": -123.4853656}, {"type": "node", "id": 12913849916, "lat": 48.1031737, "lon": -123.502852, "tags": {"check_date": "2025-06-13", "name": "Steve Wirth Enterprises", "office": "company"}}, {"type": "way", "id": 576767903, "nodes": [5530983922, 5530941022, 5530941023, 5530941024, 5530983922], "tags": {"building": "industrial"}}, {"type": "way", "id": 576767945, "nodes": [5530999921, 5530983927, 5530999726, 5530941027, 5530999921]}, {"type": "way", "id": 576767958, "nodes": [5531000121, 5531000122, 5530941028, 5530999922, 5531000121], "tags": {"amenity": "cafe", "building": "yes", "check_date": "2024-10-12", "cuisine": "coffee_shop", "name": "The Coffee Cottage"}}, {"type": "way", "id": 578098680, "nodes": [5540175624, 5540163040, 5540163041, 5540164159, 5540175624], "tags": {"building": "industrial", "check_date": "2025-06-13", "name": "Horizon Excavating", "office": "company"}}, {"type": "way", "id": 624333380, "nodes": [5895717914, 5895717913, 5895717912, 5895717911, 5895717914], "tags": {"landuse": "industrial", "name": "Burch Burch Construction", "office": "company"}}, {"type": "relation", "id": 8182901, "members": [{"type": "way", "ref": 576767945, "role": "outer"}, {"type": "way", "ref": 576767903, "role": "inner"}], "tags": {"access": "customers", "amenity": "parking", "parking": "surface", "type": "multipolygon"}}]}