{"version": 0.6, "generator": "Overpass API 0.7.62.8 e802775f", "osm3s": {"timestamp_osm_base": "2025-12-06T09:23:30Z", "copyright": "The data included in this document is from www.openstreetmap.org. The data is made available under ODbL."}, "elements": [{"type": "node", "id": 4823415218, "lat": 45.8259823, "lon": -108.401471, "tags": {"addr:city": "Billings", "addr:housenumber": "3255", "addr:postcode": "59101", "addr:state": "MT", "addr:street": "North Frontage Road", "brand": "Peterbilt", "brand:wikidata": "Q944640", "name": "Montana Peterbilt", "phone": "+1-800-548-7561", "service:vehicle:body_repair": "yes", "shop": "truck", "website": "https://www.montanapeterbilt.com/"}}, {"type": "node", "id": 8317492338, "lat": 45.8221988, "lon": -108.3959813}, {"type": "node", "id": 8317492339, "lat": 45.8211141, "lon": -108.3959732}, {"type": "node", "id": 8317492340, "lat": 45.8210672, "lon": -108.395918}, {"type": "node", "id": 8317492341, "lat": 45.8210578, "lon": -108.3958615}, {"type": "node", "id": 8317492342, "lat": 45.8210597, "lon": -108.3958049}, {"type": "node", "id": 8317492343, "lat": 45.821223, "lon": -108.3953229}, {"type": "node", "id": 8317492344, "lat": 45.8213628, "lon": -108.3953619}, {"type": "node", "id": 8317492345, "lat": 45.8222458, "lon": -108.3956837}, {"type": "node", "id": 8317499437, "lat": 45.821441, "lon": -108.3955933}, {"type": "node", "id": 8317499438, "lat": 45.8213779, "lon": -108.3955694}, {"type": "node", "id": 8317499439, "lat": 45.8213954, "lon": -108.3954748}, {"type": "node", "id": 8317499440, "lat": 45.8214584, "lon": -108.3954987}, {"type": "node", "id": 11167419973, "lat": 45.8266101, "lon": -108.4019712, "tags": {"amenity": "charging_station", "authentication:app": "yes", "bicycle": "no", "brand": "Tesla Supercharger", "brand:en": "Tesla Supercharger", "brand:website": "https://www.tesla.com/supercharger", "brand:wikidata": "Q17089620", "bus": "no", "fee": "yes", "frequency": "0", "hgv": "no", "maxstay": "no", "motorcar": "designated", "name": "Tesla Supercharger", "network": "Supercharger", "network:website": "https://www.tesla.com/supercharger", "network:wikidata": "Q17089620", "note": "This Tesla Supercharger was edited or added by the June 2025 import from supercharge.info... if you have any questions, comments, or concerns, please reach out to the US Slack / Forum", "opening_hours": "24/7", "operator": "Tesla, Inc.", "operator:wikidata": "Q478214", "operator:wikipedia": "en:Tesla, Inc.", "payment:app:tesla": "yes", "reservation": "no", "scooter": "no", "source": "https://supercharge.info"}}, {"type": "way", "id": 894802021, "nodes": [8317492338, 8317492339, 8317492340, 8317492341, 8317492342, 8317492343, 8317492344, 8317492345, 8317492338], "tags": {"leisure": "park"}}, {"type": "way", "id": 894802515, "nodes": [8317499437, 8317499438, 8317499439, 8317499440, 8317499437], "tags": {"leisure": "pitch", "sport": "basketball"}}]}