{"version": 0.6, "generator": "Overpass API 0.7.62.8 e802775f", "osm3s": {"timestamp_osm_base": "2025-12-06T04:18:14Z", "copyright": "The data included in this document is from www.openstreetmap.org. The data is made available under ODbL."}, "elements": [{"type": "node", "id": 3627617394, "lat": 45.2928186, "lon": -111.9485322, "tags": {"name": "Bale Of Hay Saloon", "shop": "alcohol"}}, {"type": "node", "id": 7678543677, "lat": 45.2930578, "lon": -111.947134, "tags": {"name": "Calamity Janes", "shop": "clothes"}}, {"type": "node", "id": 7678543678, "lat": 45.2934795, "lon": -111.9462384, "tags": {"name": "Cousins Candy Shop", "shop": "confectionery"}}, {"type": "node", "id": 7678543680, "lat": 45.29298, "lon": -111.947809}, {"type": "node", "id": 7678543682, "lat": 45.2934679, "lon": -111.9463349, "tags": {"name": "Metropolitan Market", "shop": "antiques"}}, {"type": "node", "id": 7678569688, "lat": 45.2930097, "lon": -111.9473866, "tags": {"amenity": "restaurant", "historic": "building", "name": "Wells Fargo Steakhouse"}}, {"type": "node", "id": 7678569690, "lat": 45.2932643, "lon": -111.9475733, "tags": {"amenity": "restaurant", "cuisine": "mexican", "name": "Nacho Mama\u2019s"}}, {"type": "node", "id": 7678569697, "lat": 45.2930836, "lon": -111.9469375, "tags": {"amenity": "restaurant", "name": "Bob\u2019s Place"}}, {"type": "node", "id": 8765362938, "lat": 45.2930076, "lon": -111.9476033}, {"type": "node", "id": 8765385929, "lat": 45.29289, "lon": -111.947571}, {"type": "node", "id": 8765385949, "lat": 45.292862, "lon": -111.947777}, {"type": "way", "id": 946937034, "nodes": [8765362938, 7678543680, 8765385949, 8765385929, 8765362938], "tags": {"building": "yes", "historic": "building", "name": "Montana Picture Gallery", "shop": "art", "source": "microsoft/BuildingFootprints"}}]}