{"version": 0.6, "generator": "Overpass API 0.7.62.8 e802775f", "osm3s": {"timestamp_osm_base": "2025-12-07T02:56:40Z", "copyright": "The data included in this document is from www.openstreetmap.org. The data is made available under ODbL."}, "elements": [{"type": "node", "id": 6053463033, "lat": 48.0919121, "lon": -121.7808491}, {"type": "node", "id": 6053463034, "lat": 48.0918547, "lon": -121.780684}, {"type": "node", "id": 6053463035, "lat": 48.0917769, "lon": -121.7807406}, {"type": "node", "id": 6053463036, "lat": 48.091832, "lon": -121.7809058}, {"type": "node", "id": 6053463037, "lat": 48.0918045, "lon": -121.7808232, "tags": {"entrance": "main"}}, {"type": "node", "id": 6053463048, "lat": 48.0916828, "lon": -121.7805195}, {"type": "node", "id": 6053463049, "lat": 48.0916283, "lon": -121.780555}, {"type": "node", "id": 6053463050, "lat": 48.0916117, "lon": -121.7804982}, {"type": "node", "id": 6053463051, "lat": 48.0916674, "lon": -121.7804609}, {"type": "node", "id": 10749595776, "lat": 48.078482, "lon": -121.738032}, {"type": "node", "id": 10749595777, "lat": 48.078421, "lon": -121.738032}, {"type": "node", "id": 10749595778, "lat": 48.078482, "lon": -121.73818}, {"type": "node", "id": 10749595779, "lat": 48.078421, "lon": -121.73818}, {"type": "way", "id": 643196992, "nodes": [6053463033, 6053463034, 6053463035, 6053463037, 6053463036, 6053463033], "tags": {"addr:city": "Granite Falls", "addr:housenumber": "33515", "addr:postcode": "98252", "addr:state": "WA", "addr:street": "Mountain Loop Highway", "building": "yes", "information": "office", "name": "Verlot Public Service Center", "opening_hours": "Sa-Su 08:00-15:00", "operator": "US Forest Service", "phone": "+1-360-691-7791", "tourism": "information", "website": "https://www.fs.usda.gov/detail/mbs/about-forest/offices/?cid=stelprdb5228753"}}, {"type": "way", "id": 643196995, "nodes": [6053463048, 6053463049, 6053463050, 6053463051, 6053463048], "tags": {"amenity": "toilets", "building": "yes", "fee": "no"}}, {"type": "way", "id": 1155916803, "nodes": [10749595779, 10749595777, 10749595776, 10749595778, 10749595779], "tags": {"amenity": "toilets", "building": "yes", "source": "microsoft/BuildingFootprints"}}]}