{"version": 0.6, "generator": "Overpass API 0.7.62.8 e802775f", "osm3s": {"timestamp_osm_base": "2025-12-06T04:18:14Z", "copyright": "The data included in this document is from www.openstreetmap.org. The data is made available under ODbL."}, "elements": [{"type": "node", "id": 3358108649, "lat": 47.7148111, "lon": -104.1545569, "tags": {"addr:city": "Sidney", "addr:housenumber": "220", "addr:postcode": "59270", "addr:state": "MT", "addr:street": "East Main Street", "name": "Action Auto", "phone": "+1-877-483-2960", "shop": "car", "website": "https://www.actionautochryslerdodgejeep.com/"}}, {"type": "node", "id": 4317709094, "lat": 47.7016659, "lon": -104.1655716}, {"type": "node", "id": 4317709095, "lat": 47.7015607, "lon": -104.1655377}, {"type": "node", "id": 4317709096, "lat": 47.7015442, "lon": -104.1656507}, {"type": "node", "id": 4317709097, "lat": 47.7015354, "lon": -104.1656479}, {"type": "node", "id": 4317709098, "lat": 47.7015288, "lon": -104.1656931}, {"type": "node", "id": 4317709099, "lat": 47.7015398, "lon": -104.1657016}, {"type": "node", "id": 4317709100, "lat": 47.701521, "lon": -104.1658306}, {"type": "node", "id": 4317709101, "lat": 47.7016234, "lon": -104.165863}, {"type": "node", "id": 4317709102, "lat": 47.7039499, "lon": -104.1643514, "tags": {"alt_name": "ProBuild", "name": "Pro Build", "shop": "hardware"}}, {"type": "node", "id": 4317709103, "lat": 47.7053102, "lon": -104.1663932, "tags": {"name": "Shopko", "shop": "department_store"}}, {"type": "node", "id": 4317709105, "lat": 47.70693, "lon": -104.1639762, "tags": {"name": "Video Hot Spot", "shop": "video"}}, {"type": "node", "id": 4317709123, "lat": 47.7098339, "lon": -104.1601796}, {"type": "node", "id": 4317709125, "lat": 47.7095244, "lon": -104.1612462, "tags": {"name": "Gem City Motors", "shop": "car"}}, {"type": "node", "id": 4317709127, "lat": 47.716733, "lon": -104.1577152, "tags": {"alt_name": "South 40", "amenity": "restaurant", "delivery": "no", "level": "-1", "name": "South 40 Restaurant, Lounge & Casino", "takeaway": "no"}}, {"type": "node", "id": 4317709134, "lat": 47.7176314, "lon": -104.157706, "tags": {"addr:city": "Sidney", "addr:housenumber": "203", "addr:postcode": "59270", "addr:state": "MT", "addr:street": "Second Street Northwest", "brand:wikidata": "Q3146662", "name": "Reese & Ray's IGA", "phone": "+1 406-482-3737", "shop": "supermarket"}}, {"type": "node", "id": 4317709136, "lat": 47.7111258, "lon": -104.145686, "tags": {"name": "Sidney Red E Mix", "office": "concrete_construction"}}, {"type": "node", "id": 4317709137, "lat": 47.7143505, "lon": -104.1548661, "tags": {"name": "Eagle Country Ford", "shop": "car"}}, {"type": "node", "id": 4317709138, "lat": 47.7147693, "lon": -104.156134, "tags": {"brand": "JCPenney", "brand:wikidata": "Q920037", "name": "JCPenney", "official_name": "J.C. Penney Company", "shop": "department_store"}}, {"type": "node", "id": 4317709197, "lat": 47.7148448, "lon": -104.1578725, "tags": {"name": "Johnson Hardware & Furniture", "shop": "hardware"}}, {"type": "node", "id": 4317709210, "lat": 47.7198698, "lon": -104.1561626, "tags": {"name": "Reynolds Market", "shop": "supermarket"}}, {"type": "node", "id": 7418271387, "lat": 47.721256, "lon": -104.1543037, "tags": {"addr:city": "Sidney", "addr:housenumber": "520", "addr:postcode": "59270", "addr:state": "MT", "addr:street": "North Central Avenue", "amenity": "restaurant", "cuisine": "steak_house", "name": "Rodiron grill and casino", "opening_hours": "Mo-Th 03:00-21:00; Fr-Sa 11:00-22:00; Su 11:00-21:00", "phone": "+1-406-433-3300"}}, {"type": "node", "id": 9390992668, "lat": 47.712677, "lon": -104.1591567}, {"type": "node", "id": 9390992669, "lat": 47.712741, "lon": -104.1593459}, {"type": "node", "id": 9390992670, "lat": 47.7126385, "lon": -104.1594225}, {"type": "node", "id": 9390992671, "lat": 47.7125745, "lon": -104.1592333}, {"type": "node", "id": 9953779352, "lat": 47.7148566, "lon": -104.1561917}, {"type": "node", "id": 9953779353, "lat": 47.7145988, "lon": -104.1563552}, {"type": "node", "id": 9953779354, "lat": 47.7146313, "lon": -104.1564683}, {"type": "node", "id": 9953779355, "lat": 47.7148891, "lon": -104.1563047}, {"type": "node", "id": 9954029900, "lat": 47.715117, "lon": -104.1571006}, {"type": "node", "id": 9954029901, "lat": 47.7150614, "lon": -104.1568905}, {"type": "node", "id": 9954029902, "lat": 47.7148937, "lon": -104.1569886}, {"type": "node", "id": 9954029903, "lat": 47.7149493, "lon": -104.1571987}, {"type": "node", "id": 9954161598, "lat": 47.7097362, "lon": -104.1602444}, {"type": "node", "id": 9954161599, "lat": 47.7096626, "lon": -104.1599994}, {"type": "node", "id": 9954161600, "lat": 47.7097603, "lon": -104.1599346}, {"type": "node", "id": 12650343633, "lat": 47.7212733, "lon": -104.1552433, "tags": {"brand": "Ace Hardware", "brand:wikidata": "Q4672981", "name": "Ace Hardware", "shop": "doityourself"}}, {"type": "way", "id": 432820323, "nodes": [4317709101, 4317709094, 4317709095, 4317709096, 4317709097, 4317709098, 4317709099, 4317709100, 4317709101], "tags": {"addr:city": "Sidney", "addr:housenumber": "801", "addr:postcode": "59270", "addr:state": "MT", "addr:street": "Warren Lane", "amenity": "restaurant", "brand": "Pizza Hut", "brand:wikidata": "Q191615", "building": "yes", "cuisine": "pizza", "name": "Pizza Hut", "phone": "+1 406-482-7200", "website": "https://locations.pizzahut.com/mt/sidney/801-warren-ln"}}, {"type": "way", "id": 1018161183, "nodes": [9390992670, 9390992671, 9390992668, 9390992669, 9390992670], "tags": {"alt_name": "Verizon Wireless", "brand": "Verizon", "brand:wikidata": "Q919641", "building": "yes", "name": "Verizon", "shop": "mobile_phone"}}, {"type": "way", "id": 1086321275, "nodes": [9953779352, 9953779353, 9953779354, 9953779355, 9953779352], "tags": {"amenity": "restaurant", "building": "yes", "name": "Asian Garden"}}, {"type": "way", "id": 1086351280, "nodes": [9954029900, 9954029901, 9954029902, 9954029903, 9954029900], "tags": {"amenity": "bar", "building": "yes", "name": "Cheerio Lounge"}}, {"type": "way", "id": 1086367026, "nodes": [4317709123, 9954161598, 9954161599, 9954161600, 4317709123], "tags": {"amenity": "restaurant", "cuisine": "sandwich", "name": "Footers"}}]}