{"version": 0.6, "generator": "Overpass API 0.7.62.8 e802775f", "osm3s": {"timestamp_osm_base": "2025-11-08T17:19:14Z", "copyright": "The data included in this document is from www.openstreetmap.org. The data is made available under ODbL."}, "elements": [{"type": "node", "id": 5017435415, "lat": 61.5149374, "lon": -144.4378862}, {"type": "node", "id": 5017435416, "lat": 61.514954, "lon": -144.4393641}, {"type": "node", "id": 5017435417, "lat": 61.5150142, "lon": -144.4398201}, {"type": "node", "id": 5017435420, "lat": 61.515238, "lon": -144.4397932}, {"type": "node", "id": 5017435421, "lat": 61.5152099, "lon": -144.4379506}, {"type": "way", "id": 513223369, "nodes": [5017435421, 5017435420, 5017435417, 5017435416, 5017435415, 5017435421], "tags": {"addr:city": "Chitina", "addr:postcode": "99566", "addr:state": "AK", "addr:street": "Edgerton Highway", "leisure": "park", "name": "Chitina Wayside", "opening_hours": "24/7", "operator": "National Parks Service", "website": "https://www.nps.gov/places/000/chitina-wayside.htm"}}]}