{"version": 0.6, "generator": "Overpass API 0.7.62.8 e802775f", "osm3s": {"timestamp_osm_base": "2025-12-07T02:33:12Z", "copyright": "The data included in this document is from www.openstreetmap.org. The data is made available under ODbL."}, "elements": [{"type": "node", "id": 4662073837, "lat": 46.8216892, "lon": -123.0953663}, {"type": "node", "id": 4662073838, "lat": 46.821482, "lon": -123.0953688}, {"type": "node", "id": 4662073839, "lat": 46.8214833, "lon": -123.0955963}, {"type": "node", "id": 4662073841, "lat": 46.8215659, "lon": -123.0956326}, {"type": "node", "id": 4662073842, "lat": 46.8216908, "lon": -123.0956311}, {"type": "node", "id": 4662073843, "lat": 46.8215657, "lon": -123.0955952}, {"type": "way", "id": 472033588, "nodes": [4662073837, 4662073838, 4662073839, 4662073843, 4662073841, 4662073842, 4662073837], "tags": {"addr:city": "Rochester", "addr:housenumber": "10119", "addr:postcode": "98579", "addr:state": "WA", "addr:street": "US Highway 12", "building": "yes", "leisure": "fitness_centre", "name": "Thorbeckes Fitlife Centers", "sport": "fitness"}}]}