{"version": 0.6, "generator": "Overpass API 0.7.62.8 e802775f", "osm3s": {"timestamp_osm_base": "2025-12-07T02:44:30Z", "copyright": "The data included in this document is from www.openstreetmap.org. The data is made available under ODbL."}, "elements": [{"type": "node", "id": 7947064311, "lat": 46.9796555, "lon": -122.3576679}, {"type": "node", "id": 7947064312, "lat": 46.9798066, "lon": -122.3576815}, {"type": "node", "id": 7947064313, "lat": 46.9798143, "lon": -122.3574972}, {"type": "node", "id": 7947064314, "lat": 46.9797115, "lon": -122.357488}, {"type": "node", "id": 7947064315, "lat": 46.9797149, "lon": -122.3574073}, {"type": "node", "id": 7947064316, "lat": 46.9796666, "lon": -122.357403}, {"type": "way", "id": 851965442, "nodes": [7947064316, 7947064315, 7947064314, 7947064313, 7947064312, 7947064311, 7947064316], "tags": {"addr:city": "Roy", "addr:country": "US", "addr:housenumber": "30411", "addr:state": "WA", "addr:street": "Mountain Highway East", "amenity": "bar", "building": "yes", "name": "Roundup Bar & Grill"}}]}