{"version": 0.6, "generator": "Overpass API 0.7.62.8 e802775f", "osm3s": {"timestamp_osm_base": "2025-12-08T22:03:45Z", "copyright": "The data included in this document is from www.openstreetmap.org. The data is made available under ODbL."}, "elements": [{"type": "node", "id": 357961752, "lat": 45.887968, "lon": -104.5490992}, {"type": "node", "id": 357961771, "lat": 45.888301, "lon": -104.5493399, "tags": {"amenity": "nursing_home", "gnis:feature_id": "1688690", "name": "Dahl Memorial Nursing Home", "website": "http://www.dahlmemorial.com/nursinghome.html"}}, {"type": "node", "id": 357961786, "lat": 45.8883808, "lon": -104.5498847, "tags": {"amenity": "doctors", "gnis:feature_id": "1688691", "name": "Dahl Memorial Clinic", "opening_hours": "Mo-Th 08:00-17:00; Fr 08:00-12:00", "phone": "+1 406 775 8738", "website": "http://www.dahlmemorial.com/clinic.html"}}, {"type": "node", "id": 357961909, "lat": 45.8896861, "lon": -104.5484335, "tags": {"amenity": "post_office", "ele": "1045", "gnis:feature_id": "1688725", "name": "Ekalaka Post Office"}}, {"type": "node", "id": 357961964, "lat": 45.8888147, "lon": -104.5508645, "tags": {"amenity": "place_of_worship", "denomination": "baptist", "ele": "1045", "gnis:feature_id": "1688759", "name": "First Baptist Church", "religion": "christian"}}, {"type": "node", "id": 357961966, "lat": 45.8867312, "lon": -104.5447491, "tags": {"amenity": "place_of_worship", "ele": "1048", "gnis:feature_id": "1688760", "name": "Ekalaka Gospel Tabernacle", "religion": "christian"}}, {"type": "node", "id": 357961986, "lat": 45.8897202, "lon": -104.5463408, "tags": {"amenity": "place_of_worship", "ele": "1045", "gnis:feature_id": "1688769", "name": "Church of Christ Congregational", "religion": "christian"}}, {"type": "node", "id": 357961991, "lat": 45.8907013, "lon": -104.5518176, "tags": {"amenity": "school", "ele": "1044", "gnis:feature_id": "1688771", "name": "Carter County High School"}}, {"type": "node", "id": 366092988, "lat": 45.8883293, "lon": -104.5485364, "tags": {"addr:state": "MT", "amenity": "courthouse", "ele": "1046", "gnis:feature_id": "1688687", "name": "Carter County Courthouse", "source": "USGS Geonames"}}, {"type": "node", "id": 366093116, "lat": 45.8902758, "lon": -104.5477297, "tags": {"addr:state": "MT", "amenity": "fire_station", "ele": "1044", "gnis:feature_id": "1688683", "name": "Ekalaka Fire Department", "source": "USGS Geonames"}}, {"type": "node", "id": 366093314, "lat": 45.889512, "lon": -104.5489814, "tags": {"addr:state": "MT", "amenity": "library", "ele": "1045", "gnis:feature_id": "1688763", "name": "Ekalaka Public Library", "source": "USGS Geonames", "wikidata": "Q69513578"}}, {"type": "node", "id": 366093494, "lat": 45.8902758, "lon": -104.5488409, "tags": {"addr:state": "MT", "amenity": "police", "ele": "1044", "gnis:feature_id": "1688684", "name": "Ekalaka Police Department", "source": "USGS Geonames"}}, {"type": "node", "id": 366093497, "lat": 45.8883219, "lon": -104.5486758, "tags": {"addr:state": "MT", "amenity": "police", "ele": "1046", "gnis:feature_id": "1688686", "name": "Carter County Sheriffs Office", "source": "USGS Geonames"}}, {"type": "node", "id": 4911418601, "lat": 45.8879674, "lon": -104.5497358}, {"type": "node", "id": 4911418602, "lat": 45.8879674, "lon": -104.5504288}, {"type": "node", "id": 4911418603, "lat": 45.8884116, "lon": -104.5504528}, {"type": "node", "id": 4911418605, "lat": 45.8886354, "lon": -104.5504687}, {"type": "node", "id": 4911418606, "lat": 45.8886818, "lon": -104.5495145}, {"type": "node", "id": 4911418607, "lat": 45.8887078, "lon": -104.5491138}, {"type": "node", "id": 6521395478, "lat": 45.8916117, "lon": -104.5468137}, {"type": "node", "id": 6521395479, "lat": 45.8914959, "lon": -104.5469862}, {"type": "node", "id": 6521395480, "lat": 45.8913629, "lon": -104.5468013}, {"type": "node", "id": 6521395481, "lat": 45.8914744, "lon": -104.5466226}, {"type": "node", "id": 6521450822, "lat": 45.8911699, "lon": -104.5470601, "tags": {"addr:city": "Ekalaka", "addr:postcode": "59324", "addr:state": "MT", "amenity": "fuel", "self_service": "yes"}}, {"type": "node", "id": 6521463346, "lat": 45.8909251, "lon": -104.5477915}, {"type": "node", "id": 6521463347, "lat": 45.89079, "lon": -104.5476159}, {"type": "node", "id": 6521463348, "lat": 45.8908715, "lon": -104.5474834}, {"type": "node", "id": 6521463684, "lat": 45.8910045, "lon": -104.547665}, {"type": "node", "id": 6521488710, "lat": 45.8905527, "lon": -104.5481176, "tags": {"addr:city": "Ekalaka", "addr:housenumber": "117", "addr:postcode": "59324", "addr:state": "MT", "addr:street": "Main Street", "amenity": "bar", "name": "Dawg House Pub"}}, {"type": "node", "id": 7621266190, "lat": 45.8869422, "lon": -104.5463843}, {"type": "node", "id": 7621266191, "lat": 45.8869534, "lon": -104.5461188}, {"type": "node", "id": 7621266192, "lat": 45.8868567, "lon": -104.5461103}, {"type": "node", "id": 7621266193, "lat": 45.8868455, "lon": -104.5463759}, {"type": "node", "id": 7919505643, "lat": 45.8903358, "lon": -104.5484412, "tags": {"amenity": "townhall"}}, {"type": "node", "id": 7919505644, "lat": 45.8903657, "lon": -104.5483674, "tags": {"amenity": "library"}}, {"type": "node", "id": 8855659857, "lat": 45.886757, "lon": -104.5459373}, {"type": "node", "id": 8855659858, "lat": 45.8867341, "lon": -104.5464629}, {"type": "node", "id": 8855659859, "lat": 45.8867844, "lon": -104.5464674}, {"type": "node", "id": 8855659862, "lat": 45.8868073, "lon": -104.5459418}, {"type": "node", "id": 8923613633, "lat": 45.8886036, "lon": -104.5494459}, {"type": "node", "id": 8923613634, "lat": 45.8886171, "lon": -104.5492149}, {"type": "node", "id": 8923613635, "lat": 45.8883673, "lon": -104.5491848}, {"type": "node", "id": 8923613636, "lat": 45.8883697, "lon": -104.5491434}, {"type": "node", "id": 8923613637, "lat": 45.88828, "lon": -104.5491325}, {"type": "node", "id": 8923613638, "lat": 45.888277, "lon": -104.5491843}, {"type": "node", "id": 8923613639, "lat": 45.8880685, "lon": -104.5491591}, {"type": "node", "id": 8923613640, "lat": 45.8880568, "lon": -104.5493594}, {"type": "node", "id": 8923613641, "lat": 45.8882736, "lon": -104.5493856}, {"type": "node", "id": 8923613642, "lat": 45.8882573, "lon": -104.5496625}, {"type": "node", "id": 8923613643, "lat": 45.8881164, "lon": -104.5496454}, {"type": "node", "id": 8923613644, "lat": 45.8880927, "lon": -104.5500494}, {"type": "node", "id": 8923613645, "lat": 45.888248, "lon": -104.5500681}, {"type": "node", "id": 8923613646, "lat": 45.8882331, "lon": -104.5503233}, {"type": "node", "id": 8923613647, "lat": 45.888435, "lon": -104.5503477}, {"type": "node", "id": 8923613648, "lat": 45.8884748, "lon": -104.5496673}, {"type": "node", "id": 8923613649, "lat": 45.8884103, "lon": -104.5496595}, {"type": "node", "id": 8923613650, "lat": 45.888424, "lon": -104.5494243}, {"type": "way", "id": 499969316, "nodes": [357961752, 4911418607, 4911418606, 4911418605, 4911418603, 4911418602, 4911418601, 357961752], "tags": {"addr:city": "Ekalaka", "addr:housenumber": "215", "addr:postcode": "59324", "addr:state": "MT", "addr:street": "Sandy Street", "amenity": "hospital", "emergency": "yes", "healthcare": "hospital", "name": "Dahl Memorial Healthcare", "opening_hours": "24/7", "phone": "+1 406 775 8739", "website": "http://www.dahlmemorial.com/cah.html"}}, {"type": "way", "id": 694522660, "nodes": [6521395478, 6521395479, 6521395480, 6521395481, 6521395478], "tags": {"addr:city": "Ekalaka", "addr:housenumber": "307", "addr:postcode": "59324", "addr:state": "MT", "addr:street": "Main Street", "amenity": "bank", "building": "yes", "name": "Summit National Bank"}}, {"type": "way", "id": 694523731, "nodes": [6521463684, 6521463346, 6521463347, 6521463348, 6521463684], "tags": {"addr:city": "Ekalaka", "addr:housenumber": "211", "addr:postcode": "59324", "addr:state": "MT", "addr:street": "Main Street", "amenity": "cafe", "building": "yes", "name": "Wagon Wheel Cafe"}}, {"type": "way", "id": 816047212, "nodes": [7621266193, 7621266190, 7621266191, 7621266192, 7621266193], "tags": {"addr:city": "Ekalaka", "addr:housenumber": "314", "addr:postcode": "59324", "addr:state": "MT", "addr:street": "Church Avenue", "amenity": "place_of_worship", "building": "church", "denomination": "roman_catholic", "description": "Administered From: St John the Evangelist Church PO Box 1519 Baker, MT 59313", "diocese": "Great Falls-Billings", "ele": "1047", "gnis:feature_id": "1688761", "name": "Saint Joan of Arc Catholic Church", "phone": "+1 406-775-6310", "religion": "christian"}}, {"type": "way", "id": 957007383, "nodes": [8855659859, 8855659858, 8855659857, 8855659862, 8855659859], "tags": {"amenity": "parking"}}, {"type": "way", "id": 964726927, "nodes": [8923613633, 8923613634, 8923613635, 8923613636, 8923613637, 8923613638, 8923613639, 8923613640, 8923613641, 8923613642, 8923613643, 8923613644, 8923613645, 8923613646, 8923613647, 8923613648, 8923613649, 8923613650, 8923613633], "tags": {"amenity": "clinic", "building": "yes", "healthcare": "clinic"}}]}