{"version": 0.6, "generator": "Overpass API 0.7.62.8 e802775f", "osm3s": {"timestamp_osm_base": "2025-11-02T22:54:20Z", "copyright": "The data included in this document is from www.openstreetmap.org. The data is made available under ODbL."}, "elements": [{"type": "node", "id": 7246146080, "lat": 38.3976411, "lon": -89.6484243}, {"type": "node", "id": 7246146081, "lat": 38.3976318, "lon": -89.6453862}, {"type": "node", "id": 7246146082, "lat": 38.4001167, "lon": -89.6454275}, {"type": "node", "id": 7246146083, "lat": 38.4001599, "lon": -89.6485019}, {"type": "node", "id": 12523516032, "lat": 38.3976362, "lon": -89.6470045}, {"type": "way", "id": 776614173, "nodes": [7246146080, 12523516032, 7246146081, 7246146082, 7246146083, 7246146080], "tags": {"addr:city": "Venedy", "addr:housenumber": "233", "addr:state": "IL", "addr:street": "North Mill Road", "leisure": "park", "name": "Venedy Park", "opening_hours": "sunrise-sunset", "operator": "village of Venedy"}}]}