{"version": 0.6, "generator": "Overpass API 0.7.62.8 e802775f", "osm3s": {"timestamp_osm_base": "2025-12-13T01:41:33Z", "copyright": "The data included in this document is from www.openstreetmap.org. The data is made available under ODbL."}, "elements": [{"type": "node", "id": 358930040, "lat": 37.1233538, "lon": -104.7438798, "tags": {"amenity": "grave_yard", "ele": "2008", "gnis:feature_id": "194819", "name": "San Juan Cemetery"}}, {"type": "node", "id": 13235588281, "lat": 37.1250676, "lon": -104.7601508}, {"type": "node", "id": 13235588282, "lat": 37.1252595, "lon": -104.7601469}, {"type": "node", "id": 13235588283, "lat": 37.1252572, "lon": -104.7599665}, {"type": "node", "id": 13235588284, "lat": 37.1250654, "lon": -104.7599704}, {"type": "node", "id": 13235588285, "lat": 37.1238096, "lon": -104.7275354}, {"type": "node", "id": 13235588286, "lat": 37.1239519, "lon": -104.7275295}, {"type": "node", "id": 13235588287, "lat": 37.1239476, "lon": -104.7273677}, {"type": "node", "id": 13235588288, "lat": 37.1238053, "lon": -104.7273736}, {"type": "way", "id": 1442480437, "nodes": [13235588281, 13235588282, 13235588283, 13235588284, 13235588281], "tags": {"amenity": "school"}}, {"type": "way", "id": 1442480438, "nodes": [13235588285, 13235588286, 13235588287, 13235588288, 13235588285], "tags": {"addr:city": "Sarcillo", "addr:state": "CO", "addr:street": "CO 12", "amenity": "fire_station", "building": "fire_station", "name": "Valdez Fire Station"}}]}