{"version": 0.6, "generator": "Overpass API 0.7.62.8 e802775f", "osm3s": {"timestamp_osm_base": "2025-12-08T22:27:05Z", "copyright": "The data included in this document is from www.openstreetmap.org. The data is made available under ODbL."}, "elements": [{"type": "node", "id": 357960594, "lat": 48.3941199, "lon": -107.0835258, "tags": {"amenity": "place_of_worship", "denomination": "lutheran", "ele": "660", "gnis:feature_id": "1677310", "name": "Hinsdale Lutheran Church", "religion": "christian"}}, {"type": "node", "id": 357960607, "lat": 48.3962818, "lon": -107.0868519, "tags": {"addr:housenumber": "404", "addr:street": "Minnesota Street", "entrance": "main"}}, {"type": "node", "id": 357961420, "lat": 48.393604, "lon": -107.0849122, "tags": {"amenity": "post_office", "ele": "662", "gnis:feature_id": "1688524", "name": "Hinsdale Post Office"}}, {"type": "node", "id": 357986528, "lat": 48.3948809, "lon": -107.0843973, "tags": {"amenity": "school", "ele": "660", "gnis:feature_id": "1819577", "name": "Hinsdale School"}}, {"type": "node", "id": 3480240912, "lat": 48.3953894, "lon": -107.0874871}, {"type": "node", "id": 3480240923, "lat": 48.3946535, "lon": -107.0863417}, {"type": "node", "id": 3480240927, "lat": 48.395314, "lon": -107.0875438}, {"type": "node", "id": 3480240956, "lat": 48.3947496, "lon": -107.0865812}, {"type": "node", "id": 3480240960, "lat": 48.3946376, "lon": -107.0866574}, {"type": "node", "id": 3480240962, "lat": 48.3934314, "lon": -107.0850412, "tags": {"amenity": "bank", "name": "First Community Bank"}}, {"type": "node", "id": 3480240964, "lat": 48.3953824, "lon": -107.0877495}, {"type": "node", "id": 3480240968, "lat": 48.3939336, "lon": -107.0852933, "tags": {"amenity": "bar", "name": "Stoghie's Bar and Grill"}}, {"type": "node", "id": 3480240980, "lat": 48.3954711, "lon": -107.0876826}, {"type": "node", "id": 3480242094, "lat": 48.3945617, "lon": -107.0864042}, {"type": "node", "id": 5002094433, "lat": 48.3935987, "lon": -107.0890662, "tags": {"amenity": "fuel", "name": "Raiders Quick Stop"}}, {"type": "node", "id": 7038328958, "lat": 48.3962401, "lon": -107.0868855}, {"type": "node", "id": 7038328959, "lat": 48.3963256, "lon": -107.0868165}, {"type": "node", "id": 7038328960, "lat": 48.3963681, "lon": -107.0869359}, {"type": "node", "id": 7038328961, "lat": 48.3962825, "lon": -107.0870049}, {"type": "node", "id": 7038330316, "lat": 48.3954528, "lon": -107.0876277}, {"type": "node", "id": 7038330317, "lat": 48.3954395, "lon": -107.0876378}, {"type": "node", "id": 7038330446, "lat": 48.3933962, "lon": -107.0882079}, {"type": "node", "id": 7038330447, "lat": 48.3934035, "lon": -107.0882028}, {"type": "node", "id": 7038330448, "lat": 48.393341, "lon": -107.0882464}, {"type": "node", "id": 7038330449, "lat": 48.3933941, "lon": -107.0884194}, {"type": "node", "id": 7038330450, "lat": 48.3934763, "lon": -107.0884396}, {"type": "node", "id": 7038330679, "lat": 48.394662, "lon": -107.0863698}, {"type": "node", "id": 7038330680, "lat": 48.3946768, "lon": -107.0863597}, {"type": "node", "id": 7038330681, "lat": 48.3947086, "lon": -107.0864655}, {"type": "node", "id": 7038330682, "lat": 48.3947138, "lon": -107.0864619}, {"type": "node", "id": 7038330868, "lat": 48.3940112, "lon": -107.0847951}, {"type": "node", "id": 7038330869, "lat": 48.3939561, "lon": -107.084612}, {"type": "node", "id": 7038330870, "lat": 48.3938693, "lon": -107.0846733}, {"type": "node", "id": 7038330871, "lat": 48.3939209, "lon": -107.0848563}, {"type": "node", "id": 7045524822, "lat": 48.3934137, "lon": -107.0884832}, {"type": "way", "id": 340765730, "nodes": [3480240980, 7038330316, 7038330317, 3480240912, 3480240927, 3480240964, 3480240980], "tags": {"addr:city": "Hinsdale", "addr:housenumber": "304", "addr:postcode": "59230", "addr:state": "MT", "addr:street": "Minnesota", "amenity": "place_of_worship", "building": "church", "denomination": "roman_catholic", "description": "Administered From: St Raphael Church PO Box 471 Glasgow, MT 59230", "diocese": "Great Falls-Billings", "name": "Saint Albert Catholic Church", "phone": "+1-406-228-9800", "religion": "christian"}}, {"type": "way", "id": 340765735, "nodes": [3480240956, 7038330682, 7038330681, 7038330680, 7038330679, 3480240923, 3480242094, 3480240960, 3480240956], "tags": {"amenity": "place_of_worship", "building": "yes", "denomination": "methodist", "name": "United Methodist Church", "religion": "christian"}}, {"type": "way", "id": 753279781, "nodes": [7038328961, 7038328960, 7038328959, 357960607, 7038328958, 7038328961], "tags": {"addr:housenumber": "404", "addr:state": "MT", "addr:street": "Minnesota Street", "amenity": "place_of_worship", "building": "yes", "denomination": "baptist", "ele": "661", "gnis:feature_id": "1677313", "name": "Grace Baptist Church", "religion": "christian"}}, {"type": "way", "id": 753279821, "nodes": [7038330450, 7038330447, 7038330446, 7038330448, 7038330449, 7045524822, 7038330450], "tags": {"amenity": "restaurant", "building": "yes", "cuisine": "barbecue", "name": "Pot Luck Cafe", "opening_hours": "Th-Su 08:00-08:00", "phone": "+1-406-942-2107"}}, {"type": "way", "id": 753279907, "nodes": [7038330871, 7038330868, 7038330869, 7038330870, 7038330871], "tags": {"addr:city": "Hinsdale", "addr:housenumber": "235", "addr:postcode": "59241", "addr:state": "MT", "addr:street": "Montana Street", "amenity": "restaurant", "building": "yes", "cuisine": "coffee_shop;ice_cream", "name": "Sweet Memories", "opening_hours": "Tu-Sa 07:00-17:00", "phone": "+1-406-364-2128"}}]}