{"version": 0.6, "generator": "Overpass API 0.7.62.8 e802775f", "osm3s": {"timestamp_osm_base": "2025-12-12T18:44:25Z", "copyright": "The data included in this document is from www.openstreetmap.org. The data is made available under ODbL."}, "elements": [{"type": "node", "id": 4375523235, "lat": 38.2647502, "lon": -104.6124548}, {"type": "node", "id": 4375523239, "lat": 38.2649524, "lon": -104.6127221}, {"type": "node", "id": 5233606254, "lat": 38.2647803, "lon": -104.6129355}, {"type": "node", "id": 5233606255, "lat": 38.264518, "lon": -104.6125922}, {"type": "node", "id": 5233606256, "lat": 38.2645876, "lon": -104.6125059}, {"type": "node", "id": 5233606257, "lat": 38.2646466, "lon": -104.6125832}, {"type": "node", "id": 5260621633, "lat": 38.2649565, "lon": -104.611465, "tags": {"addr:city": "Pueblo", "addr:housenumber": "115", "addr:postcode": "81003", "addr:state": "CO", "addr:street": "East Riverwalk", "addr:unit": "Suite 110", "leisure": "fitness_centre", "name": "Farah Fitness"}}, {"type": "node", "id": 8282001709, "lat": 38.2707448, "lon": -104.6134098, "tags": {"leisure": "fitness_centre", "name": "Body Shop"}}, {"type": "node", "id": 12391555225, "lat": 38.2647754, "lon": -104.6129291}, {"type": "node", "id": 12474959068, "lat": 38.2602479, "lon": -104.6198191, "tags": {"leisure": "fitness_centre", "name": "Fountain of Health Yoga Studio", "sport": "yoga"}}, {"type": "node", "id": 12478979202, "lat": 38.2704724, "lon": -104.610317, "tags": {"leisure": "fitness_centre", "name": "Bodies By"}}, {"type": "way", "id": 541169092, "nodes": [4375523239, 5233606254, 12391555225, 5233606255, 5233606256, 5233606257, 4375523235, 4375523239], "tags": {"building": "yes", "building:levels": "2", "leisure": "fitness_centre", "name": "REPS Fitness Club"}}]}