{"version": 0.6, "generator": "Overpass API 0.7.62.8 e802775f", "osm3s": {"timestamp_osm_base": "2025-12-06T16:42:20Z", "copyright": "The data included in this document is from www.openstreetmap.org. The data is made available under ODbL."}, "elements": [{"type": "node", "id": 2821479594, "lat": 46.7130971, "lon": -117.1804507}, {"type": "node", "id": 2821479595, "lat": 46.7132284, "lon": -117.1802068}, {"type": "node", "id": 2821479596, "lat": 46.7132113, "lon": -117.1812736}, {"type": "node", "id": 2821479597, "lat": 46.7132835, "lon": -117.1811394}, {"type": "node", "id": 2821479600, "lat": 46.7135264, "lon": -117.1806794}, {"type": "node", "id": 5587255789, "lat": 46.7133227, "lon": -117.1804464}, {"type": "node", "id": 5587255790, "lat": 46.7133999, "lon": -117.1803032}, {"type": "node", "id": 5587255791, "lat": 46.7132934, "lon": -117.1801812}, {"type": "node", "id": 5587255792, "lat": 46.7132601, "lon": -117.1802431}, {"type": "node", "id": 5587255793, "lat": 46.7131296, "lon": -117.1804879}, {"type": "node", "id": 5587255794, "lat": 46.7128991, "lon": -117.1809165}, {"type": "node", "id": 5587255795, "lat": 46.7133168, "lon": -117.1811775}, {"type": "node", "id": 5587255796, "lat": 46.7134599, "lon": -117.1809113}, {"type": "node", "id": 5587255797, "lat": 46.7134239, "lon": -117.1808701}, {"type": "node", "id": 5587255798, "lat": 46.7133964, "lon": -117.1805307}, {"type": "node", "id": 13168428037, "lat": 46.7272152, "lon": -117.183893, "tags": {"addr:city": "Pullman", "addr:housenumber": "370", "addr:postcode": "99163-2842", "addr:state": "WA", "addr:street": "South Grand Avenue", "brand": "CrossFit", "brand:wikidata": "Q2072840", "leisure": "fitness_centre", "name": "CrossFit", "website": "https://pullmancrossfit.com/"}}, {"type": "way", "id": 277661814, "nodes": [2821479596, 2821479597, 5587255795, 5587255796, 5587255797, 2821479600, 5587255798, 5587255789, 5587255790, 5587255791, 5587255792, 2821479595, 2821479594, 5587255793, 5587255794, 2821479596], "tags": {"addr:city": "Pullman", "addr:housenumber": "1690", "addr:postcode": "99163", "addr:state": "WA", "addr:street": "South Grand Avenue", "brand": "Planet Fitness", "brand:wikidata": "Q7201095", "building": "yes", "internet_access": "wlan", "internet_access:fee": "no", "leisure": "fitness_centre", "name": "Planet Fitness", "opening_hours": "24/7", "phone": "+1-509-715-1202", "website": "https://www.planetfitness.com/", "wheelchair": "yes"}}]}