{"version": 0.6, "generator": "Overpass API 0.7.62.8 e802775f", "osm3s": {"timestamp_osm_base": "2025-12-06T06:06:01Z", "copyright": "The data included in this document is from www.openstreetmap.org. The data is made available under ODbL."}, "elements": [{"type": "node", "id": 8331625293, "lat": 43.5753637, "lon": -116.3132567}, {"type": "node", "id": 8927115194, "lat": 43.5751375, "lon": -116.3132558}, {"type": "node", "id": 8927115195, "lat": 43.5751376, "lon": -116.3132211}, {"type": "node", "id": 8927115196, "lat": 43.5750921, "lon": -116.313221}, {"type": "node", "id": 8927115197, "lat": 43.5750923, "lon": -116.3131259}, {"type": "node", "id": 8927115198, "lat": 43.5751146, "lon": -116.313126}, {"type": "node", "id": 8927115199, "lat": 43.5751147, "lon": -116.3130616}, {"type": "node", "id": 8927115200, "lat": 43.5753641, "lon": -116.3130625}, {"type": "way", "id": 965005196, "nodes": [8331625293, 8927115194, 8927115195, 8927115196, 8927115197, 8927115198, 8927115199, 8927115200, 8331625293], "tags": {"addr:city": "Boise", "addr:housenumber": "3080", "addr:postcode": "83709", "addr:state": "ID", "addr:street": "South Five Mile Road", "brand": "Maverik", "brand:wikidata": "Q64149010", "building": "yes", "name": "Maverik", "shop": "convenience"}}]}