{"version": 0.6, "generator": "Overpass API 0.7.62.8 e802775f", "osm3s": {"timestamp_osm_base": "2025-12-06T05:23:57Z", "copyright": "The data included in this document is from www.openstreetmap.org. The data is made available under ODbL."}, "elements": [{"type": "node", "id": 10082335803, "lat": 47.6784928, "lon": -116.7893671, "tags": {"name": "The Spokesman Review", "office": "newspaper"}}, {"type": "node", "id": 10082335804, "lat": 47.6785696, "lon": -116.7897081, "tags": {"government": "prosecutor", "name": "Siebe Law Offices", "office": "government"}}, {"type": "node", "id": 10082335806, "lat": 47.6783814, "lon": -116.7894224, "tags": {"name": "NexTitle", "office": "company"}}, {"type": "node", "id": 10082335807, "lat": 47.6785327, "lon": -116.7895439, "tags": {"name": "Froniter Communications", "office": "telecommunication"}}, {"type": "node", "id": 10082335812, "lat": 47.6791367, "lon": -116.7905464}, {"type": "node", "id": 10082335813, "lat": 47.6792215, "lon": -116.7903541}, {"type": "node", "id": 10082335814, "lat": 47.6794074, "lon": -116.7905349}, {"type": "node", "id": 10082335815, "lat": 47.6793226, "lon": -116.7907272}, {"type": "node", "id": 10082335845, "lat": 47.6817131, "lon": -116.7921724, "tags": {"government": "prosecutor", "name": "Randall C. Probasco", "office": "government"}}, {"type": "node", "id": 10082335846, "lat": 47.6817946, "lon": -116.7921731, "tags": {"name": "Idaho Legal Aid Services", "office": "lawyer"}}, {"type": "node", "id": 10082335847, "lat": 47.6817933, "lon": -116.7925304, "tags": {"name": "Remedy Salon", "shop": "hairdresser"}}, {"type": "node", "id": 10082335849, "lat": 47.6817127, "lon": -116.7922876, "tags": {"name": "Youngblood Architecture", "office": "company"}}, {"type": "node", "id": 10082335850, "lat": 47.6817937, "lon": -116.7924182, "tags": {"name": "Coeur d'Alene Lash", "shop": "beauty"}}, {"type": "node", "id": 10082335879, "lat": 47.6820025, "lon": -116.7927201, "tags": {"government": "prosecutor", "name": "Jillian L. Roderick", "office": "government"}}, {"type": "node", "id": 10082335880, "lat": 47.6819585, "lon": -116.7928355, "tags": {"name": "Gaia's Rock'n Crystals", "shop": "gift"}}, {"type": "node", "id": 10082335881, "lat": 47.682686, "lon": -116.7932946, "tags": {"name": "Distinguished Gentleman's Barber Lounge", "shop": "hairdresser"}}, {"type": "node", "id": 10082335882, "lat": 47.6822052, "lon": -116.7930427, "tags": {"amenity": "restaurant", "name": "Caf\u00e9 Carambola"}}, {"type": "node", "id": 10082335884, "lat": 47.6823265, "lon": -116.7931447, "tags": {"name": "Pick 6 Sportscards", "shop": "gift"}}, {"type": "node", "id": 10082335885, "lat": 47.6823707, "lon": -116.7931818, "tags": {"name": "A Thin Line Barbershop", "shop": "hairdresser"}}, {"type": "node", "id": 10082335886, "lat": 47.6824995, "lon": -116.79329, "tags": {"name": "Lexar Homes of Coeur d'Alene", "office": "company"}}, {"type": "node", "id": 10082335887, "lat": 47.6825542, "lon": -116.793336, "tags": {"name": "Isola Massage & Skin", "shop": "massage"}}, {"type": "node", "id": 10082335900, "lat": 47.682609, "lon": -116.7932298, "tags": {"name": "Western Timber Products", "office": "company"}}, {"type": "node", "id": 10082335901, "lat": 47.6824903, "lon": -116.7931301, "tags": {"name": "Dana Downing", "office": "accountant"}}, {"type": "node", "id": 10082335902, "lat": 47.6824461, "lon": -116.7930929, "tags": {"name": "Coeur d'Alene Accounting", "office": "accountant"}}, {"type": "node", "id": 10082335903, "lat": 47.6822714, "lon": -116.7929461, "tags": {"name": "Schrader & Murphy Insurance", "office": "insurance"}}, {"type": "node", "id": 10082335904, "lat": 47.6821648, "lon": -116.7928565, "tags": {"name": "Palace Property Management", "office": "estate_agent"}}, {"type": "node", "id": 10082335905, "lat": 47.6820826, "lon": -116.7927874, "tags": {"name": "Senator James Risch", "office": "government"}}, {"type": "node", "id": 10082335914, "lat": 47.6827004, "lon": -116.7920731, "tags": {"name": "JEBCommerce", "office": "advertising_agency"}}, {"type": "node", "id": 10082335915, "lat": 47.6820603, "lon": -116.7920693, "tags": {"name": "Compass Property Management", "office": "estate_agent"}}, {"type": "node", "id": 10082335917, "lat": 47.6826408, "lon": -116.792402, "tags": {"name": "Momentum Wealth Strategies", "office": "accountant"}}, {"type": "node", "id": 10082335918, "lat": 47.6827551, "lon": -116.7923985, "tags": {"brand": "Farmers Insurance", "brand:wikidata": "Q1396863", "name": "Farmers Insurance", "office": "insurance"}}, {"type": "node", "id": 10082335935, "lat": 47.6807523, "lon": -116.7911938}, {"type": "node", "id": 10082335936, "lat": 47.6807535, "lon": -116.791351}, {"type": "node", "id": 10082335937, "lat": 47.6807408, "lon": -116.7913842}, {"type": "node", "id": 10082335938, "lat": 47.6805872, "lon": -116.7912548}, {"type": "node", "id": 10082335939, "lat": 47.6805968, "lon": -116.7912296}, {"type": "node", "id": 10082335940, "lat": 47.6805966, "lon": -116.7911964}, {"type": "node", "id": 11241746781, "lat": 47.6847742, "lon": -116.7905034}, {"type": "node", "id": 11241746782, "lat": 47.6847745, "lon": -116.790564}, {"type": "node", "id": 11241746783, "lat": 47.68478, "lon": -116.7905639}, {"type": "node", "id": 11241746784, "lat": 47.6847816, "lon": -116.7909041}, {"type": "node", "id": 11241746785, "lat": 47.6846615, "lon": -116.7909054}, {"type": "node", "id": 11241746786, "lat": 47.6846611, "lon": -116.7908228}, {"type": "node", "id": 11241746787, "lat": 47.6846299, "lon": -116.7908231}, {"type": "node", "id": 11241746788, "lat": 47.6846287, "lon": -116.7905663}, {"type": "node", "id": 11241746789, "lat": 47.6846653, "lon": -116.7905659}, {"type": "node", "id": 11241746790, "lat": 47.684665, "lon": -116.7905045}, {"type": "node", "id": 11241746791, "lat": 47.6847381, "lon": -116.789418}, {"type": "node", "id": 11241746792, "lat": 47.6847379, "lon": -116.7895434}, {"type": "node", "id": 11241746793, "lat": 47.684598, "lon": -116.7895428}, {"type": "node", "id": 11241746794, "lat": 47.6845983, "lon": -116.7894174}, {"type": "node", "id": 11241746795, "lat": 47.6847328, "lon": -116.7905038}, {"type": "node", "id": 12426028523, "lat": 47.684188, "lon": -116.7944723}, {"type": "node", "id": 12426028524, "lat": 47.6841951, "lon": -116.794549}, {"type": "node", "id": 12426028525, "lat": 47.6843488, "lon": -116.7946494}, {"type": "node", "id": 12426028526, "lat": 47.6842989, "lon": -116.7946617}, {"type": "node", "id": 12426028527, "lat": 47.6844183, "lon": -116.7944227}, {"type": "node", "id": 12426028528, "lat": 47.6844276, "lon": -116.7944975}, {"type": "node", "id": 12426028529, "lat": 47.6843152, "lon": -116.7943086}, {"type": "node", "id": 12426028530, "lat": 47.684264, "lon": -116.7943173}, {"type": "node", "id": 12426028531, "lat": 47.6841733, "lon": -116.7944561}, {"type": "node", "id": 12426028532, "lat": 47.6842502, "lon": -116.7943021}, {"type": "node", "id": 12426028533, "lat": 47.6844416, "lon": -116.7945129}, {"type": "node", "id": 12426028534, "lat": 47.6843647, "lon": -116.7946669}, {"type": "node", "id": 12426028535, "lat": 47.6841711, "lon": -116.794597}, {"type": "node", "id": 12426028536, "lat": 47.6843397, "lon": -116.7942594}, {"type": "node", "id": 12426028537, "lat": 47.684443, "lon": -116.7943732}, {"type": "node", "id": 12426028538, "lat": 47.6842744, "lon": -116.7947108}, {"type": "node", "id": 13028255035, "lat": 47.6832101, "lon": -116.7937373, "tags": {"addr:city": "Coeur d'Alene", "addr:housenumber": "1000", "addr:postcode": "83814", "addr:state": "ID", "addr:street": "Northwest Boulevard", "name": "Windermere Coeur d'Alene Realty", "office": "estate_agent", "phone": "+12086594864"}}, {"type": "node", "id": 13028255036, "lat": 47.6832228, "lon": -116.7935594, "tags": {"addr:city": "Coeur d'Alene", "addr:housenumber": "1000", "addr:postcode": "83814", "addr:state": "ID", "addr:street": "Northwest Boulevard", "name": "Shawn & Colleen Aldrich - Real Estate", "office": "estate_agent", "phone": "+12086594864"}}, {"type": "node", "id": 13028255037, "lat": 47.6843246, "lon": -116.7944564, "tags": {"name": "Madsen Law Offices, P.C.", "office": "lawyer"}}, {"type": "way", "id": 1101776165, "nodes": [10082335812, 10082335813, 10082335814, 10082335815, 10082335812], "tags": {"building": "yes", "government": "prosecutor", "name": "Ramsden & Lyons", "office": "government"}}, {"type": "way", "id": 1101776177, "nodes": [10082335935, 10082335936, 10082335937, 10082335938, 10082335939, 10082335940, 10082335935], "tags": {"building": "yes", "name": "North Idaho Family Law", "office": "lawyer"}}, {"type": "way", "id": 1213379454, "nodes": [11241746781, 11241746782, 11241746783, 11241746784, 11241746785, 11241746786, 11241746787, 11241746788, 11241746789, 11241746790, 11241746795, 11241746781]}, {"type": "way", "id": 1213379455, "nodes": [11241746791, 11241746792, 11241746793, 11241746794, 11241746791]}, {"type": "way", "id": 1343009282, "nodes": [12426028524, 12426028535, 12426028538, 12426028526, 12426028525, 12426028534, 12426028533, 12426028528, 12426028527, 12426028537, 12426028536, 12426028529, 12426028530, 12426028532, 12426028531, 12426028523, 12426028524], "tags": {"addr:city": "Coeur d'Alene", "addr:housenumber": "1044", "addr:postcode": "83814", "addr:state": "ID", "addr:street": "Northwest Boulevard", "building": "yes", "name": "Armstrong Insurance", "office": "insurance", "opening_hours": "Mo-Fr 09:30-17:00", "phone": "+12086643364", "website": "https://mattarmstronginsurance.com/contact"}}, {"type": "relation", "id": 16440927, "members": [{"type": "way", "ref": 1213379454, "role": "outer"}, {"type": "way", "ref": 1213379455, "role": "outer"}], "tags": {"building": "yes", "name": "Coeur d'Alene Parks Department", "office": "government", "type": "multipolygon"}}]}