{"version": 0.6, "generator": "Overpass API 0.7.62.8 e802775f", "osm3s": {"timestamp_osm_base": "2025-12-06T06:02:00Z", "copyright": "The data included in this document is from www.openstreetmap.org. The data is made available under ODbL."}, "elements": [{"type": "node", "id": 4283484570, "lat": 48.4759495, "lon": -116.8473329}, {"type": "node", "id": 4283484571, "lat": 48.475955, "lon": -116.8470581}, {"type": "node", "id": 4283484574, "lat": 48.4760582, "lon": -116.8473379}, {"type": "node", "id": 4283484575, "lat": 48.4760637, "lon": -116.847063}, {"type": "node", "id": 4283484902, "lat": 48.4799013, "lon": -116.8487675}, {"type": "node", "id": 4283484903, "lat": 48.4799578, "lon": -116.8489607}, {"type": "node", "id": 4283484904, "lat": 48.4801048, "lon": -116.8486323}, {"type": "node", "id": 4283484905, "lat": 48.4801612, "lon": -116.8488254}, {"type": "node", "id": 12610396187, "lat": 48.4764246, "lon": -116.8465919}, {"type": "node", "id": 12610396188, "lat": 48.476423, "lon": -116.8464428}, {"type": "node", "id": 12610396189, "lat": 48.4761473, "lon": -116.8464497}, {"type": "node", "id": 12610396190, "lat": 48.4761489, "lon": -116.8465989}, {"type": "node", "id": 12610396191, "lat": 48.4764605, "lon": -116.8463208}, {"type": "node", "id": 12610396192, "lat": 48.4764594, "lon": -116.8462352}, {"type": "node", "id": 12610396193, "lat": 48.4761044, "lon": -116.8462461}, {"type": "node", "id": 12610396194, "lat": 48.4761056, "lon": -116.8463318}, {"type": "way", "id": 429220967, "nodes": [4283484903, 4283484905, 4283484904, 4283484902, 4283484903], "tags": {"addr:city": "Coolin", "addr:housenumber": "341", "addr:postcode": "83821", "addr:state": "ID", "addr:street": "Bay View Drive", "building": "yes", "name": "Leonard Paul Store", "opening_hours": "Mo-Su 07:00-19:00", "shop": "supermarket"}}, {"type": "way", "id": 429220968, "nodes": [4283484571, 4283484575, 4283484574, 4283484570, 4283484571], "tags": {"amenity": "restaurant", "building": "cabin", "cuisine": "american", "name": "Moose Knuckle"}}, {"type": "way", "id": 1362022080, "nodes": [12610396187, 12610396188, 12610396189, 12610396190, 12610396187], "tags": {"building": "yes", "shop": "storage_rental"}}, {"type": "way", "id": 1362022081, "nodes": [12610396191, 12610396192, 12610396193, 12610396194, 12610396191], "tags": {"building": "yes", "shop": "storage_rental"}}]}