{"version": 0.6, "generator": "Overpass API 0.7.62.8 e802775f", "osm3s": {"timestamp_osm_base": "2025-12-12T19:00:53Z", "copyright": "The data included in this document is from www.openstreetmap.org. The data is made available under ODbL."}, "elements": [{"type": "node", "id": 6791551989, "lat": 39.5650019, "lon": -106.4120818}, {"type": "node", "id": 6791551990, "lat": 39.5652414, "lon": -106.4119061}, {"type": "node", "id": 6791551991, "lat": 39.5651169, "lon": -106.4116207}, {"type": "node", "id": 6791551992, "lat": 39.5650738, "lon": -106.4116523}, {"type": "node", "id": 6791551993, "lat": 39.5650352, "lon": -106.4115637}, {"type": "node", "id": 6791551994, "lat": 39.5649032, "lon": -106.4116604}, {"type": "node", "id": 6791551995, "lat": 39.5649362, "lon": -106.4117361}, {"type": "node", "id": 6791551996, "lat": 39.5648718, "lon": -106.4117833}, {"type": "way", "id": 724176671, "nodes": [6791551989, 6791551990, 6791551991, 6791551992, 6791551993, 6791551994, 6791551995, 6791551996, 6791551989], "tags": {"addr:city": "Minturn", "addr:housenumber": "1000", "addr:postcode": "81645", "addr:state": "CO", "addr:street": "Maloit Park Road", "building": "yes", "building:material": "wood", "leisure": "fitness_centre", "name": "Minturn Fitness Center", "website": "https://minturnfitnesscenter.com/"}}]}