{"version": 0.6, "generator": "Overpass API 0.7.62.8 e802775f", "osm3s": {"timestamp_osm_base": "2025-10-31T04:19:18Z", "copyright": "The data included in this document is from www.openstreetmap.org. The data is made available under ODbL."}, "elements": [{"type": "node", "id": 12219609527, "lat": 57.8691194, "lon": -152.8802485}, {"type": "node", "id": 12219609528, "lat": 57.868944, "lon": -152.8799281}, {"type": "node", "id": 12219609529, "lat": 57.8690538, "lon": -152.8797894}, {"type": "node", "id": 12219609530, "lat": 57.8692095, "lon": -152.8794567}, {"type": "node", "id": 12219609531, "lat": 57.8693553, "lon": -152.8797555}, {"type": "node", "id": 12219611033, "lat": 57.9224315, "lon": -152.5081824}, {"type": "node", "id": 12219611034, "lat": 57.9222479, "lon": -152.5074258}, {"type": "node", "id": 12219611035, "lat": 57.9222578, "lon": -152.5069728}, {"type": "node", "id": 12219611036, "lat": 57.9221214, "lon": -152.5069308}, {"type": "node", "id": 12219611037, "lat": 57.9220024, "lon": -152.5067487}, {"type": "node", "id": 12219611038, "lat": 57.9218288, "lon": -152.5074678}, {"type": "node", "id": 12219611039, "lat": 57.9219925, "lon": -152.5080002}, {"type": "node", "id": 12219611040, "lat": 57.9221165, "lon": -152.508215}, {"type": "node", "id": 12219611041, "lat": 57.922243, "lon": -152.5083178}, {"type": "node", "id": 12219611042, "lat": 57.9223645, "lon": -152.5083178}, {"type": "way", "id": 1320491262, "nodes": [12219609527, 12219609528, 12219609529, 12219609530, 12219609531, 12219609527], "tags": {"addr:city": "Port Lions", "addr:housenumber": "2008", "addr:state": "AK", "addr:street": "Airport Road", "leisure": "park", "name": "Port Lions School Park", "operator": "Kodiak Island Borough School District", "operator:type": "government"}}, {"type": "way", "id": 1320492170, "nodes": [12219611033, 12219611034, 12219611035, 12219611036, 12219611037, 12219611038, 12219611039, 12219611040, 12219611041, 12219611042, 12219611033], "tags": {"addr:city": "Ouzinkie", "addr:housenumber": "236", "addr:state": "AK", "addr:street": "C Street", "leisure": "park", "name": "Ouzinkie School Park"}}]}