{"version": 0.6, "generator": "Overpass API 0.7.62.8 e802775f", "osm3s": {"timestamp_osm_base": "2025-11-08T22:20:02Z", "copyright": "The data included in this document is from www.openstreetmap.org. The data is made available under ODbL."}, "elements": [{"type": "node", "id": 11457181138, "lat": 27.071854, "lon": -82.4118943}, {"type": "node", "id": 11457181139, "lat": 27.0723491, "lon": -82.4119461}, {"type": "node", "id": 11457181140, "lat": 27.0726853, "lon": -82.4120188}, {"type": "node", "id": 11457181141, "lat": 27.0727465, "lon": -82.411837}, {"type": "node", "id": 11457181142, "lat": 27.0712141, "lon": -82.4119298}, {"type": "node", "id": 11457181143, "lat": 27.0713853, "lon": -82.4117802}, {"type": "node", "id": 11457193294, "lat": 27.0732947, "lon": -82.4137014}, {"type": "node", "id": 11457193295, "lat": 27.0732813, "lon": -82.4118686}, {"type": "node", "id": 11457193296, "lat": 27.0731629, "lon": -82.4118194}, {"type": "node", "id": 11457193351, "lat": 27.0711517, "lon": -82.4127528}, {"type": "node", "id": 11457193352, "lat": 27.0715475, "lon": -82.4128055}, {"type": "node", "id": 11457193353, "lat": 27.0715342, "lon": -82.4141292}, {"type": "node", "id": 11457193354, "lat": 27.0732906, "lon": -82.4141513}, {"type": "way", "id": 1234410940, "nodes": [11457181143, 11457181142, 11457193351, 11457193352, 11457193353, 11457193354, 11457193294, 11457193295, 11457193296, 11457181141, 11457181140, 11457181139, 11457181138, 11457181143], "tags": {"addr:city": "Venice", "addr:housenumber": "400", "addr:postcode": "34293", "addr:state": "FL", "addr:street": "Shamrock Boulevard", "leisure": "park", "name": "Venice Gardens Park", "opening_hours": "6am-sunset", "operator": "Sarasota County", "operator:type": "public", "website": "https://www.scgov.net/Home/Components/FacilityDirectory/FacilityDirectory/486/41"}}]}