{"version": 0.6, "generator": "Overpass API 0.7.62.8 e802775f", "osm3s": {"timestamp_osm_base": "2025-12-06T05:19:53Z", "copyright": "The data included in this document is from www.openstreetmap.org. The data is made available under ODbL."}, "elements": [{"type": "node", "id": 3757651266, "lat": 42.5389945, "lon": -113.7829536}, {"type": "node", "id": 3757651270, "lat": 42.5386312, "lon": -113.7829493}, {"type": "node", "id": 3757651274, "lat": 42.5386338, "lon": -113.782555}, {"type": "node", "id": 3757651275, "lat": 42.538997, "lon": -113.7825593}, {"type": "node", "id": 3758311885, "lat": 42.5375439, "lon": -113.7837806, "tags": {"brand": "AutoZone", "brand:wikidata": "Q4826087", "name": "AutoZone", "shop": "car_parts", "website": "https://www.autozone.com/locations/id/burley/811-e-main-st.html"}}, {"type": "node", "id": 3758311923, "lat": 42.5369866, "lon": -113.7765278, "tags": {"shop": "convenience"}}, {"type": "node", "id": 3758315925, "lat": 42.5378641, "lon": -113.7762515, "tags": {"amenity": "restaurant", "cuisine": "mexican", "name": "Angela's Mexican Food"}}, {"type": "node", "id": 3758315928, "lat": 42.5367061, "lon": -113.781828, "tags": {"name": "Smith's", "shop": "department_store"}}, {"type": "node", "id": 3758315936, "lat": 42.536868, "lon": -113.77804, "tags": {"brand": "Albertsons", "brand:wikidata": "Q2831861", "name": "Albertsons", "shop": "supermarket"}}, {"type": "node", "id": 3758315955, "lat": 42.5367396, "lon": -113.7720163, "tags": {"name": "Stinker", "shop": "convenience"}}, {"type": "node", "id": 3758331111, "lat": 42.5327472, "lon": -113.7903385, "tags": {"amenity": "restaurant", "cuisine": "mexican", "name": "Taqueria El Mirador"}}, {"type": "node", "id": 6329194891, "lat": 42.5193226, "lon": -113.7937931}, {"type": "node", "id": 6329194892, "lat": 42.519135, "lon": -113.7938009}, {"type": "node", "id": 6329194893, "lat": 42.5191293, "lon": -113.7935521}, {"type": "node", "id": 6329194894, "lat": 42.519317, "lon": -113.7935443}, {"type": "node", "id": 6329194895, "lat": 42.5204238, "lon": -113.7936165, "tags": {"addr:city": "Burley", "addr:housenumber": "2570", "addr:postcode": "83318", "addr:state": "ID", "addr:street": "Overland Avenue", "amenity": "restaurant", "brand": "Pizza Hut", "brand:wikidata": "Q191615", "cuisine": "pizza", "name": "Pizza Hut", "phone": "+1 208-678-7867", "website": "https://locations.pizzahut.com/id/burley/2570-overland-ave"}}, {"type": "node", "id": 6329194896, "lat": 42.5209393, "lon": -113.7939405, "tags": {"name": "Wilson Bates", "shop": "furniture"}}, {"type": "node", "id": 6329194897, "lat": 42.5212274, "lon": -113.7939508, "tags": {"addr:city": "Burley", "addr:housenumber": "2556", "addr:postcode": "83318-2941", "addr:state": "ID", "addr:street": "Overland Avenue", "brand": "Ace Hardware", "brand:wikidata": "Q4672981", "name": "Ace Hardware", "opening_hours": "Mo-Sa 08:00-19:00; Su 09:00-17:00", "phone": "+1 208-678-5534", "ref": "03352", "shop": "doityourself"}}, {"type": "node", "id": 6329194898, "lat": 42.521849, "lon": -113.7938736, "tags": {"name": "Branded Boutique & Tack", "shop": "clothes"}}, {"type": "node", "id": 6329194899, "lat": 42.522986, "lon": -113.7935239, "tags": {"shop": "hairdresser"}}, {"type": "node", "id": 6329194900, "lat": 42.5238009, "lon": -113.7936782, "tags": {"brand": "Sears", "brand:wikidata": "Q6499202", "name": "Sears", "shop": "department_store"}}, {"type": "node", "id": 6329194901, "lat": 42.5242633, "lon": -113.7929685, "tags": {"amenity": "restaurant", "name": "Taco Bandido"}}, {"type": "node", "id": 6329194906, "lat": 42.5249079, "lon": -113.7918154, "tags": {"name": "Wild Hare Junction", "shop": "hairdresser"}}, {"type": "node", "id": 6329194909, "lat": 42.5231848, "lon": -113.7928864, "tags": {"shop": "bicycle"}}, {"type": "node", "id": 6329194910, "lat": 42.5266426, "lon": -113.7924015, "tags": {"amenity": "cafe", "name": "Bent Bean"}}, {"type": "node", "id": 9950478885, "lat": 42.5179997, "lon": -113.7927926, "tags": {"shop": "storage_rental"}}, {"type": "way", "id": 372223939, "nodes": [3757651266, 3757651275, 3757651274, 3757651270, 3757651266], "tags": {"brand": "Walgreens", "brand:wikidata": "Q1591889", "building": "yes", "name": "Walgreens", "shop": "chemist", "website": "https://www.walgreens.com/locator/walgreens-904+e+main+st-burley-id-83318/id=13673"}}, {"type": "way", "id": 675837287, "nodes": [6329194891, 6329194892, 6329194893, 6329194894, 6329194891], "tags": {"building": "yes", "name": "Ross Manufacturing & Welding", "shop": "hardware"}}]}