{"version": 0.6, "generator": "Overpass API 0.7.62.8 e802775f", "osm3s": {"timestamp_osm_base": "2025-12-06T16:52:40Z", "copyright": "The data included in this document is from www.openstreetmap.org. The data is made available under ODbL."}, "elements": [{"type": "node", "id": 1582177824, "lat": 47.5832658, "lon": -122.231954}, {"type": "node", "id": 1582177825, "lat": 47.5832665, "lon": -122.2321556}, {"type": "node", "id": 1582177874, "lat": 47.5833782, "lon": -122.2320078}, {"type": "node", "id": 1582177877, "lat": 47.5833797, "lon": -122.2319571}, {"type": "node", "id": 1582177878, "lat": 47.5833804, "lon": -122.2321429}, {"type": "node", "id": 1582177879, "lat": 47.5833818, "lon": -122.2321556}, {"type": "node", "id": 1582177890, "lat": 47.5834402, "lon": -122.2320078}, {"type": "node", "id": 1582177891, "lat": 47.5834416, "lon": -122.2320279}, {"type": "node", "id": 1582177902, "lat": 47.5834608, "lon": -122.2319983}, {"type": "node", "id": 1582177903, "lat": 47.5834615, "lon": -122.2320279}, {"type": "node", "id": 1582177947, "lat": 47.5835469, "lon": -122.2319983}, {"type": "node", "id": 1582177958, "lat": 47.5835726, "lon": -122.2320352}, {"type": "node", "id": 1582177959, "lat": 47.5835733, "lon": -122.2321387}, {"type": "node", "id": 5092313466, "lat": 47.5849263, "lon": -122.2348086, "tags": {"leisure": "fitness_centre", "name": "MI Crossfit"}}, {"type": "node", "id": 10160503795, "lat": 47.5833683, "lon": -122.233831, "tags": {"addr:housenumber": "3011", "addr:street": "78th Avenue Southeast", "addr:unit": "140", "leisure": "fitness_centre", "name": "1-on-1 Fitness", "phone": "+1-206-275-1313", "website": "https://1on1fitnesswa.com/"}}, {"type": "node", "id": 10926531905, "lat": 47.5856509, "lon": -122.2325652, "tags": {"addr:city": "Mercer Island", "addr:housenumber": "7858", "addr:postcode": "98040", "addr:state": "WA", "addr:street": "Southeast 28th Street", "addr:unit": "105", "email": "MercerIsland@zultimate.com", "leisure": "fitness_centre", "name": "Z-Ultimate Self Defense Studios", "phone": "+1-206-232-2723", "sport": "martial_arts", "website": "https://zultimate.com/locations/mercer-island/"}}, {"type": "way", "id": 144684939, "nodes": [1582177959, 1582177878, 1582177879, 1582177825, 1582177824, 1582177877, 1582177874, 1582177890, 1582177891, 1582177903, 1582177902, 1582177947, 1582177958, 1582177959], "tags": {"addr:city": "Mercer Island", "addr:housenumber": "303", "addr:postcode": "98040", "addr:state": "WA", "addr:street": "80th Avenue Southeast", "building": "retail", "building:levels": "2", "email": "mercerislandpilates@gmail.com", "leisure": "fitness_centre", "name": "Mercer Island Pilates", "phone": "+1-206-920-0611", "source": "bing", "sport": "pilates", "website": "https://mercerislandpilates.com"}}]}