{"version": 0.6, "generator": "Overpass API 0.7.62.8 e802775f", "osm3s": {"timestamp_osm_base": "2025-12-06T17:25:15Z", "copyright": "The data included in this document is from www.openstreetmap.org. The data is made available under ODbL."}, "elements": [{"type": "node", "id": 7089693671, "lat": 46.5573678, "lon": -120.4757423}, {"type": "node", "id": 9498666150, "lat": 46.557826, "lon": -120.4759306}, {"type": "node", "id": 9498666171, "lat": 46.5573782, "lon": -120.4763883}, {"type": "node", "id": 9498666505, "lat": 46.5578671, "lon": -120.4763717}, {"type": "node", "id": 9498666727, "lat": 46.5577693, "lon": -120.4757287}, {"type": "node", "id": 9498667711, "lat": 46.5577717, "lon": -120.4758759}, {"type": "node", "id": 9498667925, "lat": 46.5578599, "lon": -120.4759294}, {"type": "node", "id": 9498668095, "lat": 46.557825, "lon": -120.4758741}, {"type": "way", "id": 1030435980, "nodes": [9498666727, 9498667711, 9498668095, 9498666150, 9498667925, 9498666505, 9498666171, 7089693671, 9498666727], "tags": {"addr:city": "Union Gap", "addr:housenumber": "3008", "addr:postcode": "98903", "addr:state": "WA", "addr:street": "Main Street", "addr:unit": "150", "building": "yes", "climbing": "bouldering", "leisure": "fitness_centre", "name": "Conquer Athletics", "source": "microsoft/BuildingFootprints", "sport": "fitness;exercise"}}]}