{"version": 0.6, "generator": "Overpass API 0.7.62.8 e802775f", "osm3s": {"timestamp_osm_base": "2025-11-29T23:45:53Z", "copyright": "The data included in this document is from www.openstreetmap.org. The data is made available under ODbL."}, "elements": [{"type": "node", "id": 9209114057, "lat": 35.5680827, "lon": -92.297972}, {"type": "node", "id": 9209114058, "lat": 35.5679794, "lon": -92.2979891}, {"type": "node", "id": 9209114059, "lat": 35.5679859, "lon": -92.2980484}, {"type": "node", "id": 9209114060, "lat": 35.5676924, "lon": -92.2980972}, {"type": "node", "id": 9209114061, "lat": 35.5676574, "lon": -92.2977791}, {"type": "node", "id": 9209114062, "lat": 35.5679524, "lon": -92.2977302}, {"type": "node", "id": 9209114063, "lat": 35.5679651, "lon": -92.2978464}, {"type": "node", "id": 9209114064, "lat": 35.568067, "lon": -92.2978294}, {"type": "way", "id": 997342217, "nodes": [9209114057, 9209114058, 9209114059, 9209114060, 9209114061, 9209114062, 9209114063, 9209114064, 9209114057], "tags": {"addr:city": "Shirley", "addr:housenumber": "4350", "addr:postcode": "72153", "addr:state": "AR", "addr:street": "Highway 330 S", "building": "yes", "name": "Fairfield Bay Marina"}}]}