{"version": 0.6, "generator": "Overpass API 0.7.62.8 e802775f", "osm3s": {"timestamp_osm_base": "2025-12-13T01:03:48Z", "copyright": "The data included in this document is from www.openstreetmap.org. The data is made available under ODbL."}, "elements": [{"type": "node", "id": 6980911707, "lat": 40.6839009, "lon": -102.1680204}, {"type": "node", "id": 6980911708, "lat": 40.6837706, "lon": -102.1680222}, {"type": "node", "id": 6980911709, "lat": 40.6837679, "lon": -102.1676849}, {"type": "node", "id": 6980911710, "lat": 40.6838982, "lon": -102.167683}, {"type": "node", "id": 6991343031, "lat": 40.681857, "lon": -102.1663761}, {"type": "node", "id": 6991343032, "lat": 40.6817101, "lon": -102.1663787}, {"type": "node", "id": 6991343033, "lat": 40.6817094, "lon": -102.1663099}, {"type": "node", "id": 6991343034, "lat": 40.6818563, "lon": -102.1663073}, {"type": "way", "id": 745898179, "nodes": [6980911707, 6980911708, 6980911709, 6980911710, 6980911707], "tags": {"addr:city": "Amherst", "addr:housenumber": "300", "addr:postcode": "80721", "addr:state": "CO", "addr:street": "Monmouth Avenue", "amenity": "place_of_worship", "building": "yes", "denomination": "lutheran", "religion": "christian"}}, {"type": "way", "id": 747177532, "nodes": [6991343031, 6991343032, 6991343033, 6991343034, 6991343031], "tags": {"addr:city": "Amherst", "addr:housenumber": "520", "addr:postcode": "80721", "addr:state": "CO", "addr:street": "Main Avenue", "amenity": "post_office", "building": "yes", "name": "Amherst Post Office", "opening_hours": "Mo-Fr 10:30-12:30; Sa 08:00-11:00", "operator": "United States Postal Service", "operator:short": "USPS", "operator:type": "public", "operator:website": "https://www.usps.com", "operator:wikidata": "Q668687", "operator:wikipedia": "en:United States Postal Service", "short_name": "USPS"}}]}