{"version": 0.6, "generator": "Overpass API 0.7.62.8 e802775f", "osm3s": {"timestamp_osm_base": "2025-11-03T20:02:59Z", "copyright": "The data included in this document is from www.openstreetmap.org. The data is made available under ODbL."}, "elements": [{"type": "node", "id": 353882261, "lat": 44.5407625, "lon": -90.0339579}, {"type": "node", "id": 10012540166, "lat": 44.5416449, "lon": -90.0338893}, {"type": "node", "id": 10012540167, "lat": 44.5416266, "lon": -90.0326533}, {"type": "node", "id": 10012540168, "lat": 44.541726, "lon": -90.032634}, {"type": "node", "id": 10012540169, "lat": 44.5417, "lon": -90.0322842}, {"type": "node", "id": 10012540170, "lat": 44.5415639, "lon": -90.0319624}, {"type": "node", "id": 10012540171, "lat": 44.5413757, "lon": -90.0317156}, {"type": "node", "id": 10012540172, "lat": 44.5411448, "lon": -90.0315997}, {"type": "node", "id": 10012540173, "lat": 44.5408879, "lon": -90.0315912}, {"type": "node", "id": 10012540174, "lat": 44.5409047, "lon": -90.0327005}, {"type": "node", "id": 10012540175, "lat": 44.5407823, "lon": -90.0327027}, {"type": "way", "id": 1093277320, "nodes": [353882261, 10012540166, 10012540167, 10012540168, 10012540169, 10012540170, 10012540171, 10012540172, 10012540173, 10012540174, 10012540175, 353882261], "tags": {"addr:city": "Arpin", "addr:housenumber": "6252", "addr:postcode": "54410", "addr:state": "WI", "addr:street": "County Highway N", "ele": "350", "gnis:feature_id": "1567340", "leisure": "park", "name": "Kandy Kane Park", "opening_hours": "06:00-22:00"}}]}