{"version": 0.6, "generator": "Overpass API 0.7.62.8 e802775f", "osm3s": {"timestamp_osm_base": "2025-10-31T08:23:34Z", "copyright": "The data included in this document is from www.openstreetmap.org. The data is made available under ODbL."}, "elements": [{"type": "node", "id": 1496795342, "lat": 37.9104627, "lon": -111.4227926, "tags": {"access": "yes", "addr:city": "Boulder", "addr:housenumber": "460", "addr:postcode": "84716", "addr:state": "UT", "addr:street": "Utah Highway 12", "archaeological_site": "ruins", "historic:civilization": "ancestral_puebloan", "inscription": "_Open Mo-Su 9_a.m. to 5 p.m.", "leisure": "park", "name": "Coombs Site", "opening_hours": "Mo-Su 9 a.m. to 5 p.m.", "operator": "Utah State Parks", "operator:type": "public", "operator:wikidata": "Q109292618", "phone": "1-435-335-7308"}}, {"type": "node", "id": 5226571693, "lat": 37.9075845, "lon": -111.4221474}, {"type": "node", "id": 5226571694, "lat": 37.9072418, "lon": -111.4221484}, {"type": "node", "id": 5226571695, "lat": 37.9072407, "lon": -111.4215226}, {"type": "node", "id": 5226571696, "lat": 37.9075834, "lon": -111.4215216}, {"type": "node", "id": 5519545816, "lat": 37.9110248, "lon": -111.4235455}, {"type": "node", "id": 5519545817, "lat": 37.9107113, "lon": -111.4235314}, {"type": "node", "id": 5519545818, "lat": 37.9107065, "lon": -111.4237017}, {"type": "node", "id": 5519545819, "lat": 37.910827, "lon": -111.4237071}, {"type": "node", "id": 5519545820, "lat": 37.9108333, "lon": -111.4237286}, {"type": "node", "id": 5519545921, "lat": 37.9109494, "lon": -111.4237338}, {"type": "node", "id": 5519545922, "lat": 37.9109502, "lon": -111.4237054}, {"type": "node", "id": 5519545923, "lat": 37.9110202, "lon": -111.4237086}, {"type": "way", "id": 540204268, "nodes": [5226571693, 5226571694, 5226571695, 5226571696, 5226571693], "tags": {"leisure": "park"}}, {"type": "way", "id": 575157353, "nodes": [5519545816, 5519545817, 5519545818, 5519545819, 5519545820, 5519545921, 5519545922, 5519545923, 5519545816], "tags": {"addr:city": "Boulder", "addr:housenumber": "460", "addr:postcode": "84716", "addr:state": "UT", "addr:street": "Utah State Highway 12", "leisure": "park", "name": "Anasazi State Park Museum", "opening_hours": "Mo-Su 9 a.m. to 5 p.m.", "operator": "Utah State Parks", "operator:type": "public", "operator:wikidata": "Q109292618", "phone": "1-435-335-7308", "website": "https://stateparks.utah.gov/parks/anasazi/"}}]}