{"version": 0.6, "generator": "Overpass API 0.7.62.8 e802775f", "osm3s": {"timestamp_osm_base": "2025-11-09T00:41:40Z", "copyright": "The data included in this document is from www.openstreetmap.org. The data is made available under ODbL."}, "elements": [{"type": "node", "id": 374332422, "lat": 35.5177405, "lon": -83.0937686}, {"type": "node", "id": 374332439, "lat": 35.5169645, "lon": -83.0936846}, {"type": "node", "id": 374332470, "lat": 35.5170528, "lon": -83.0946353}, {"type": "node", "id": 374332499, "lat": 35.5177904, "lon": -83.0946149}, {"type": "node", "id": 2623944279, "lat": 35.5622907, "lon": -83.0903495, "tags": {"leisure": "sports_centre", "name": "Cataloochee Ski Area"}}, {"type": "node", "id": 5521722362, "lat": 35.5590734, "lon": -83.02257}, {"type": "node", "id": 5521722363, "lat": 35.5590691, "lon": -83.0223501}, {"type": "node", "id": 5521722364, "lat": 35.5581613, "lon": -83.0224306}, {"type": "node", "id": 5521722365, "lat": 35.5581482, "lon": -83.022629}, {"type": "node", "id": 5521722366, "lat": 35.5584232, "lon": -83.0226129}, {"type": "node", "id": 5521722367, "lat": 35.5588334, "lon": -83.0225969}, {"type": "node", "id": 5521722368, "lat": 35.5590408, "lon": -83.0226372}, {"type": "node", "id": 8622569664, "lat": 35.518029, "lon": -83.090112}, {"type": "node", "id": 8622569665, "lat": 35.518059, "lon": -83.090467}, {"type": "node", "id": 8622569666, "lat": 35.517936, "lon": -83.090483}, {"type": "node", "id": 8622569667, "lat": 35.517929, "lon": -83.090395}, {"type": "node", "id": 8622569668, "lat": 35.517726, "lon": -83.090421}, {"type": "node", "id": 8622569669, "lat": 35.517703, "lon": -83.090153}, {"type": "way", "id": 33138861, "nodes": [374332422, 374332439, 374332470, 374332499, 374332422], "tags": {"access": "yes", "leisure": "park", "name": "Maggie Valley Playground", "ownership": "municipal", "source": "NCOnemap"}}, {"type": "way", "id": 575441351, "nodes": [5521722362, 5521722363, 5521722364, 5521722365, 5521722366, 5521722367, 5521722368, 5521722362], "tags": {"description": "Dog walking area, wooded", "leisure": "park", "name": "Dog walking"}}, {"type": "way", "id": 929794754, "nodes": [8622569664, 8622569665, 8622569666, 8622569667, 8622569668, 8622569669, 8622569664], "tags": {"addr:city": "Maggie Valley", "addr:housenumber": "3732", "addr:postcode": "28751", "addr:state": "NC", "addr:street": "Soco Road", "leisure": "park", "name": "Elevated Creek Park", "source": "microsoft/BuildingFootprints"}}]}