{"version": 0.6, "generator": "Overpass API 0.7.62.8 e802775f", "osm3s": {"timestamp_osm_base": "2025-12-06T20:44:15Z", "copyright": "The data included in this document is from www.openstreetmap.org. The data is made available under ODbL."}, "elements": [{"type": "node", "id": 2314646417, "lat": 48.1165004, "lon": -122.753518}, {"type": "node", "id": 2314646418, "lat": 48.1162478, "lon": -122.7533143}, {"type": "node", "id": 2314646419, "lat": 48.116292, "lon": -122.7532097}, {"type": "node", "id": 2314646420, "lat": 48.1163766, "lon": -122.75329}, {"type": "node", "id": 2314646421, "lat": 48.1164463, "lon": -122.7531253}, {"type": "node", "id": 2314646423, "lat": 48.1165335, "lon": -122.7531563}, {"type": "node", "id": 2314646424, "lat": 48.1166191, "lon": -122.7532376}, {"type": "node", "id": 5991752794, "lat": 48.1095789, "lon": -122.7709985, "tags": {"addr:city": "Port Townsend", "addr:housenumber": "2211", "addr:postcode": "98368", "addr:state": "WA", "addr:street": "East Sims Way", "description": "Hot Yoga", "leisure": "fitness_centre", "name": "Mystic Monkey Yoga", "sport": "yoga"}}, {"type": "node", "id": 9473275426, "lat": 48.1165178, "lon": -122.7531932}, {"type": "node", "id": 12653962012, "lat": 48.1164185, "lon": -122.7534402}, {"type": "node", "id": 12653962013, "lat": 48.116412, "lon": -122.7534556}, {"type": "node", "id": 12653962014, "lat": 48.1163399, "lon": -122.7534017}, {"type": "node", "id": 12653962015, "lat": 48.1163443, "lon": -122.7533913}, {"type": "way", "id": 222501765, "nodes": [2314646417, 12653962012, 12653962013, 12653962015, 12653962014, 2314646418, 2314646419, 2314646420, 2314646421, 9473275426, 2314646423, 2314646424, 2314646417], "tags": {"addr:city": "Port Townsend", "addr:country": "US", "addr:county": "Jefferson", "addr:housenumber": "229", "addr:postcode": "98368", "addr:state": "WA", "addr:street": "Monroe Street", "building": "yes", "leisure": "fitness_centre", "name": "Port Townsend Athletic Club", "phone": "+1-360-385-6560", "source": "Jefferson County Washington Open Data Site"}}]}