{"version": 0.6, "generator": "Overpass API 0.7.62.8 e802775f", "osm3s": {"timestamp_osm_base": "2025-12-06T16:52:40Z", "copyright": "The data included in this document is from www.openstreetmap.org. The data is made available under ODbL."}, "elements": [{"type": "node", "id": 5092313466, "lat": 47.5849263, "lon": -122.2348086, "tags": {"leisure": "fitness_centre", "name": "MI Crossfit"}}, {"type": "node", "id": 5755213364, "lat": 47.5868413, "lon": -122.2339073, "tags": {"leisure": "fitness_centre", "name": "MI Athletic Club", "opening_hours": "Mo-Fr 05:30-20:30; Sa,Su 07:00-17:00"}}, {"type": "node", "id": 5755271084, "lat": 47.5870928, "lon": -122.2348318, "tags": {"leisure": "fitness_centre", "name": "Mercer Island Martial Arts", "sport": "martial_arts"}}, {"type": "node", "id": 10926531905, "lat": 47.5856509, "lon": -122.2325652, "tags": {"addr:city": "Mercer Island", "addr:housenumber": "7858", "addr:postcode": "98040", "addr:state": "WA", "addr:street": "Southeast 28th Street", "addr:unit": "105", "email": "MercerIsland@zultimate.com", "leisure": "fitness_centre", "name": "Z-Ultimate Self Defense Studios", "phone": "+1-206-232-2723", "sport": "martial_arts", "website": "https://zultimate.com/locations/mercer-island/"}}, {"type": "node", "id": 10926533244, "lat": 47.5859606, "lon": -122.2340596, "tags": {"addr:city": "Mercer Island", "addr:housenumber": "2729", "addr:postcode": "98040", "addr:state": "WA", "addr:street": "78th Avenue Southeast", "leisure": "fitness_centre", "name": "Technique Pilates & Fitness Studio", "phone": "+1-206-234-3182", "sport": "pilates", "website": "https://www.techniquepilatesandfitness.com/"}}, {"type": "node", "id": 10926763172, "lat": 47.5864425, "lon": -122.2354111, "tags": {"addr:city": "Mercer Island", "addr:housenumber": "7687", "addr:postcode": "98040", "addr:state": "WA", "addr:street": "Southeast 27th Street", "email": "hello@corehavn.com", "leisure": "fitness_centre", "name": "Core Havn", "phone": "+1-206-708-6495", "sport": "pilates", "website": "https://www.corehavn.com/"}}, {"type": "node", "id": 10926763174, "lat": 47.5870495, "lon": -122.2379852, "tags": {"addr:city": "Mercer Island", "addr:housenumber": "2601", "addr:postcode": "98040", "addr:state": "WA", "addr:street": "76th Avenue Southeast", "addr:unit": "104", "check_date": "2025-04-18", "email": "mercerisland@yogasix.com", "leisure": "fitness_centre", "name": "YogaSix", "phone": "+1-206-519-5617", "sport": "yoga", "website": "https://www.yogasix.com/location/mercer-island"}}, {"type": "node", "id": 10926763175, "lat": 47.5871251, "lon": -122.2379872, "tags": {"addr:city": "Mercer Island", "addr:housenumber": "2601", "addr:postcode": "98040", "addr:state": "WA", "addr:street": "76th Avenue Southeast", "addr:unit": "103", "brand": "Club Pilates", "brand:wikidata": "Q109328844", "check_date": "2025-04-18", "email": "mercerisland@clubpilates.com", "leisure": "fitness_centre", "name": "Club Pilates", "phone": "+1-206-656-0880", "sport": "pilates", "website": "https://www.clubpilates.com/location/mercerisland"}}, {"type": "node", "id": 10926763176, "lat": 47.5871886, "lon": -122.2379813, "tags": {"addr:city": "Mercer Island", "addr:housenumber": "2601", "addr:postcode": "98040", "addr:state": "WA", "addr:street": "76th Avenue Southeast", "brand": "Orangetheory Fitness", "brand:wikidata": "Q25005163", "check_date": "2025-04-18", "leisure": "fitness_centre", "name": "Orangetheory Fitness", "not:brand:wikidata": "Q25005163", "phone": "+1-425-278-5709", "ref": "2078", "website": "https://www.orangetheory.com/en-us/locations/washington/mercer-island/2601-76th-ave-se"}}, {"type": "node", "id": 10926763177, "lat": 47.5873846, "lon": -122.2374097, "tags": {"addr:city": "Mercer Island", "addr:housenumber": "2558", "addr:postcode": "98040", "addr:state": "WA", "addr:street": "76th Avenue Southeast", "email": "jason@212health.com", "leisure": "fitness_centre", "name": "212 Health & Fitness LLC", "phone": "+1-206-854-4922", "sport": "fitness", "website": "https://www.212health.com/"}}, {"type": "node", "id": 10926763178, "lat": 47.5877986, "lon": -122.2373851, "tags": {"addr:city": "Mercer Island", "addr:housenumber": "2448", "addr:postcode": "98040", "addr:state": "WA", "addr:street": "76th Avenue Southeast", "addr:unit": "Suite 100", "email": "info@seattlegolffitness.com", "leisure": "fitness_centre", "name": "Seattle Golf Fitness", "phone": "+1-425-354-3325", "sport": "golf;fitness", "website": "https://www.seattlegolffitness.com/"}}]}