{"version": 0.6, "generator": "Overpass API 0.7.62.8 e802775f", "osm3s": {"timestamp_osm_base": "2025-12-06T20:29:56Z", "copyright": "The data included in this document is from www.openstreetmap.org. The data is made available under ODbL."}, "elements": [{"type": "node", "id": 5631790876, "lat": 47.2361585, "lon": -122.5348211}, {"type": "node", "id": 5631790877, "lat": 47.2358735, "lon": -122.5348248}, {"type": "node", "id": 5631790878, "lat": 47.2358723, "lon": -122.5346255}, {"type": "node", "id": 5631790879, "lat": 47.2361573, "lon": -122.5346217}, {"type": "node", "id": 5893935875, "lat": 47.2340682, "lon": -122.5303386}, {"type": "node", "id": 5893935876, "lat": 47.233566, "lon": -122.5303263}, {"type": "node", "id": 5893935877, "lat": 47.2335715, "lon": -122.5298338}, {"type": "node", "id": 5893935878, "lat": 47.2337631, "lon": -122.5298385}, {"type": "node", "id": 5893935879, "lat": 47.2337645, "lon": -122.5297194}, {"type": "node", "id": 5893935880, "lat": 47.233882, "lon": -122.5297223}, {"type": "node", "id": 5893935881, "lat": 47.2338806, "lon": -122.5298474}, {"type": "node", "id": 5893935882, "lat": 47.2340737, "lon": -122.5298521}, {"type": "node", "id": 5895169151, "lat": 47.2357143, "lon": -122.5270117, "tags": {"leisure": "fitness_centre", "name": "Source Yoga", "sport": "yoga"}}, {"type": "node", "id": 5895169175, "lat": 47.2418964, "lon": -122.5271594, "tags": {"addr:city": "Tacoma", "addr:postcode": "98466", "addr:state": "WA", "brand": "Planet Fitness", "brand:wikidata": "Q7201095", "leisure": "fitness_centre", "name": "Planet Fitness"}}, {"type": "way", "id": 589763625, "nodes": [5631790876, 5631790877, 5631790878, 5631790879, 5631790876], "tags": {"building": "yes", "leisure": "fitness_centre", "name": "University Place Crossfit"}}, {"type": "way", "id": 624164664, "nodes": [5893935875, 5893935876, 5893935877, 5893935878, 5893935879, 5893935880, 5893935881, 5893935882, 5893935875], "tags": {"building": "yes", "leisure": "fitness_centre", "name": "Saline Sports Center"}}]}