{"version": 0.6, "generator": "Overpass API 0.7.62.8 e802775f", "osm3s": {"timestamp_osm_base": "2025-12-06T19:54:08Z", "copyright": "The data included in this document is from www.openstreetmap.org. The data is made available under ODbL."}, "elements": [{"type": "node", "id": 1282027867, "lat": 47.7337139, "lon": -122.310839}, {"type": "node", "id": 1282027964, "lat": 47.7337155, "lon": -122.3104934}, {"type": "node", "id": 1282028021, "lat": 47.733838, "lon": -122.3108402}, {"type": "node", "id": 1733457165, "lat": 47.7338395, "lon": -122.3104946}, {"type": "node", "id": 2286321860, "lat": 47.7220521, "lon": -122.3464406, "tags": {"addr:city": "Seattle", "addr:housenumber": "927", "addr:postcode": "98133", "addr:street": "North 128th Street", "check_date": "2024-07-03", "leisure": "sports_hall", "name": "Hoop Land", "source": "King County GIS;data.seattle.gov", "sport": "basketball", "website": "https://hooplandwa.com/"}}, {"type": "node", "id": 2296607259, "lat": 47.7260575, "lon": -122.3434536}, {"type": "node", "id": 2296607260, "lat": 47.7260617, "lon": -122.3427294}, {"type": "node", "id": 2296607263, "lat": 47.7260737, "lon": -122.3435328}, {"type": "node", "id": 2296607264, "lat": 47.7260784, "lon": -122.3435764}, {"type": "node", "id": 2296607267, "lat": 47.7260808, "lon": -122.3434899}, {"type": "node", "id": 2296607268, "lat": 47.7260942, "lon": -122.3436137}, {"type": "node", "id": 2296607269, "lat": 47.7261186, "lon": -122.3436389}, {"type": "node", "id": 2296607270, "lat": 47.7260986, "lon": -122.3434547}, {"type": "node", "id": 2296607271, "lat": 47.7261476, "lon": -122.3436478}, {"type": "node", "id": 2296607274, "lat": 47.7261768, "lon": -122.3436392}, {"type": "node", "id": 2296607275, "lat": 47.7262013, "lon": -122.3436143}, {"type": "node", "id": 2296607278, "lat": 47.7262173, "lon": -122.3435771}, {"type": "node", "id": 2296607281, "lat": 47.7262224, "lon": -122.343613}, {"type": "node", "id": 2296607282, "lat": 47.7262226, "lon": -122.343576}, {"type": "node", "id": 2296607343, "lat": 47.7265628, "lon": -122.3436174}, {"type": "node", "id": 2296607344, "lat": 47.7265679, "lon": -122.3427359}, {"type": "node", "id": 3953174328, "lat": 47.7259758, "lon": -122.3467169, "tags": {"brand": "Planet Fitness", "brand:wikidata": "Q7201095", "check_date": "2024-10-20", "leisure": "fitness_centre", "name": "Planet Fitness"}}, {"type": "way", "id": 112887294, "nodes": [1733457165, 1282027964, 1282027867, 1282028021, 1733457165], "tags": {"addr:city": "Seattle", "addr:housenumber": "1557", "addr:postcode": "98155", "addr:street": "Northeast 145th Street", "building": "yes", "leisure": "fitness_centre", "name": "MKG Fitness", "opening_hours": "\"varies by class schedule\"", "phone": "+1-206-789-2411", "sport": "fitness;crossfit;martial_arts", "website": "https://www.mkgseattle.com/"}}, {"type": "way", "id": 220550037, "nodes": [2296607270, 2296607267, 2296607263, 2296607264, 2296607268, 2296607269, 2296607271, 2296607274, 2296607275, 2296607278, 2296607282, 2296607281, 2296607343, 2296607344, 2296607260, 2296607259, 2296607270], "tags": {"addr:city": "Seattle", "addr:housenumber": "13244", "addr:postcode": "98133", "addr:street": "Aurora Avenue North", "brand": "LA Fitness", "brand:wikidata": "Q6457180", "building": "yes", "check_date": "2023-12-20", "leisure": "fitness_centre", "name": "LA Fitness", "source": "King County GIS;data.seattle.gov"}}]}