{"version": 0.6, "generator": "Overpass API 0.7.62.8 e802775f", "osm3s": {"timestamp_osm_base": "2025-12-06T04:21:20Z", "copyright": "The data included in this document is from www.openstreetmap.org. The data is made available under ODbL."}, "elements": [{"type": "node", "id": 4523170131, "lat": 45.6700196, "lon": -110.547281}, {"type": "node", "id": 4523170132, "lat": 45.6698509, "lon": -110.5475894}, {"type": "node", "id": 4523170133, "lat": 45.6699791, "lon": -110.547733}, {"type": "node", "id": 4523170134, "lat": 45.6701478, "lon": -110.5474245}, {"type": "node", "id": 4523170312, "lat": 45.6682087, "lon": -110.5499174}, {"type": "node", "id": 4523170313, "lat": 45.6681129, "lon": -110.5501013}, {"type": "node", "id": 4523170314, "lat": 45.6680012, "lon": -110.5499822}, {"type": "node", "id": 4523170315, "lat": 45.667924, "lon": -110.5501306}, {"type": "node", "id": 4523170316, "lat": 45.6679523, "lon": -110.5501608}, {"type": "node", "id": 4523170317, "lat": 45.6679363, "lon": -110.5501916}, {"type": "node", "id": 4523170318, "lat": 45.6679505, "lon": -110.5502068}, {"type": "node", "id": 4523170319, "lat": 45.6679015, "lon": -110.550301}, {"type": "node", "id": 4523170320, "lat": 45.6680394, "lon": -110.5504481}, {"type": "node", "id": 4523170321, "lat": 45.6682775, "lon": -110.5499907}, {"type": "node", "id": 4523170322, "lat": 45.6692502, "lon": -110.5480662}, {"type": "node", "id": 4523170323, "lat": 45.6690572, "lon": -110.5478516}, {"type": "node", "id": 4523170324, "lat": 45.6691416, "lon": -110.5476961}, {"type": "node", "id": 4523170325, "lat": 45.6693346, "lon": -110.5479107}, {"type": "node", "id": 4523170326, "lat": 45.6694254, "lon": -110.5473448}, {"type": "node", "id": 4523170327, "lat": 45.6692605, "lon": -110.5476532}, {"type": "node", "id": 4523170328, "lat": 45.6693927, "lon": -110.547798}, {"type": "node", "id": 4523170329, "lat": 45.6695577, "lon": -110.5474896}, {"type": "node", "id": 6005642852, "lat": 45.6679904, "lon": -110.5494347, "tags": {"amenity": "restaurant", "capacity": "50", "cuisine": "sushi", "name": "Neptune's Brewery", "outdoor_seating": "yes", "wheelchair": "yes"}}, {"type": "way", "id": 455950063, "nodes": [4523170134, 4523170131, 4523170132, 4523170133, 4523170134], "tags": {"addr:city": "Livingston", "addr:housenumber": "1305", "addr:postcode": "59047", "addr:state": "MT", "addr:street": "East Park Street", "building": "retail", "name": "Guy's Glass & Windows", "shop": "yes"}}, {"type": "way", "id": 455950089, "nodes": [4523170321, 4523170320, 4523170319, 4523170318, 4523170317, 4523170316, 4523170315, 4523170314, 4523170313, 4523170312, 4523170321], "tags": {"building": "commercial", "name": "Chappelle's Body Shop", "shop": "car_repair"}}, {"type": "way", "id": 455950092, "nodes": [4523170325, 4523170324, 4523170323, 4523170322, 4523170325], "tags": {"addr:city": "Livingston", "addr:housenumber": "1210", "addr:postcode": "59047", "addr:state": "MT", "addr:street": "East Park Street", "building": "yes", "name": "Napa Auto Parts", "shop": "car_parts"}}, {"type": "way", "id": 455950093, "nodes": [4523170329, 4523170326, 4523170327, 4523170328, 4523170329], "tags": {"addr:city": "Livingston", "addr:housenumber": "1222", "addr:postcode": "59047", "addr:state": "MT", "addr:street": "East Park Street", "building": "yes", "name": "Tire Rama", "shop": "car_repair"}}]}