{"version": 0.6, "generator": "Overpass API 0.7.62.8 e802775f", "osm3s": {"timestamp_osm_base": "2025-12-13T01:31:18Z", "copyright": "The data included in this document is from www.openstreetmap.org. The data is made available under ODbL."}, "elements": [{"type": "node", "id": 4578885465, "lat": 39.615227, "lon": -102.5930372}, {"type": "node", "id": 4578885466, "lat": 39.615008, "lon": -102.5930265}, {"type": "node", "id": 4578885467, "lat": 39.6150204, "lon": -102.5927422}, {"type": "node", "id": 4578885468, "lat": 39.6151857, "lon": -102.5927636}, {"type": "node", "id": 4578895300, "lat": 39.6120971, "lon": -102.592213}, {"type": "node", "id": 4578895301, "lat": 39.612096, "lon": -102.5923632}, {"type": "node", "id": 4578895302, "lat": 39.612218, "lon": -102.5923647}, {"type": "node", "id": 4578895303, "lat": 39.612219, "lon": -102.5922145}, {"type": "node", "id": 4579534599, "lat": 39.6129636, "lon": -102.5926947}, {"type": "node", "id": 4579534600, "lat": 39.6129588, "lon": -102.5927889}, {"type": "node", "id": 4579534602, "lat": 39.6128791, "lon": -102.5926875}, {"type": "node", "id": 4642641392, "lat": 39.6128743, "lon": -102.5927816}, {"type": "way", "id": 462496694, "nodes": [4578885465, 4578885466, 4578885467, 4578885468, 4578885465], "tags": {"addr:city": "kirk", "addr:housenumber": "3157", "addr:postcode": "80824", "addr:state": "CO", "addr:street": "County Road M", "building": "industrial", "description": "A machine factory.", "name": "Hall's Machinery"}}, {"type": "way", "id": 462499328, "nodes": [4578895300, 4578895301, 4578895302, 4578895303, 4578895300], "tags": {"building": "yes"}}, {"type": "way", "id": 462573743, "nodes": [4579534599, 4579534600, 4642641392, 4579534602, 4579534599], "tags": {"building": "apartments"}}]}