{"version": 0.6, "generator": "Overpass API 0.7.62.8 e802775f", "osm3s": {"timestamp_osm_base": "2025-12-06T05:15:53Z", "copyright": "The data included in this document is from www.openstreetmap.org. The data is made available under ODbL."}, "elements": [{"type": "node", "id": 3735100875, "lat": 43.3025147, "lon": -112.1867731, "tags": {"name": "Stop N' Shop Supermarket", "shop": "supermarket"}}, {"type": "node", "id": 3735100883, "lat": 43.303559, "lon": -112.1855929, "tags": {"name": "Hardtimes Quick Stop", "shop": "convenience"}}, {"type": "node", "id": 3735100884, "lat": 43.3037376, "lon": -112.1853342, "tags": {"name": "Hardtimes Quick Stop", "shop": "convenience"}}, {"type": "node", "id": 3735100891, "lat": 43.304535, "lon": -112.1844154, "tags": {"amenity": "restaurant", "cuisine": "sandwich", "name": "Kriznet's Soups & Subs"}}, {"type": "node", "id": 3735100895, "lat": 43.3041983, "lon": -112.1848138, "tags": {"amenity": "bar", "name": "Collets Bar"}}]}