{"version": 0.6, "generator": "Overpass API 0.7.62.8 e802775f", "osm3s": {"timestamp_osm_base": "2025-12-12T18:59:49Z", "copyright": "The data included in this document is from www.openstreetmap.org. The data is made available under ODbL."}, "elements": [{"type": "node", "id": 366395138, "lat": 40.0730241, "lon": -105.5066733, "tags": {"addr:state": "CO", "amenity": "fire_station", "ele": "2780", "gnis:feature_id": "2368653", "name": "Indian Peaks Fire Protection District Station 1"}}, {"type": "node", "id": 952586812, "lat": 40.0728841, "lon": -105.5069108, "tags": {"name": "Jackleggers Mercantile", "shop": "convenience"}}, {"type": "node", "id": 952619170, "lat": 40.0716895, "lon": -105.5082908, "tags": {"amenity": "post_office", "name": "Ward Post Office (80481)"}}, {"type": "node", "id": 1773954140, "lat": 40.0686393, "lon": -105.5043553, "tags": {"amenity": "drinking_water", "source": "Local knowledge"}}, {"type": "node", "id": 3464728355, "lat": 40.0728664, "lon": -105.5082536}, {"type": "node", "id": 3464728356, "lat": 40.0727429, "lon": -105.5081688}, {"type": "node", "id": 3464728357, "lat": 40.0727775, "lon": -105.5080827}, {"type": "node", "id": 3464728358, "lat": 40.0728449, "lon": -105.5081291}, {"type": "node", "id": 3464728359, "lat": 40.0728682, "lon": -105.5081249}, {"type": "node", "id": 3464728360, "lat": 40.0729076, "lon": -105.508151}, {"type": "way", "id": 339284208, "nodes": [3464728355, 3464728356, 3464728357, 3464728358, 3464728359, 3464728360, 3464728355], "tags": {"amenity": "place_of_worship", "building": "yes", "religion": "christian"}}]}