{"version": 0.6, "generator": "Overpass API 0.7.62.8 e802775f", "osm3s": {"timestamp_osm_base": "2025-11-30T01:17:25Z", "copyright": "The data included in this document is from www.openstreetmap.org. The data is made available under ODbL."}, "elements": [{"type": "node", "id": 10830375564, "lat": 32.9886913, "lon": -111.4326591}, {"type": "node", "id": 10830375565, "lat": 32.9886883, "lon": -111.4328426}, {"type": "node", "id": 10830375566, "lat": 32.9888656, "lon": -111.4328467}, {"type": "node", "id": 10830375567, "lat": 32.9888686, "lon": -111.4326632}, {"type": "node", "id": 10830375569, "lat": 32.9888589, "lon": -111.4326629}, {"type": "node", "id": 10830375574, "lat": 32.9887723, "lon": -111.4326609}, {"type": "node", "id": 10830375604, "lat": 33.0026668, "lon": -111.4388085}, {"type": "node", "id": 10830375605, "lat": 33.0026639, "lon": -111.4386591}, {"type": "node", "id": 10830375606, "lat": 33.002562, "lon": -111.438662}, {"type": "node", "id": 10830375607, "lat": 33.002565, "lon": -111.4388114}, {"type": "way", "id": 1164503964, "nodes": [10830375564, 10830375565, 10830375566, 10830375567, 10830375569, 10830375574, 10830375564], "tags": {"addr:city": "Coolidge", "addr:housenumber": "12464", "addr:postcode": "85128", "addr:state": "AZ", "addr:street": "East Vah Ki Inn Road", "building": "yes", "building:levels": "1"}}, {"type": "way", "id": 1164503973, "nodes": [10830375604, 10830375605, 10830375606, 10830375607, 10830375604], "tags": {"building": "yes"}}]}