{"version": 0.6, "generator": "Overpass API 0.7.62.8 e802775f", "osm3s": {"timestamp_osm_base": "2025-11-09T07:28:59Z", "copyright": "The data included in this document is from www.openstreetmap.org. The data is made available under ODbL."}, "elements": [{"type": "node", "id": 4817258320, "lat": 30.19374, "lon": -97.9816993}, {"type": "node", "id": 4817258721, "lat": 30.1929239, "lon": -97.981356}, {"type": "node", "id": 4817258722, "lat": 30.19208, "lon": -97.9805943}, {"type": "node", "id": 4817258723, "lat": 30.1921728, "lon": -97.979178}, {"type": "node", "id": 4817258724, "lat": 30.1943242, "lon": -97.9793497}, {"type": "way", "id": 489489471, "nodes": [4817258320, 4817258721, 4817258722, 4817258723, 4817258724, 4817258320], "tags": {"addr:city": "Austin", "addr:housenumber": "801", "addr:postcode": "78737", "addr:state": "TX", "addr:street": "Belterra Drive", "leisure": "park", "name": "Belterra Recreation Center"}}]}