{"version": 0.6, "generator": "Overpass API 0.7.62.8 e802775f", "osm3s": {"timestamp_osm_base": "2025-12-13T00:25:08Z", "copyright": "The data included in this document is from www.openstreetmap.org. The data is made available under ODbL."}, "elements": [{"type": "node", "id": 2403071883, "lat": 38.8431738, "lon": -104.8209414}, {"type": "node", "id": 2403072275, "lat": 38.843207, "lon": -104.8208303}, {"type": "node", "id": 3112275732, "lat": 38.8432973, "lon": -104.820768}, {"type": "node", "id": 3112275770, "lat": 38.8433041, "lon": -104.820949}, {"type": "node", "id": 3199631849, "lat": 38.8432931, "lon": -104.8207183}, {"type": "node", "id": 3199635066, "lat": 38.8431825, "lon": -104.8209058}, {"type": "node", "id": 3199635133, "lat": 38.8431784, "lon": -104.8208361}, {"type": "node", "id": 3199635151, "lat": 38.8431714, "lon": -104.8208931}, {"type": "node", "id": 3199635172, "lat": 38.8432354, "lon": -104.820745}, {"type": "node", "id": 3199635192, "lat": 38.8432348, "lon": -104.8207224}, {"type": "node", "id": 3199635200, "lat": 38.8431974, "lon": -104.8207458}, {"type": "node", "id": 6044611584, "lat": 38.8717322, "lon": -104.8220895, "tags": {"addr:city": "Colorado Springs", "addr:housenumber": "2727", "addr:postcode": "80907", "addr:state": "CO", "addr:street": "North Cascade Avenue", "addr:unit": "130", "leisure": "fitness_centre", "name": "Flipshack", "phone": "+1-719-578-1006", "sport": "gymnastics;fitness;crossfit", "website": "https://www.flipshack.com"}}, {"type": "node", "id": 7007286504, "lat": 38.8755357, "lon": -104.821548, "tags": {"addr:city": "Colorado Springs", "addr:housenumber": "3020", "addr:postcode": "80907", "addr:state": "CO", "addr:street": "North Nevada Avenue", "brand": "VASA Fitness", "brand:wikidata": "Q108816909", "leisure": "fitness_centre", "name": "VASA Fitness", "phone": "+1-719-302-2273", "website": "https://vasafitness.com/location/colorado-springs-nevada-fillmore"}}, {"type": "node", "id": 11642056005, "lat": 38.8629273, "lon": -104.8097267, "tags": {"leisure": "fitness_centre", "name": "Hot Asana Yoga Studio", "sport": "yoga"}}, {"type": "way", "id": 306347937, "nodes": [2403072275, 3199635200, 3199635172, 3199635192, 3199631849, 3112275732, 3112275770, 2403071883, 3199635066, 3199635151, 3199635133, 2403072275], "tags": {"addr:city": "Colorado Springs", "addr:housenumber": "623", "addr:postcode": "80903", "addr:state": "CO", "addr:street": "North Nevada Avenue", "brand": "CorePower Yoga", "brand:wikidata": "Q21015663", "building": "yes", "leisure": "fitness_centre", "name": "CorePower Yoga", "phone": "+1-719-477-9642", "ref": "5", "source": "Bing", "sport": "yoga", "start_date": "2004", "website": "https://www.corepoweryoga.com/yoga-studio/colorado/nevada"}}]}