{"version": 0.6, "generator": "Overpass API 0.7.62.8 e802775f", "osm3s": {"timestamp_osm_base": "2025-12-06T05:45:42Z", "copyright": "The data included in this document is from www.openstreetmap.org. The data is made available under ODbL."}, "elements": [{"type": "node", "id": 10003288793, "lat": 47.7174555, "lon": -116.8922202, "tags": {"leisure": "fitness_centre", "name": "Warehorse", "sport": "karate"}}, {"type": "node", "id": 10003288803, "lat": 47.7164636, "lon": -116.8922402, "tags": {"addr:city": "Post Falls", "addr:housenumber": "900", "addr:postcode": "83854", "addr:state": "ID", "addr:street": "North Highway 41", "addr:unit": "6", "branch": "Post Falls", "brand": "Anytime Fitness", "brand:wikidata": "Q4778364", "leisure": "fitness_centre", "name": "Anytime Fitness", "phone": "+1 208-773-5900", "ref": "503", "website": "https://www.anytimefitness.com/gyms/503/post-falls-id-83854/"}}, {"type": "node", "id": 10004645102, "lat": 47.726361, "lon": -116.8981456}, {"type": "node", "id": 10004645103, "lat": 47.7263608, "lon": -116.8982781}, {"type": "node", "id": 10004645104, "lat": 47.7265217, "lon": -116.8982787}, {"type": "node", "id": 10004645105, "lat": 47.7265208, "lon": -116.8987699}, {"type": "node", "id": 10004645106, "lat": 47.7263563, "lon": -116.8987692}, {"type": "node", "id": 10004645107, "lat": 47.7263561, "lon": -116.8988788}, {"type": "node", "id": 10004645108, "lat": 47.7261108, "lon": -116.8988777}, {"type": "node", "id": 10004645109, "lat": 47.726111, "lon": -116.8987733}, {"type": "node", "id": 10004645110, "lat": 47.725845, "lon": -116.8987721}, {"type": "node", "id": 10004645111, "lat": 47.7258461, "lon": -116.8982587}, {"type": "node", "id": 10004645112, "lat": 47.7261026, "lon": -116.8982599}, {"type": "node", "id": 10004645113, "lat": 47.7261028, "lon": -116.8981444}, {"type": "node", "id": 10031865236, "lat": 47.7032397, "lon": -116.8659684}, {"type": "node", "id": 10031865237, "lat": 47.7032423, "lon": -116.8662095}, {"type": "node", "id": 10031865238, "lat": 47.7029619, "lon": -116.8662164}, {"type": "node", "id": 10031865239, "lat": 47.7029593, "lon": -116.8659752}, {"type": "node", "id": 11948122286, "lat": 47.7234523, "lon": -116.8964425}, {"type": "node", "id": 11948122287, "lat": 47.7235778, "lon": -116.8964443}, {"type": "node", "id": 11948122288, "lat": 47.7235764, "lon": -116.8966806}, {"type": "node", "id": 11948122289, "lat": 47.7234508, "lon": -116.8966788}, {"type": "way", "id": 1092403085, "nodes": [10004645102, 10004645103, 10004645104, 10004645105, 10004645106, 10004645107, 10004645108, 10004645109, 10004645110, 10004645111, 10004645112, 10004645113, 10004645102], "tags": {"building": "yes", "leisure": "sports_hall", "name": "The Courts at Real Life"}}, {"type": "way", "id": 1095423188, "nodes": [10031865236, 10031865237, 10031865238, 10031865239, 10031865236], "tags": {"building": "yes", "leisure": "fitness_centre", "name": "TruFit"}}, {"type": "way", "id": 1288409821, "nodes": [11948122286, 11948122287, 11948122288, 11948122289, 11948122286], "tags": {"building": "yes", "leisure": "fitness_centre", "name": "North Idaho Bungee Fitness"}}]}