{"version": 0.6, "generator": "Overpass API 0.7.62.8 e802775f", "osm3s": {"timestamp_osm_base": "2025-12-06T05:32:12Z", "copyright": "The data included in this document is from www.openstreetmap.org. The data is made available under ODbL."}, "elements": [{"type": "node", "id": 3744466342, "lat": 43.6953786, "lon": -112.012266}, {"type": "node", "id": 3744466350, "lat": 43.6953607, "lon": -112.0144543}, {"type": "node", "id": 3744466352, "lat": 43.6948125, "lon": -112.0125979}, {"type": "node", "id": 3744466357, "lat": 43.6948292, "lon": -112.0122652}, {"type": "node", "id": 3744466360, "lat": 43.6948126, "lon": -112.0125332}, {"type": "node", "id": 3744466363, "lat": 43.6953784, "lon": -112.0125987}, {"type": "node", "id": 3744466364, "lat": 43.6954595, "lon": -112.0144561}, {"type": "node", "id": 3744466378, "lat": 43.6948292, "lon": -112.0122973}, {"type": "node", "id": 3744466383, "lat": 43.6947858, "lon": -112.0125332}, {"type": "node", "id": 3744466394, "lat": 43.6954615, "lon": -112.0142479}, {"type": "node", "id": 3744466402, "lat": 43.6953627, "lon": -112.0142461}, {"type": "node", "id": 3744466407, "lat": 43.6947852, "lon": -112.0122972}, {"type": "node", "id": 13164245373, "lat": 43.6947681, "lon": -112.0124819}, {"type": "node", "id": 13164245374, "lat": 43.6947682, "lon": -112.0123654}, {"type": "node", "id": 13164245375, "lat": 43.6947858, "lon": -112.012482}, {"type": "node", "id": 13164245376, "lat": 43.6947852, "lon": -112.0123545}, {"type": "node", "id": 13164268405, "lat": 43.6946494, "lon": -112.0119824}, {"type": "node", "id": 13164268406, "lat": 43.6946178, "lon": -112.0119814}, {"type": "node", "id": 13164268407, "lat": 43.694619, "lon": -112.011915}, {"type": "node", "id": 13164268408, "lat": 43.6946506, "lon": -112.0119161}, {"type": "way", "id": 370757689, "nodes": [3744466364, 3744466394, 3744466402, 3744466350, 3744466364], "tags": {"addr:city": "Lewisville", "addr:housenumber": "3444", "addr:postcode": "83431", "addr:state": "ID", "addr:street": "East 480 North", "amenity": "post_office", "building": "yes", "operator": "United States Postal Service", "operator:short": "USPS", "operator:type": "public", "operator:website": "https://www.usps.com", "operator:wikidata": "Q668687", "operator:wikipedia": "en:United States Postal Service"}}, {"type": "way", "id": 370757693, "nodes": [3744466363, 3744466342, 3744466357, 3744466378, 3744466407, 13164245376, 13164245374, 13164245373, 13164245375, 3744466383, 3744466360, 3744466352, 3744466363], "tags": {"addr:city": "Lewisville", "addr:housenumber": "474", "addr:postcode": "83431", "addr:state": "ID", "addr:street": "North 3450 East", "amenity": "place_of_worship", "building": "church", "denomination": "latter-day_saints", "name": "The Church of Jesus Christ of Latter-day Saints", "religion": "christian"}}, {"type": "way", "id": 1432165537, "nodes": [13164268405, 13164268406, 13164268407, 13164268408, 13164268405], "tags": {"building": "shed", "lockable": "yes"}}]}