{"version": 0.6, "generator": "Overpass API 0.7.62.8 e802775f", "osm3s": {"timestamp_osm_base": "2025-12-13T01:30:24Z", "copyright": "The data included in this document is from www.openstreetmap.org. The data is made available under ODbL."}, "elements": [{"type": "node", "id": 2642884017, "lat": 37.2798851, "lon": -104.3781349}, {"type": "node", "id": 2642884018, "lat": 37.2782489, "lon": -104.3809738}, {"type": "node", "id": 2642884019, "lat": 37.2792644, "lon": -104.3804836}, {"type": "node", "id": 2642884020, "lat": 37.2778841, "lon": -104.3777464}, {"type": "node", "id": 2642893757, "lat": 37.2799763, "lon": -104.3782619}, {"type": "node", "id": 2642893800, "lat": 37.2798952, "lon": -104.3795441}, {"type": "node", "id": 13235587777, "lat": 37.2824818, "lon": -104.3795687, "tags": {"amenity": "place_of_worship", "religion": "christian"}}, {"type": "node", "id": 13235587783, "lat": 37.2776453, "lon": -104.3793875}, {"type": "node", "id": 13235587784, "lat": 37.2783191, "lon": -104.3794388}, {"type": "node", "id": 13235587794, "lat": 37.2817101, "lon": -104.3796869}, {"type": "node", "id": 13235587795, "lat": 37.2819826, "lon": -104.3796838}, {"type": "node", "id": 13235587796, "lat": 37.2819816, "lon": -104.3795381}, {"type": "node", "id": 13235587797, "lat": 37.2817091, "lon": -104.3795412}, {"type": "node", "id": 13235587798, "lat": 37.2811868, "lon": -104.3797705}, {"type": "node", "id": 13235587799, "lat": 37.2813628, "lon": -104.3797781}, {"type": "node", "id": 13235587800, "lat": 37.2813691, "lon": -104.3795473}, {"type": "node", "id": 13235587801, "lat": 37.2811932, "lon": -104.3795397}, {"type": "way", "id": 258989410, "nodes": [2642884019, 2642884018, 13235587784, 13235587783, 2642884020, 2642884017, 2642893757, 2642893800, 2642884019], "tags": {"addr:city": "Hoehne", "addr:housenumber": "19851", "addr:postcode": "81082", "addr:state": "CO", "addr:street": "County Road 79", "amenity": "school", "mascot": "Farmers", "name": "Hoehne Junior High School", "website": "https://www.hoehnesd.org/"}}, {"type": "way", "id": 1442480400, "nodes": [13235587794, 13235587795, 13235587796, 13235587797, 13235587794], "tags": {"addr:city": "Hoehne", "addr:postcode": "81082", "addr:state": "CO", "addr:street": "CR 83.7", "amenity": "fire_station", "building": "fire_station", "name": "Hoehne Fire Department"}}, {"type": "way", "id": 1442480401, "nodes": [13235587798, 13235587799, 13235587800, 13235587801, 13235587798], "tags": {"addr:city": "Hoehne", "addr:postcode": "81082", "addr:state": "CO", "addr:street": "CR 40.6", "amenity": "post_office", "building": "yes", "name": "Hoehne Post Office", "operator": "United States Postal Service", "operator:short": "USPS", "operator:type": "public", "operator:wikidata": "Q668687"}}]}