{"version": 0.6, "generator": "Overpass API 0.7.62.8 e802775f", "osm3s": {"timestamp_osm_base": "2025-12-06T04:23:30Z", "copyright": "The data included in this document is from www.openstreetmap.org. The data is made available under ODbL."}, "elements": [{"type": "node", "id": 2030026563, "lat": 47.417057, "lon": -105.5866879}, {"type": "node", "id": 2030026567, "lat": 47.4170987, "lon": -105.5868537}, {"type": "node", "id": 2030026568, "lat": 47.4171109, "lon": -105.5868446}, {"type": "node", "id": 2030026576, "lat": 47.4171409, "lon": -105.586625}, {"type": "node", "id": 2030026578, "lat": 47.4171644, "lon": -105.5870452}, {"type": "node", "id": 2030026579, "lat": 47.4171808, "lon": -105.5867412}, {"type": "node", "id": 2030026582, "lat": 47.417243, "lon": -105.5866696}, {"type": "node", "id": 2030026583, "lat": 47.4172498, "lon": -105.5866894}, {"type": "node", "id": 2030026586, "lat": 47.417326, "lon": -105.586855}, {"type": "node", "id": 2030026588, "lat": 47.4173448, "lon": -105.5869099}, {"type": "node", "id": 2030026591, "lat": 47.4174139, "lon": -105.5865415}, {"type": "node", "id": 2030026595, "lat": 47.4174815, "lon": -105.5867383}, {"type": "node", "id": 2030026683, "lat": 47.4180961, "lon": -105.5864828}, {"type": "node", "id": 2030026706, "lat": 47.4182159, "lon": -105.5868132}, {"type": "node", "id": 2030026729, "lat": 47.4183715, "lon": -105.5862647}, {"type": "node", "id": 2030026731, "lat": 47.4183784, "lon": -105.5863835}, {"type": "node", "id": 2030026737, "lat": 47.4184066, "lon": -105.5863612}, {"type": "node", "id": 2030026741, "lat": 47.4184632, "lon": -105.5866173}, {"type": "node", "id": 3452605591, "lat": 47.4164068, "lon": -105.5876687}, {"type": "node", "id": 3452606236, "lat": 47.4159254, "lon": -105.5882555}, {"type": "node", "id": 3452606265, "lat": 47.4165596, "lon": -105.5875554}, {"type": "node", "id": 3452606269, "lat": 47.4167093, "lon": -105.5879965}, {"type": "node", "id": 3452606275, "lat": 47.4159727, "lon": -105.5883879}, {"type": "node", "id": 3452606319, "lat": 47.4160762, "lon": -105.5883235}, {"type": "node", "id": 3452606335, "lat": 47.4160254, "lon": -105.5881814}, {"type": "node", "id": 3452606399, "lat": 47.4165566, "lon": -105.5881097}, {"type": "node", "id": 4644749021, "lat": 47.4158235, "lon": -105.5883396}, {"type": "node", "id": 4644749022, "lat": 47.41574, "lon": -105.5874008}, {"type": "node", "id": 4644749023, "lat": 47.4155512, "lon": -105.5875403}, {"type": "node", "id": 5004053876, "lat": 47.4174523, "lon": -105.5885294, "tags": {"amenity": "restaurant", "name": "Round Towne"}}, {"type": "node", "id": 6699412786, "lat": 47.4178141, "lon": -105.5887135, "tags": {"addr:street": "Main Street", "brand": "True Value", "brand:wikidata": "Q7847545", "name": "True Value Hardware", "shop": "hardware"}}, {"type": "node", "id": 6699418185, "lat": 47.4175384, "lon": -105.5879907, "tags": {"addr:housenumber": "204", "addr:street": "Main Street", "amenity": "restaurant", "name": "Wooden Nickle"}}, {"type": "node", "id": 10262866918, "lat": 47.4171122, "lon": -105.5880472, "tags": {"amenity": "cafe", "cuisine": "coffee_shop;ice_cream;sandwich", "name": "The Lunchbox", "outdoor_seating": "yes"}}, {"type": "node", "id": 11809110093, "lat": 47.4159551, "lon": -105.5880953, "tags": {"addr:housenumber": "105", "addr:postcode": "59215", "addr:street": "10th Street", "name": "Circle Country Market", "opening_hours": "Mo-Fr 08:00-19:00; Sa 09:00-17:00; Su 10:00-14:00", "phone": "+1 406-485-2680", "shop": "supermarket", "website": "https://circle-country-market.edan.io/"}}, {"type": "node", "id": 11809110094, "lat": 47.4158658, "lon": -105.5878264, "tags": {"amenity": "cafe", "name": "Mini Mall Cafe"}}, {"type": "node", "id": 11809110096, "lat": 47.4162585, "lon": -105.5877658}, {"type": "node", "id": 11809110097, "lat": 47.4161719, "lon": -105.5875168}, {"type": "node", "id": 11809110098, "lat": 47.4163069, "lon": -105.5874143}, {"type": "node", "id": 11809110099, "lat": 47.4163316, "lon": -105.5874851}, {"type": "node", "id": 11809110100, "lat": 47.4164149, "lon": -105.5874463}, {"type": "node", "id": 11809110101, "lat": 47.4164436, "lon": -105.5875287}, {"type": "node", "id": 11809110102, "lat": 47.4163798, "lon": -105.5875771}, {"type": "node", "id": 11809110103, "lat": 47.4164064, "lon": -105.5876535}, {"type": "node", "id": 11809110104, "lat": 47.4163437, "lon": -105.5874759}, {"type": "node", "id": 11809110105, "lat": 47.4163505, "lon": -105.5874953}, {"type": "way", "id": 192448302, "nodes": [2030026578, 2030026588, 2030026586, 2030026595, 2030026591, 2030026582, 2030026583, 2030026579, 2030026576, 2030026563, 2030026568, 2030026567, 2030026578], "tags": {"building": "yes", "building:levels": "1", "name": "McCone Electric", "office": "energy_supplier"}}, {"type": "way", "id": 192448342, "nodes": [2030026706, 2030026741, 2030026731, 2030026737, 2030026729, 2030026683, 2030026706], "tags": {"brand": "John Deere", "brand:wikidata": "Q496302", "building": "yes", "name": "C & B", "old_name": "Rolandson Implement Company", "shop": "trade", "trade": "agricultural_equipment"}}, {"type": "way", "id": 338189498, "nodes": [3452606319, 3452606335, 3452606236, 3452606275, 3452606319], "tags": {"building": "yes", "name": "CMM Mini Store", "shop": "convenience"}}, {"type": "way", "id": 338189503, "nodes": [3452606269, 3452606265, 3452605591, 3452606399, 3452606269], "tags": {"addr:city": "Circle", "addr:postcode": "59215", "addr:state": "MT", "addr:street": "B Avenue", "building": "public", "name": "John Vejtasa", "office": "government"}}, {"type": "way", "id": 470274527, "nodes": [4644749021, 3452606236, 3452606335, 4644749022, 4644749023, 4644749021], "tags": {"building": "commercial", "shop": "mall"}}, {"type": "way", "id": 1271672059, "nodes": [11809110096, 11809110097, 11809110098, 11809110099, 11809110104, 11809110105, 11809110100, 11809110101, 11809110102, 11809110103, 11809110096], "tags": {"addr:city": "Circle", "addr:housenumber": "106", "addr:postcode": "59215", "addr:state": "MT", "addr:street": "10th Street", "building": "government_office", "government": "agriculture", "office": "government"}}]}