{"version": 0.6, "generator": "Overpass API 0.7.62.8 e802775f", "osm3s": {"timestamp_osm_base": "2025-12-12T17:37:06Z", "copyright": "The data included in this document is from www.openstreetmap.org. The data is made available under ODbL."}, "elements": [{"type": "node", "id": 2988989425, "lat": 39.7392784, "lon": -104.827971, "tags": {"addr:housenumber": "13700", "addr:postcode": "80011", "addr:street": "East Colfax Avenue", "brand": "Curves", "brand:wikidata": "Q5196080", "leisure": "fitness_centre", "name": "Curves", "opening_hours": "Mo-Th 05:45-19:00, Fr 05:45-18:00, Sa 08:00-11:00", "phone": "+1-303-343-4122", "source": "knowledge", "sport": "athletics", "website": "https://www.curves.com/"}}, {"type": "node", "id": 6268191905, "lat": 39.7054289, "lon": -104.8273657}, {"type": "node", "id": 6268191906, "lat": 39.7049107, "lon": -104.8276148}, {"type": "node", "id": 6268191907, "lat": 39.7048456, "lon": -104.8274033}, {"type": "node", "id": 6268191908, "lat": 39.7051071, "lon": -104.8272796}, {"type": "node", "id": 6268191909, "lat": 39.7049553, "lon": -104.8267627}, {"type": "node", "id": 6268191910, "lat": 39.7052132, "lon": -104.8266358}, {"type": "node", "id": 6268226461, "lat": 39.7050398, "lon": -104.8267211}, {"type": "node", "id": 6268241622, "lat": 39.7051606, "lon": -104.8274947, "tags": {"entrance": "main"}}, {"type": "node", "id": 6268241708, "lat": 39.7052695, "lon": -104.8274423}, {"type": "node", "id": 9888880956, "lat": 39.7088077, "lon": -104.8279375, "tags": {"leisure": "fitness_centre"}}, {"type": "node", "id": 11206719684, "lat": 39.7065235, "lon": -104.808305, "tags": {"addr:city": "Aurora", "addr:housenumber": "512", "addr:postcode": "80017", "addr:state": "CO", "addr:street": "South Chambers Road", "brand": "24 Hour Fitness", "brand:wikidata": "Q4631849", "leisure": "fitness_centre", "name": "24 Hour Fitness", "opening_hours": "Mo-Su 05:00-23:00", "phone": "+1 303-481-1289", "sport": "fitness;basketball;swimming", "website": "https://www.24hourfitness.com/gyms/aurora-co/north-aurora-chambers-sport"}}, {"type": "node", "id": 11206719685, "lat": 39.7065331, "lon": -104.808621, "tags": {"addr:city": "Aurora", "addr:housenumber": "512", "addr:postcode": "80017", "addr:state": "CO", "addr:street": "South Chambers Road", "addr:unit": "A", "email": "info@cogymnasticsinstitute.com", "leisure": "sports_hall", "name": "Colorado Gymnastics Institute", "phone": "+1 303-363-7272", "sport": "gymnastics", "website": "https://cogymnasticsinstitute.com/"}}, {"type": "node", "id": 11747952582, "lat": 39.7276739, "lon": -104.8229594, "tags": {"leisure": "fitness_centre", "name": "Rhinde Fitness"}}, {"type": "node", "id": 12903427032, "lat": 39.7381074, "lon": -104.8110839, "tags": {"addr:city": "Aurora", "addr:housenumber": "15200", "addr:postcode": "80011", "addr:state": "CO", "addr:street": "E Colfax Avenue", "brand": "VASA Fitness", "brand:wikidata": "Q108816909", "email": "1040@vasafitness.com", "leisure": "fitness_centre", "name": "VASA Fitness", "opening_hours": "Mo-Fr 04:00-12:00; Sa 05:00-20:00; Su 07:00-18:00", "phone": "+1-719-294-6630", "sport": "basketball;pool;swimming;dance;zumba;yoga;fitness;personal_training;hiit", "website": "https://vasa.fitness/4et27aml"}}, {"type": "way", "id": 669372203, "nodes": [6268191905, 6268241708, 6268241622, 6268191906, 6268191907, 6268191908, 6268191909, 6268226461, 6268191910, 6268191905], "tags": {"addr:city": "Aurora", "addr:housenumber": "13801", "addr:postcode": "80012", "addr:state": "CO", "addr:street": "East Exposition Avenue", "building": "yes", "leisure": "fitness_centre", "name": "Prestige Fitness"}}]}