{"version": 0.6, "generator": "Overpass API 0.7.62.8 e802775f", "osm3s": {"timestamp_osm_base": "2025-12-12T23:38:09Z", "copyright": "The data included in this document is from www.openstreetmap.org. The data is made available under ODbL."}, "elements": [{"type": "node", "id": 598053393, "lat": 39.8299651, "lon": -105.0721847}, {"type": "node", "id": 598053394, "lat": 39.8299568, "lon": -105.0756341}, {"type": "node", "id": 598053395, "lat": 39.827415, "lon": -105.0756072}, {"type": "node", "id": 598053396, "lat": 39.8274521, "lon": -105.0721794}, {"type": "node", "id": 598053397, "lat": 39.8291576, "lon": -105.0721767}, {"type": "node", "id": 598053473, "lat": 39.82986, "lon": -105.072681}, {"type": "node", "id": 598053474, "lat": 39.8298641, "lon": -105.0722893}, {"type": "node", "id": 598053475, "lat": 39.829549, "lon": -105.0722893}, {"type": "node", "id": 598053476, "lat": 39.8290196, "lon": -105.0722893}, {"type": "node", "id": 598053477, "lat": 39.8290279, "lon": -105.0726863}, {"type": "node", "id": 3720394272, "lat": 39.8282889, "lon": -105.0724226}, {"type": "node", "id": 3720394273, "lat": 39.8283255, "lon": -105.072493}, {"type": "node", "id": 3720394274, "lat": 39.8286709, "lon": -105.0724226}, {"type": "node", "id": 3720394275, "lat": 39.8286805, "lon": -105.0725013}, {"type": "way", "id": 46819739, "nodes": [598053393, 598053394, 598053395, 598053396, 598053397, 598053393], "tags": {"addr:city": "Arvada", "addr:housenumber": "7285", "addr:postcode": "80003", "addr:state": "CO", "addr:street": "Pierce Street", "amenity": "school", "ele": "1673", "gnis:feature_id": "181767", "name": "North Arvada Middle School", "operator": "Jeffco Public Schools", "operator:short": "JPS", "operator:type": "public", "operator:wikidata": "Q6175439", "website": "https://northarvada.jeffcopublicschools.org/"}}, {"type": "way", "id": 46819746, "nodes": [598053473, 598053474, 598053475, 598053476, 598053477, 598053473], "tags": {"amenity": "parking"}}, {"type": "way", "id": 368185456, "nodes": [3720394274, 3720394272, 3720394273, 3720394275, 3720394274], "tags": {"amenity": "parking"}}]}