{"version": 0.6, "generator": "Overpass API 0.7.62.8 e802775f", "osm3s": {"timestamp_osm_base": "2025-11-02T22:54:20Z", "copyright": "The data included in this document is from www.openstreetmap.org. The data is made available under ODbL."}, "elements": [{"type": "node", "id": 12338101009, "lat": 39.9389319, "lon": -89.6742725}, {"type": "node", "id": 12338101010, "lat": 39.938157, "lon": -89.6742526}, {"type": "node", "id": 12338101011, "lat": 39.938136, "lon": -89.6756435}, {"type": "node", "id": 12338101012, "lat": 39.938911, "lon": -89.6756633}, {"type": "node", "id": 12926501423, "lat": 39.9381469, "lon": -89.6749223}, {"type": "node", "id": 12926501424, "lat": 39.9382599, "lon": -89.6742552}, {"type": "way", "id": 592562095, "nodes": [12338101012, 12338101009, 12926501424, 12338101010, 12926501423, 12338101011, 12338101012], "tags": {"addr:city": "Cantrall", "addr:housenumber": "100", "addr:postcode": "62625", "addr:state": "IL", "addr:street": "Claypool Street", "leisure": "park", "name": "Cantrall Park"}}]}