{"version": 0.6, "generator": "Overpass API 0.7.62.8 e802775f", "osm3s": {"timestamp_osm_base": "2025-11-29T18:39:42Z", "copyright": "The data included in this document is from www.openstreetmap.org. The data is made available under ODbL."}, "elements": [{"type": "node", "id": 45945786, "lat": 48.8214432, "lon": -104.9418723}, {"type": "node", "id": 45962435, "lat": 48.8235653, "lon": -104.9448605}, {"type": "node", "id": 45962438, "lat": 48.8238817, "lon": -104.9444323}, {"type": "node", "id": 45962440, "lat": 48.8248543, "lon": -104.9443633}, {"type": "node", "id": 45974456, "lat": 48.8206382, "lon": -104.9408515}, {"type": "node", "id": 45981509, "lat": 48.8207767, "lon": -104.9408895}, {"type": "node", "id": 45983418, "lat": 48.8222451, "lon": -104.946974}, {"type": "node", "id": 45987592, "lat": 48.8229192, "lon": -104.9458711}, {"type": "node", "id": 1116509216, "lat": 48.8221434, "lon": -104.9472118}, {"type": "node", "id": 7188177048, "lat": 48.8215912, "lon": -104.9479994}, {"type": "way", "id": 5803357, "nodes": [45962435, 45962438, 45962440], "tags": {"highway": "path", "source": "Bing", "tiger:cfcc": "A41", "tiger:county": "Sheridan, MT", "tiger:separated": "no", "tiger:source": "tiger_import_dch_v0.6_20070813", "tiger:tlid": "199985743:199985746", "tiger:upload_uuid": "bulk_upload.pl-8fd1ebc5-1658-418a-a9b8-ad49045bb169", "tracktype": "grade3"}}, {"type": "way", "id": 96335157, "nodes": [45945786, 45981509, 45974456], "tags": {"highway": "path", "name": "3rd Avenue", "source": "Bing", "tiger:cfcc": "A41", "tiger:county": "Sheridan, MT", "tiger:name_base": "3rd", "tiger:name_type": "Ave", "tiger:separated": "no", "tiger:source": "tiger_import_dch_v0.6_20070813", "tiger:tlid": "199974994:199983088:199983089:199974741", "tracktype": "grade3"}}, {"type": "way", "id": 769991708, "nodes": [7188177048, 1116509216, 45983418, 45987592, 45962435], "tags": {"highway": "path", "name": "State Street", "source": "Bing", "tiger:cfcc": "A41", "tiger:county": "Sheridan, MT", "tiger:name_base": "State", "tiger:name_type": "St", "tiger:separated": "no", "tiger:source": "tiger_import_dch_v0.6_20070813", "tiger:tlid": "199974967:199974740:199974744", "tracktype": "grade3"}}]}