{"version": 0.6, "generator": "Overpass API 0.7.62.8 e802775f", "osm3s": {"timestamp_osm_base": "2025-12-06T08:57:17Z", "copyright": "The data included in this document is from www.openstreetmap.org. The data is made available under ODbL."}, "elements": [{"type": "node", "id": 357969682, "lat": 47.2528869, "lon": -109.3618026, "tags": {"amenity": "post_office", "ele": "1242", "gnis:feature_id": "1722893", "name": "Hilger Post Office"}}, {"type": "node", "id": 357969683, "lat": 47.2538666, "lon": -109.3599017, "tags": {"amenity": "place_of_worship", "denomination": "presbyterian", "ele": "1242", "gnis:feature_id": "1722894", "name": "Presbyterian Church", "religion": "christian"}}, {"type": "node", "id": 357969686, "lat": 47.2538666, "lon": -109.3599017, "tags": {"amenity": "place_of_worship", "ele": "1242", "gnis:feature_id": "1722896", "name": "Saint Victor Church", "religion": "christian"}}, {"type": "node", "id": 7900804848, "lat": 47.255113, "lon": -109.358466}, {"type": "node", "id": 7900804849, "lat": 47.255113, "lon": -109.358623}, {"type": "node", "id": 7900804850, "lat": 47.254913, "lon": -109.358625}, {"type": "node", "id": 7900804851, "lat": 47.254913, "lon": -109.358514}, {"type": "node", "id": 7900804852, "lat": 47.255016, "lon": -109.358513}, {"type": "node", "id": 7900804853, "lat": 47.255016, "lon": -109.358467}, {"type": "way", "id": 846780943, "nodes": [7900804848, 7900804849, 7900804850, 7900804851, 7900804852, 7900804853, 7900804848], "tags": {"amenity": "bar", "building": "yes", "name": "Shirey's Pub", "source": "microsoft/BuildingFootprints"}}]}