{"version": 0.6, "generator": "Overpass API 0.7.62.8 e802775f", "osm3s": {"timestamp_osm_base": "2025-11-02T19:38:16Z", "copyright": "The data included in this document is from www.openstreetmap.org. The data is made available under ODbL."}, "elements": [{"type": "node", "id": 6168380883, "lat": 33.9714653, "lon": -94.1701021}, {"type": "node", "id": 6168380884, "lat": 33.9714653, "lon": -94.1706278}, {"type": "node", "id": 6168384785, "lat": 33.9720303, "lon": -94.1706171}, {"type": "node", "id": 6168384786, "lat": 33.9720436, "lon": -94.1721084}, {"type": "node", "id": 6168384787, "lat": 33.9733382, "lon": -94.1720923}, {"type": "node", "id": 6168384788, "lat": 33.9732937, "lon": -94.169174}, {"type": "node", "id": 6168384789, "lat": 33.9721459, "lon": -94.1691955}, {"type": "node", "id": 6168384790, "lat": 33.9721415, "lon": -94.1684552}, {"type": "node", "id": 6168384791, "lat": 33.9714564, "lon": -94.1684659}, {"type": "node", "id": 9461901107, "lat": 33.9733047, "lon": -94.1698941}, {"type": "way", "id": 658735002, "nodes": [6168380883, 6168380884, 6168384785, 6168384786, 6168384787, 9461901107, 6168384788, 6168384789, 6168384790, 6168384791, 6168380883], "tags": {"addr:city": "Lockesburg", "addr:housenumber": "100", "addr:postcode": "71846", "addr:state": "AR", "addr:street": "West Pine", "leisure": "park", "name": "Ida M. Coulter Stone Park", "operator": "City of Lockesburg"}}]}