{"version": 0.6, "generator": "Overpass API 0.7.62.8 e802775f", "osm3s": {"timestamp_osm_base": "2025-12-06T04:38:58Z", "copyright": "The data included in this document is from www.openstreetmap.org. The data is made available under ODbL."}, "elements": [{"type": "node", "id": 7830848346, "lat": 46.850778, "lon": -114.081163}, {"type": "node", "id": 7830848347, "lat": 46.850774, "lon": -114.08034}, {"type": "node", "id": 7830848348, "lat": 46.850958, "lon": -114.080338}, {"type": "node", "id": 7830848349, "lat": 46.850957, "lon": -114.080148}, {"type": "node", "id": 7830848350, "lat": 46.850821, "lon": -114.080149}, {"type": "node", "id": 7830848351, "lat": 46.850821, "lon": -114.080039}, {"type": "node", "id": 7830848352, "lat": 46.851092, "lon": -114.080036}, {"type": "node", "id": 7830848353, "lat": 46.851094, "lon": -114.080458}, {"type": "node", "id": 7830848354, "lat": 46.851068, "lon": -114.080458}, {"type": "node", "id": 7830848355, "lat": 46.851071, "lon": -114.081161}, {"type": "node", "id": 11528826930, "lat": 46.8507753, "lon": -114.0805992}, {"type": "node", "id": 11528826931, "lat": 46.850776, "lon": -114.0807596}, {"type": "way", "id": 839166007, "nodes": [7830848346, 11528826931, 11528826930, 7830848347, 7830848348, 7830848349, 7830848350, 7830848351, 7830848352, 7830848353, 7830848354, 7830848355, 7830848346], "tags": {"addr:city": "Missoula", "addr:housenumber": "2106", "addr:postcode": "59804", "addr:state": "MT", "addr:street": "Clements Road", "amenity": "restaurant", "building": "yes", "name": "The Trough", "source": "microsoft/BuildingFootprints"}}]}