{"version": 0.6, "generator": "Overpass API 0.7.62.8 e802775f", "osm3s": {"timestamp_osm_base": "2025-12-06T20:21:45Z", "copyright": "The data included in this document is from www.openstreetmap.org. The data is made available under ODbL."}, "elements": [{"type": "node", "id": 270393614, "lat": 47.6581935, "lon": -122.4061395}, {"type": "node", "id": 356550812, "lat": 47.6397786, "lon": -122.3967666}, {"type": "node", "id": 356550813, "lat": 47.6484489, "lon": -122.3931348}, {"type": "node", "id": 356550899, "lat": 47.6471207, "lon": -122.3990692}, {"type": "node", "id": 356551186, "lat": 47.63976, "lon": -122.3973143}, {"type": "node", "id": 356551358, "lat": 47.6394198, "lon": -122.398961, "tags": {"addr:city": "Seattle", "addr:housenumber": "3211", "addr:postcode": "98199", "addr:street": "West McGraw Street", "amenity": "post_office", "ele": "48", "gnis:feature_id": "2462231", "name": "Magnolia Post Office", "operator": "United States Postal Service", "operator:short": "USPS", "operator:type": "public", "operator:website": "https://www.usps.com", "operator:wikidata": "Q668687", "operator:wikipedia": "en:United States Postal Service", "short_name": "USPS", "source": "King County GIS;data.seattle.gov"}}, {"type": "node", "id": 356552123, "lat": 47.6458921, "lon": -122.4005483, "tags": {"addr:city": "Seattle", "addr:housenumber": "2836", "addr:postcode": "98199", "addr:street": "34th Avenue West", "amenity": "school", "ele": "60", "gnis:feature_id": "2494257", "name": "Discovery Montessori School", "source": "King County GIS"}}, {"type": "node", "id": 418975276, "lat": 47.6401388, "lon": -122.3800576}, {"type": "node", "id": 430987664, "lat": 47.6454893, "lon": -122.401223}, {"type": "node", "id": 430987666, "lat": 47.6454916, "lon": -122.4014122}, {"type": "node", "id": 430987669, "lat": 47.6454552, "lon": -122.4014132}, {"type": "node", "id": 430987676, "lat": 47.6452059, "lon": -122.4014691}, {"type": "node", "id": 430987679, "lat": 47.6451521, "lon": -122.4014706}, {"type": "node", "id": 430987682, "lat": 47.6451492, "lon": -122.4012323}, {"type": "node", "id": 457731417, "lat": 47.6417036, "lon": -122.4008949}, {"type": "node", "id": 457731418, "lat": 47.6419616, "lon": -122.3999459}, {"type": "node", "id": 457731419, "lat": 47.6417841, "lon": -122.3999459}, {"type": "node", "id": 457731420, "lat": 47.6417841, "lon": -122.3995149}, {"type": "node", "id": 457731421, "lat": 47.6419793, "lon": -122.3995149}, {"type": "node", "id": 457731422, "lat": 47.6419785, "lon": -122.398991}, {"type": "node", "id": 457731423, "lat": 47.6438848, "lon": -122.398967}, {"type": "node", "id": 457731429, "lat": 47.6431149, "lon": -122.4009004}, {"type": "node", "id": 457731440, "lat": 47.6417847, "lon": -122.3995592}, {"type": "node", "id": 457731441, "lat": 47.6417884, "lon": -122.3999341}, {"type": "node", "id": 457731443, "lat": 47.6419829, "lon": -122.3999332}, {"type": "node", "id": 457731444, "lat": 47.6420384, "lon": -122.3998537}, {"type": "node", "id": 457731462, "lat": 47.6440957, "lon": -122.4002119}, {"type": "node", "id": 457731483, "lat": 47.6431606, "lon": -122.3984151}, {"type": "node", "id": 457731484, "lat": 47.64316, "lon": -122.3989649}, {"type": "node", "id": 457731485, "lat": 47.6429125, "lon": -122.3989644}, {"type": "node", "id": 457731486, "lat": 47.642913, "lon": -122.3984145}, {"type": "node", "id": 457754504, "lat": 47.6401154, "lon": -122.4007018}, {"type": "node", "id": 457754505, "lat": 47.6401917, "lon": -122.4006748}, {"type": "node", "id": 457754506, "lat": 47.6401914, "lon": -122.4003055}, {"type": "node", "id": 457754507, "lat": 47.6400579, "lon": -122.4004414}, {"type": "node", "id": 457754508, "lat": 47.6400567, "lon": -122.400708}, {"type": "node", "id": 457754621, "lat": 47.6392639, "lon": -122.4001588}, {"type": "node", "id": 457754624, "lat": 47.6392656, "lon": -122.399924}, {"type": "node", "id": 457754790, "lat": 47.6402956, "lon": -122.397631}, {"type": "node", "id": 457754791, "lat": 47.6403006, "lon": -122.397109}, {"type": "node", "id": 457754792, "lat": 47.6406307, "lon": -122.3971168}, {"type": "node", "id": 457754793, "lat": 47.6406281, "lon": -122.3976326}, {"type": "node", "id": 457754853, "lat": 47.6399356, "lon": -122.4012673}, {"type": "node", "id": 457754854, "lat": 47.6396661, "lon": -122.4012671}, {"type": "node", "id": 457754855, "lat": 47.639666, "lon": -122.4014752}, {"type": "node", "id": 457754856, "lat": 47.6397267, "lon": -122.4014752}, {"type": "node", "id": 457754857, "lat": 47.6397267, "lon": -122.4015376}, {"type": "node", "id": 457754858, "lat": 47.6397646, "lon": -122.4015377}, {"type": "node", "id": 457754859, "lat": 47.6397646, "lon": -122.4014669}, {"type": "node", "id": 457754860, "lat": 47.6398652, "lon": -122.401467}, {"type": "node", "id": 457754861, "lat": 47.6398652, "lon": -122.4014297}, {"type": "node", "id": 457754863, "lat": 47.6399356, "lon": -122.4014297}, {"type": "node", "id": 457754868, "lat": 47.6394329, "lon": -122.4018901}, {"type": "node", "id": 457754870, "lat": 47.6394327, "lon": -122.4020249}, {"type": "node", "id": 457754871, "lat": 47.6394033, "lon": -122.4020248}, {"type": "node", "id": 457754872, "lat": 47.6394032, "lon": -122.4020683}, {"type": "node", "id": 457754873, "lat": 47.6392935, "lon": -122.4020679}, {"type": "node", "id": 457754874, "lat": 47.6392936, "lon": -122.4020354}, {"type": "node", "id": 457754875, "lat": 47.6392235, "lon": -122.4020352}, {"type": "node", "id": 457754876, "lat": 47.6392236, "lon": -122.4019546}, {"type": "node", "id": 457754878, "lat": 47.6392437, "lon": -122.4019547}, {"type": "node", "id": 457754879, "lat": 47.6392438, "lon": -122.4019003}, {"type": "node", "id": 457754880, "lat": 47.6392972, "lon": -122.4019005}, {"type": "node", "id": 457754881, "lat": 47.6392972, "lon": -122.4018871}, {"type": "node", "id": 457754882, "lat": 47.6393221, "lon": -122.4018872}, {"type": "node", "id": 457754883, "lat": 47.6393227, "lon": -122.401779}, {"type": "node", "id": 457754884, "lat": 47.6393696, "lon": -122.4017799}, {"type": "node", "id": 457754885, "lat": 47.639369, "lon": -122.4018899}, {"type": "node", "id": 457754893, "lat": 47.6394426, "lon": -122.4013294}, {"type": "node", "id": 457754894, "lat": 47.6393113, "lon": -122.4013246}, {"type": "node", "id": 457754895, "lat": 47.6392744, "lon": -122.4015194}, {"type": "node", "id": 457754896, "lat": 47.6394348, "lon": -122.4015194}, {"type": "node", "id": 457754999, "lat": 47.6473811, "lon": -122.3989454}, {"type": "node", "id": 457755000, "lat": 47.6476475, "lon": -122.3989429}, {"type": "node", "id": 457755001, "lat": 47.6476504, "lon": -122.3996073}, {"type": "node", "id": 457755015, "lat": 47.6479612, "lon": -122.3996043}, {"type": "node", "id": 457755017, "lat": 47.6479637, "lon": -122.4001595}, {"type": "node", "id": 457772970, "lat": 47.6397072, "lon": -122.3981136, "tags": {"amenity": "bank", "atm": "yes", "brand": "U.S. Bank", "brand:wikidata": "Q739084", "name": "U.S. Bank"}}, {"type": "node", "id": 457772972, "lat": 47.6397122, "lon": -122.399808, "tags": {"addr:city": "Seattle", "addr:housenumber": "3300", "addr:postcode": "98199", "addr:state": "WA", "addr:street": "West McGraw Street", "addr:unit": "100", "amenity": "cafe", "branch": "Magnolia", "brand": "Starbucks", "brand:wikidata": "Q37158", "cuisine": "coffee_shop", "internet_access": "yes", "name": "Starbucks", "official_name": "Starbucks Coffee", "outdoor_seating": "yes", "phone": "+1-206-298-3390", "takeaway": "yes", "website": "https://www.starbucks.com/store-locator/store/16154/magnolia-3300-w-mc-graw-street-100-seattle-wa-981993246-us"}}, {"type": "node", "id": 457772974, "lat": 47.6397154, "lon": -122.400418, "tags": {"addr:city": "Seattle", "addr:housenumber": "3320", "addr:postcode": "98199", "addr:state": "WA", "addr:street": "West McGraw Street", "addr:unit": "6", "amenity": "fast_food", "brand": "Subway", "brand:wikidata": "Q244457", "cuisine": "sandwich", "drive_through": "no", "name": "Subway", "opening_hours": "09:00-20:00", "phone": "+1-206-285-6907", "source": "King County GIS;data.seattle.gov", "takeaway": "yes", "website": "https://restaurants.subway.com/united-states/wa/seattle/3320-w-mcgraw"}}, {"type": "node", "id": 457772975, "lat": 47.6394257, "lon": -122.4006017, "tags": {"addr:city": "Seattle", "addr:housenumber": "3321", "addr:postcode": "98199", "addr:state": "WA", "addr:street": "West McGraw Street", "amenity": "restaurant", "cuisine": "peruvian", "name": "Pink Salt", "phone": "+1 206-284-7305", "source": "King County GIS;data.seattle.gov", "website": "https://pinksaltseattle.com/"}}, {"type": "node", "id": 457772976, "lat": 47.6398069, "lon": -122.4007202, "tags": {"addr:city": "Seattle", "addr:housenumber": "3320", "addr:postcode": "98199", "addr:street": "West McGraw Street", "addr:unit": "1", "name": "Bella Cleaners", "shop": "dry_cleaning", "source": "King County GIS;data.seattle.gov"}}, {"type": "node", "id": 457772981, "lat": 47.6402644, "lon": -122.3994513, "tags": {"addr:city": "Seattle", "addr:housenumber": "2450", "addr:postcode": "98199", "addr:street": "33rd Avenue West", "addr:unit": "100", "amenity": "doctors", "healthcare": "doctor", "name": "Swedish Magnolia Primary Care"}}, {"type": "node", "id": 457772982, "lat": 47.6403799, "lon": -122.3986615, "tags": {"addr:city": "Seattle", "addr:housenumber": "3213", "addr:postcode": "98199", "addr:street": "West Smith Street", "name": "Magnolia Garden Center", "shop": "garden_centre", "source": "King County GIS;data.seattle.gov", "website": "https://www.magnoliagardencenter.com"}}, {"type": "node", "id": 457772983, "lat": 47.6397096, "lon": -122.398577, "tags": {"addr:city": "Seattle", "addr:housenumber": "3202", "addr:postcode": "98199", "addr:state": "WA", "addr:street": "West McGraw Street", "name": "Magnolia Eye Care", "phone": "+1-206-284-5850", "shop": "optician", "source": "King County GIS;data.seattle.gov"}}, {"type": "node", "id": 457772984, "lat": 47.6397092, "lon": -122.39872, "tags": {"addr:city": "Seattle", "addr:housenumber": "3206", "addr:postcode": "98199", "addr:state": "WA", "addr:street": "West McGraw Street", "name": "Magnolia's Bookstore", "phone": "+1-206-283-1062", "shop": "books", "website": "https://magnoliasbookstore.com/"}}, {"type": "node", "id": 457772988, "lat": 47.6426702, "lon": -122.3981799}, {"type": "node", "id": 457772989, "lat": 47.6426535, "lon": -122.3979357}, {"type": "node", "id": 457772990, "lat": 47.6427065, "lon": -122.3979354}, {"type": "node", "id": 457772991, "lat": 47.6427068, "lon": -122.3976789}, {"type": "node", "id": 457772992, "lat": 47.6422484, "lon": -122.3976813}, {"type": "node", "id": 457772994, "lat": 47.6422495, "lon": -122.398145}, {"type": "node", "id": 457772995, "lat": 47.6423443, "lon": -122.3981445}, {"type": "node", "id": 457772996, "lat": 47.6423444, "lon": -122.3981816}, {"type": "node", "id": 457772997, "lat": 47.6424258, "lon": -122.3981812}, {"type": "node", "id": 457772998, "lat": 47.6424258, "lon": -122.3982045}, {"type": "node", "id": 457773008, "lat": 47.6430057, "lon": -122.3976667}, {"type": "node", "id": 457773009, "lat": 47.643, "lon": -122.3981686}, {"type": "node", "id": 457773010, "lat": 47.6426617, "lon": -122.3981721}, {"type": "node", "id": 457773011, "lat": 47.6426617, "lon": -122.3979404}, {"type": "node", "id": 457773012, "lat": 47.6427131, "lon": -122.3979408}, {"type": "node", "id": 457773013, "lat": 47.6427131, "lon": -122.397667}, {"type": "node", "id": 457773014, "lat": 47.6402829, "lon": -122.3981517, "tags": {"addr:city": "Seattle", "addr:housenumber": "2420", "addr:postcode": "98199-3202", "addr:state": "WA", "addr:street": "32nd Avenue West", "brand": "Ace Hardware", "brand:wikidata": "Q4672981", "name": "Magnolia Ace Hardware", "opening_hours": "Mo-Sa 09:00-18:00; Su 10:00-17:00", "phone": "+1-206-282-1916", "ref": "05279", "shop": "hardware"}}, {"type": "node", "id": 457773015, "lat": 47.6392646, "lon": -122.3985109, "tags": {"addr:city": "Seattle", "addr:housenumber": "2231", "addr:postcode": "98199", "addr:street": "32nd Avenue West", "amenity": "restaurant", "cuisine": "greek", "name": "Nikos Gyros", "phone": "+1-206-285-4778"}}, {"type": "node", "id": 457773025, "lat": 47.6392027, "lon": -122.39851, "tags": {"addr:city": "Seattle", "addr:housenumber": "2229", "addr:postcode": "98199", "addr:street": "32nd Avenue West", "name": "Magnolia Village Barber Shop", "shop": "hairdresser", "source": "King County GIS;data.seattle.gov"}}, {"type": "node", "id": 457773028, "lat": 47.6392558, "lon": -122.3981125, "tags": {"addr:housenumber": "2236", "addr:postcode": "98199", "addr:street": "32nd Avenue West", "addr:unit": "A", "name": "Mainspring Wealth Advisors", "office": "financial_advisor", "website": "https://mainspringwa.com/"}}, {"type": "node", "id": 457773029, "lat": 47.6392559, "lon": -122.397847, "tags": {"addr:city": "Seattle", "addr:housenumber": "2236", "addr:postcode": "98199", "addr:street": "32nd Avenue West", "addr:unit": "E", "amenity": "fast_food", "cuisine": "mediterranean;shawarma", "drive_through": "no", "name": "Shawarma Buzz", "phone": "+1-206-402-3818", "takeaway": "yes", "website": "https://shawarma-buzz.com"}}, {"type": "node", "id": 457773030, "lat": 47.639422, "lon": -122.3994577, "tags": {"addr:city": "Seattle", "addr:housenumber": "3223", "addr:postcode": "98199", "addr:street": "West McGraw Street", "amenity": "cafe", "cuisine": "coffee_shop", "name": "Uptown Espresso", "source": "King County GIS;data.seattle.gov", "website": "https://velvetfoam.com/"}}, {"type": "node", "id": 457773031, "lat": 47.6393852, "lon": -122.399969, "tags": {"amenity": "fuel", "brand": "Chevron", "brand:wikidata": "Q319642", "name": "Magnolia Chevron"}}, {"type": "node", "id": 457773032, "lat": 47.6397116, "lon": -122.3999462, "tags": {"amenity": "bank", "atm": "no", "brand": "Peoples Bank", "brand:wikidata": "Q7166050", "name": "Peoples Bank"}}, {"type": "node", "id": 457773034, "lat": 47.6396647, "lon": -122.400028, "tags": {"amenity": "atm", "brand": "Wells Fargo", "brand:wikidata": "Q744149", "name": "Wells Fargo", "operator": "Wells Fargo", "operator:wikidata": "Q744149", "operator:wikipedia": "en:Wells Fargo"}}, {"type": "node", "id": 457773035, "lat": 47.639426, "lon": -122.4001996, "tags": {"addr:city": "Seattle", "addr:housenumber": "3311", "addr:postcode": "98199", "addr:street": "West McGraw Street", "amenity": "restaurant", "cuisine": "thai", "name": "Kinnaree", "source": "King County GIS;data.seattle.gov"}}, {"type": "node", "id": 457773036, "lat": 47.6394355, "lon": -122.4003224, "tags": {"addr:housenumber": "3315", "addr:street": "West McGraw Street", "amenity": "arts_centre", "name": "Westerly Studio", "website": "https://www.westerlystudio.com"}}, {"type": "node", "id": 457773037, "lat": 47.6398093, "lon": -122.400597, "tags": {"addr:city": "Seattle", "addr:housenumber": "3320", "addr:postcode": "98199", "addr:street": "West McGraw Street", "addr:unit": "2", "alt_name": "Edward Jones Investments", "brand": "Edward Jones", "brand:wikidata": "Q5343830", "name": "Edward Jones", "office": "financial_advisor", "phone": "+1-206-282-3426", "source": "King County GIS;data.seattle.gov", "website": "https://www.edwardjones.com/"}}, {"type": "node", "id": 457773038, "lat": 47.6397301, "lon": -122.4016778, "tags": {"addr:city": "Seattle", "addr:housenumber": "3412", "addr:postcode": "98199", "addr:street": "West McGraw Street", "name": "Carolina Cleaners", "shop": "dry_cleaning", "source": "King County GIS;data.seattle.gov"}}, {"type": "node", "id": 457773039, "lat": 47.6396984, "lon": -122.4016772, "tags": {"addr:city": "Seattle", "addr:housenumber": "3412", "addr:postcode": "98199", "addr:street": "West McGraw Street", "name": "Madison Drapery", "shop": "furniture", "source": "King County GIS;data.seattle.gov"}}, {"type": "node", "id": 457773041, "lat": 47.6397324, "lon": -122.401748, "tags": {"addr:unit": "201", "amenity": "dentist", "healthcare": "dentist", "name": "Magnolia Smile Design"}}, {"type": "node", "id": 457773042, "lat": 47.6396937, "lon": -122.4019686, "tags": {"addr:city": "Seattle", "addr:housenumber": "3416", "addr:postcode": "98199", "addr:street": "West McGraw Street", "amenity": "restaurant", "cuisine": "mexican", "name": "El Ranchon", "phone": "+1-206-281-9233", "source": "King County GIS;data.seattle.gov"}}, {"type": "node", "id": 457773043, "lat": 47.6396968, "lon": -122.4020842, "tags": {"addr:city": "Seattle", "addr:housenumber": "3418", "addr:postcode": "98199", "addr:street": "West McGraw Street", "amenity": "restaurant", "cuisine": "chinese", "name": "Gim Wah", "source": "King County GIS;data.seattle.gov"}}, {"type": "node", "id": 457773044, "lat": 47.6396868, "lon": -122.4021944, "tags": {"addr:city": "Seattle", "addr:housenumber": "3424", "addr:postcode": "98199", "addr:street": "West McGraw Street", "name": "Magnolia Insurance", "office": "insurance", "source": "King County GIS;data.seattle.gov"}}, {"type": "node", "id": 457773047, "lat": 47.6394183, "lon": -122.3992455, "tags": {"addr:city": "Seattle", "addr:housenumber": "3219", "addr:postcode": "98199", "addr:street": "West McGraw Street", "amenity": "bank", "atm": "yes", "name": "WaFd Bank", "source": "King County GIS;data.seattle.gov"}}, {"type": "node", "id": 457784310, "lat": 47.6555237, "lon": -122.4006843}, {"type": "node", "id": 457784311, "lat": 47.6555238, "lon": -122.4005002}, {"type": "node", "id": 457784312, "lat": 47.6554936, "lon": -122.4005001}, {"type": "node", "id": 457784313, "lat": 47.6555081, "lon": -122.4002077}, {"type": "node", "id": 457784315, "lat": 47.6550804, "lon": -122.4002071}, {"type": "node", "id": 457784316, "lat": 47.6557503, "lon": -122.4006951}, {"type": "node", "id": 457784318, "lat": 47.6555366, "lon": -122.4006932}, {"type": "node", "id": 457784319, "lat": 47.6555375, "lon": -122.4004826}, {"type": "node", "id": 457784320, "lat": 47.6555134, "lon": -122.4004824}, {"type": "node", "id": 457784321, "lat": 47.6555145, "lon": -122.4002088}, {"type": "node", "id": 457784322, "lat": 47.6557523, "lon": -122.400211}, {"type": "node", "id": 457784323, "lat": 47.6548082, "lon": -122.400687}, {"type": "node", "id": 457784325, "lat": 47.6548104, "lon": -122.4005314}, {"type": "node", "id": 457784326, "lat": 47.6548148, "lon": -122.4002215}, {"type": "node", "id": 457784327, "lat": 47.6550222, "lon": -122.4002192}, {"type": "node", "id": 457784328, "lat": 47.6550326, "lon": -122.4006837}, {"type": "node", "id": 458612289, "lat": 47.6544545, "lon": -122.4005059, "tags": {"shop": "dry_cleaning"}}, {"type": "node", "id": 458623702, "lat": 47.6394274, "lon": -122.3973086, "tags": {"amenity": "dentist", "healthcare": "dentist", "name": "3107 Dentistry"}}, {"type": "node", "id": 458623706, "lat": 47.6386686, "lon": -122.3982201}, {"type": "node", "id": 458623707, "lat": 47.6386663, "lon": -122.3978117}, {"type": "node", "id": 458623708, "lat": 47.6390093, "lon": -122.3978145}, {"type": "node", "id": 458623709, "lat": 47.639008, "lon": -122.3976373}, {"type": "node", "id": 458623710, "lat": 47.6389904, "lon": -122.3976373}, {"type": "node", "id": 458623711, "lat": 47.638991, "lon": -122.3975467}, {"type": "node", "id": 458623712, "lat": 47.6390249, "lon": -122.3975467}, {"type": "node", "id": 458623713, "lat": 47.639025, "lon": -122.3974213}, {"type": "node", "id": 458623715, "lat": 47.6390941, "lon": -122.3977822}, {"type": "node", "id": 458623716, "lat": 47.6392253, "lon": -122.3977813}, {"type": "node", "id": 458623717, "lat": 47.639227, "lon": -122.3982253}, {"type": "node", "id": 458623718, "lat": 47.639223, "lon": -122.3976471, "tags": {"addr:city": "Seattle", "addr:housenumber": "3111", "addr:postcode": "98199", "addr:street": "West McGraw Street", "addr:unit": "103", "amenity": "restaurant", "cuisine": "italian", "name": "Smoking Monkey Pizza", "website": "https://www.smokingmonkeypizza.com"}}, {"type": "node", "id": 458623719, "lat": 47.6397098, "lon": -122.398506, "tags": {"addr:city": "Seattle", "addr:housenumber": "3200", "addr:postcode": "98199", "addr:state": "WA", "addr:street": "West McGraw Street", "amenity": "doctors", "healthcare": "doctor", "name": "MTI Physical Therapy-Magnolia", "phone": "+1-206-281-7970", "source": "King County GIS;data.seattle.gov", "website": "https://www.mtipt.com/"}}, {"type": "node", "id": 458623720, "lat": 47.639709, "lon": -122.398783, "tags": {"addr:city": "Seattle", "addr:housenumber": "3208", "addr:postcode": "98199", "addr:street": "West McGraw Street", "amenity": "restaurant", "cuisine": "pizza", "name": "Pizza Il Villaggio", "source": "King County GIS;data.seattle.gov", "website": "https://pizza-villaggio.com/"}}, {"type": "node", "id": 458623724, "lat": 47.6396931, "lon": -122.399273, "tags": {"addr:housenumber": "3220", "addr:street": "West McGraw Street", "name": "Modele's Home Furnishings", "phone": "+1-206-287-9942", "shop": "furniture", "website": "https://www.modelesfurniture.com/"}}, {"type": "node", "id": 458623725, "lat": 47.6396198, "lon": -122.3994393, "tags": {"amenity": "bench"}}, {"type": "node", "id": 458623726, "lat": 47.6397036, "lon": -122.399429, "tags": {"addr:city": "Seattle", "addr:housenumber": "3222", "addr:postcode": "98199", "addr:street": "West McGraw Street", "amenity": "cafe", "cuisine": "american", "name": "Serendipity Cafe", "outdoor_seating": "yes", "phone": "+1-206-282-9866", "source": "King County GIS;data.seattle.gov", "website": "https://www.serendipitycafeandlounge.com/"}}, {"type": "node", "id": 458623730, "lat": 47.6399511, "lon": -122.4000737}, {"type": "node", "id": 458623738, "lat": 47.6394267, "lon": -122.3988387, "tags": {"addr:city": "Seattle", "addr:housenumber": "3209", "addr:postcode": "98199", "addr:street": "West McGraw Street", "name": "Vixen", "shop": "hairdresser", "source": "King County GIS;data.seattle.gov"}}, {"type": "node", "id": 458623741, "lat": 47.639425, "lon": -122.3993643, "tags": {"addr:city": "Seattle", "addr:housenumber": "3221", "addr:postcode": "98199", "addr:street": "West McGraw Street", "amenity": "pub", "name": "Magnolia Village Pub", "source": "King County GIS;data.seattle.gov", "website": "https://magnolia-villagepub.com/"}}, {"type": "node", "id": 458623743, "lat": 47.639195, "lon": -122.3997618, "tags": {"amenity": "telephone", "note": "Broken as of May 7, 2024", "payment:coins": "yes", "payment:telephone_cards": "yes"}}, {"type": "node", "id": 458625311, "lat": 47.6419802, "lon": -122.3995719}, {"type": "node", "id": 458631435, "lat": 47.6402789, "lon": -122.4004759}, {"type": "node", "id": 458631437, "lat": 47.640278, "lon": -122.400217}, {"type": "node", "id": 458631438, "lat": 47.6404855, "lon": -122.4002188}, {"type": "node", "id": 458631439, "lat": 47.6404837, "lon": -122.4006302}, {"type": "node", "id": 458631440, "lat": 47.6403835, "lon": -122.400475}, {"type": "node", "id": 458641161, "lat": 47.6400736, "lon": -122.3918858}, {"type": "node", "id": 459163378, "lat": 47.6396282, "lon": -122.3995724}, {"type": "node", "id": 459163379, "lat": 47.6395115, "lon": -122.3995721}, {"type": "node", "id": 459163382, "lat": 47.6418981, "lon": -122.4005039}, {"type": "node", "id": 459163383, "lat": 47.6419732, "lon": -122.4001371}, {"type": "node", "id": 459163384, "lat": 47.6424404, "lon": -122.4001315}, {"type": "node", "id": 459163385, "lat": 47.6424376, "lon": -122.400502}, {"type": "node", "id": 459163387, "lat": 47.640713, "lon": -122.3981692, "tags": {"addr:city": "Seattle", "addr:housenumber": "2436", "addr:postcode": "98199", "addr:street": "32nd Avenue West", "name": "Sonny & Maria's Nail Salon", "shop": "nails", "source": "King County GIS;data.seattle.gov"}}, {"type": "node", "id": 459163388, "lat": 47.640667, "lon": -122.3981604, "tags": {"addr:city": "Seattle", "addr:housenumber": "2434", "addr:postcode": "98199", "addr:street": "32nd Avenue West", "amenity": "restaurant", "cuisine": "japanese", "name": "Ichiro Sushi & Teriyaki", "source": "King County GIS;data.seattle.gov"}}, {"type": "node", "id": 459163389, "lat": 47.6406323, "lon": -122.3981626, "tags": {"addr:city": "Seattle", "addr:housenumber": "2432", "addr:postcode": "98199", "addr:street": "32nd Avenue West", "craft": "shoemaker", "name": "Jim\u2019s Cobbler Shop", "shop": "shoe_repair", "source": "King County GIS;data.seattle.gov"}}, {"type": "node", "id": 459163390, "lat": 47.6406021, "lon": -122.3981616, "tags": {"addr:city": "Seattle", "addr:housenumber": "2430", "addr:postcode": "98199", "addr:street": "32nd Avenue West", "name": "Henry Simmons Salon", "shop": "hairdresser", "source": "King County GIS;data.seattle.gov"}}, {"type": "node", "id": 459163391, "lat": 47.6404111, "lon": -122.3978536, "tags": {"addr:city": "Seattle", "addr:housenumber": "2426", "addr:postcode": "98199", "addr:street": "32nd Avenue West", "amenity": "kindergarten", "education": "kindergarten", "name": "Kaleidoscope School", "source": "King County GIS;data.seattle.gov"}}, {"type": "node", "id": 459163393, "lat": 47.6397103, "lon": -122.398636, "tags": {"addr:city": "Seattle", "addr:housenumber": "3204", "addr:postcode": "98199", "addr:state": "WA", "addr:street": "West McGraw Street", "name": "Petit Pierre Bakery", "phone": "+1-206-406-7271", "shop": "bakery", "source": "King County GIS;data.seattle.gov", "website": "https://www.facebook.com/petitpierrebakery/"}}, {"type": "node", "id": 459163395, "lat": 47.6393916, "lon": -122.3985674, "tags": {"addr:city": "Seattle", "addr:housenumber": "3203", "addr:postcode": "98199", "addr:street": "West McGraw Street", "amenity": "dentist", "healthcare": "dentist", "name": "Nelson Orthodontics", "source": "King County GIS;data.seattle.gov"}}, {"type": "node", "id": 459163396, "lat": 47.6392548, "lon": -122.3979271, "tags": {"addr:city": "Seattle", "addr:housenumber": "2236", "addr:postcode": "98199", "addr:street": "32nd Avenue West", "addr:unit": "D", "name": "Victoria Cleaners", "shop": "dry_cleaning"}}, {"type": "node", "id": 459163405, "lat": 47.639256, "lon": -122.400037, "tags": {"name": "Magnolia Chevron", "shop": "convenience"}}, {"type": "node", "id": 459163407, "lat": 47.6396938, "lon": -122.4018669, "tags": {"addr:city": "Seattle", "addr:housenumber": "3414", "addr:postcode": "98199", "addr:street": "West McGraw Street", "name": "Magnolia Skin Care", "shop": "beauty", "source": "King County GIS;data.seattle.gov"}}, {"type": "node", "id": 459163408, "lat": 47.6389801, "lon": -122.40159}, {"type": "node", "id": 459163409, "lat": 47.6389478, "lon": -122.4016809}, {"type": "node", "id": 459163410, "lat": 47.6387916, "lon": -122.4015563}, {"type": "node", "id": 459163411, "lat": 47.6388612, "lon": -122.4010317}, {"type": "node", "id": 459163412, "lat": 47.6390875, "lon": -122.4010253}, {"type": "node", "id": 459163413, "lat": 47.6390906, "lon": -122.4012707}, {"type": "node", "id": 459163414, "lat": 47.6390477, "lon": -122.4012719}, {"type": "node", "id": 459163415, "lat": 47.6390481, "lon": -122.4012999}, {"type": "node", "id": 459163416, "lat": 47.639004, "lon": -122.4013012}, {"type": "node", "id": 459163417, "lat": 47.6390036, "lon": -122.4012737}, {"type": "node", "id": 459163418, "lat": 47.6389504, "lon": -122.4012752}, {"type": "node", "id": 459163419, "lat": 47.638911, "lon": -122.40151}, {"type": "node", "id": 459163421, "lat": 47.6394328, "lon": -122.4016282, "tags": {"addr:city": "Seattle", "addr:housenumber": "3409", "addr:postcode": "98199", "addr:street": "West McGraw Street", "name": "Golden Nails & Spa", "phone": "+1 206-283-0819", "shop": "hairdresser", "source": "King County GIS;data.seattle.gov"}}, {"type": "node", "id": 459169507, "lat": 47.6401367, "lon": -122.3994606, "tags": {"addr:city": "Seattle", "addr:housenumber": "2450", "addr:postcode": "98199", "addr:street": "33rd Avenue West", "addr:unit": "1", "amenity": "kindergarten", "education": "kindergarten", "name": "Magnolia Whizz Kids Academy Preschool", "source": "King County GIS;data.seattle.gov", "website": "https://www.whizzkidsacademy.com/"}}, {"type": "node", "id": 459169509, "lat": 47.6404438, "lon": -122.3998937, "tags": {"amenity": "dentist", "healthcare": "dentist", "name": "Magnolia Dental Arts", "phone": "+1-206-283-7844"}}, {"type": "node", "id": 459169510, "lat": 47.6403282, "lon": -122.3997907, "tags": {"addr:city": "Seattle", "addr:housenumber": "2425", "addr:postcode": "98199", "addr:state": "WA", "addr:street": "33rd Avenue West", "addr:unit": "B", "amenity": "cafe", "cuisine": "ice_cream", "name": "Nutty Squirrel Gelato - Magnolia"}}, {"type": "node", "id": 459169511, "lat": 47.6402279, "lon": -122.399799, "tags": {"addr:city": "Seattle", "addr:housenumber": "2425", "addr:postcode": "98199", "addr:state": "WA", "addr:street": "33rd Avenue West", "addr:unit": "3", "amenity": "restaurant", "check_date": "2024-10-09", "check_date:exists": "2021-06-13", "cuisine": "italian", "delivery": "no", "name": "Mondello Ristorante", "opening_hours": "Mo-Th 11:30-14:30,17:00-21:30; Fr-Sa 11:30-14:30,17:00-22:00; Su 17:00-21:30", "payment:cash": "yes", "payment:credit_cards": "yes", "payment:debit_cards": "yes", "phone": "+1-206-352-8700", "smoking": "no", "takeaway": "yes", "website": "https://mondelloristorante.com/", "wheelchair": "yes"}}, {"type": "node", "id": 459169513, "lat": 47.6399744, "lon": -122.3989736, "tags": {"addr:housenumber": "3213", "addr:street": "West Wheeler Street", "amenity": "post_office", "name": "Magnolia Mailbox", "website": "https://magnoliamailbox.com/"}}, {"type": "node", "id": 544331310, "lat": 47.6308235, "lon": -122.394924}, {"type": "node", "id": 544331317, "lat": 47.6307428, "lon": -122.3946969}, {"type": "node", "id": 544331318, "lat": 47.6307235, "lon": -122.3946486}, {"type": "node", "id": 544331323, "lat": 47.6311742, "lon": -122.3952172}, {"type": "node", "id": 544331324, "lat": 47.6311235, "lon": -122.395219}, {"type": "node", "id": 544331325, "lat": 47.6309187, "lon": -122.3951027}, {"type": "node", "id": 544331402, "lat": 47.6306006, "lon": -122.392934}, {"type": "node", "id": 544331403, "lat": 47.6305609, "lon": -122.3926801}, {"type": "node", "id": 544331408, "lat": 47.6309537, "lon": -122.3926246}, {"type": "node", "id": 544331409, "lat": 47.6309657, "lon": -122.3927625}, {"type": "node", "id": 544331410, "lat": 47.6310151, "lon": -122.392767}, {"type": "node", "id": 544331435, "lat": 47.6305018, "lon": -122.3918147}, {"type": "node", "id": 544331466, "lat": 47.6302741, "lon": -122.3909472, "tags": {"amenity": "bicycle_parking", "capacity": "8"}}, {"type": "node", "id": 544331491, "lat": 47.6305609, "lon": -122.3913248}, {"type": "node", "id": 544331492, "lat": 47.6308344, "lon": -122.3917629}, {"type": "node", "id": 544331501, "lat": 47.6308982, "lon": -122.391795}, {"type": "node", "id": 544331505, "lat": 47.630603, "lon": -122.3908724}, {"type": "node", "id": 544331506, "lat": 47.6306139, "lon": -122.390817}, {"type": "node", "id": 544331519, "lat": 47.6309368, "lon": -122.3908403}, {"type": "node", "id": 544331520, "lat": 47.6309271, "lon": -122.3908868}, {"type": "node", "id": 544331528, "lat": 47.6307524, "lon": -122.3902878}, {"type": "node", "id": 544331529, "lat": 47.6307838, "lon": -122.3901841}, {"type": "node", "id": 544331549, "lat": 47.6311802, "lon": -122.3900714}, {"type": "node", "id": 544331550, "lat": 47.6311452, "lon": -122.3900714}, {"type": "node", "id": 544331551, "lat": 47.631126, "lon": -122.3902324}, {"type": "node", "id": 544331552, "lat": 47.631079, "lon": -122.3903575}, {"type": "node", "id": 544331566, "lat": 47.6308874, "lon": -122.3891614}, {"type": "node", "id": 544331567, "lat": 47.6311814, "lon": -122.3896477}, {"type": "node", "id": 544331568, "lat": 47.6312223, "lon": -122.389662}, {"type": "node", "id": 544331589, "lat": 47.6309886, "lon": -122.3889969}, {"type": "node", "id": 544331597, "lat": 47.631085, "lon": -122.3889057}, {"type": "node", "id": 544331598, "lat": 47.6311958, "lon": -122.3889218}, {"type": "node", "id": 544331643, "lat": 47.6315349, "lon": -122.3957015, "tags": {"amenity": "bench", "backrest": "no", "material": "stone", "seats": "3"}}, {"type": "node", "id": 544331650, "lat": 47.6313195, "lon": -122.3953105}, {"type": "node", "id": 544331651, "lat": 47.6312875, "lon": -122.3947525}, {"type": "node", "id": 544331652, "lat": 47.6313386, "lon": -122.3947461}, {"type": "node", "id": 544331653, "lat": 47.6313706, "lon": -122.3953041}, {"type": "node", "id": 544331682, "lat": 47.6312513, "lon": -122.3889415}, {"type": "node", "id": 638867945, "lat": 47.6328451, "lon": -122.3988537}, {"type": "node", "id": 693357114, "lat": 47.6404761, "lon": -122.3984537}, {"type": "node", "id": 708304948, "lat": 47.6566163, "lon": -122.3908666}, {"type": "node", "id": 708304979, "lat": 47.6566966, "lon": -122.3910086}, {"type": "node", "id": 708304986, "lat": 47.6560559, "lon": -122.3910211}, {"type": "node", "id": 708305000, "lat": 47.6563992, "lon": -122.3910187}, {"type": "node", "id": 708305001, "lat": 47.6575823, "lon": -122.3900235}, {"type": "node", "id": 708305035, "lat": 47.6560497, "lon": -122.3900204}, {"type": "node", "id": 708305051, "lat": 47.6564713, "lon": -122.3908666}, {"type": "node", "id": 708305070, "lat": 47.657586, "lon": -122.3909865}, {"type": "node", "id": 714775623, "lat": 47.6345844, "lon": -122.3981048}, {"type": "node", "id": 714775667, "lat": 47.6334828, "lon": -122.397634}, {"type": "node", "id": 714775684, "lat": 47.6354747, "lon": -122.3981341}, {"type": "node", "id": 714775694, "lat": 47.6335742, "lon": -122.3977}, {"type": "node", "id": 714775704, "lat": 47.6335203, "lon": -122.3975926}, {"type": "node", "id": 714775749, "lat": 47.6345861, "lon": -122.3979918}, {"type": "node", "id": 714775759, "lat": 47.6354764, "lon": -122.3980211}, {"type": "node", "id": 714775767, "lat": 47.6335368, "lon": -122.3977414}, {"type": "node", "id": 721770337, "lat": 47.6355366, "lon": -122.3773506}, {"type": "node", "id": 721770352, "lat": 47.6367444, "lon": -122.3764227}, {"type": "node", "id": 721770356, "lat": 47.6355389, "lon": -122.3764172}, {"type": "node", "id": 721770359, "lat": 47.6355849, "lon": -122.3776313}, {"type": "node", "id": 721770369, "lat": 47.6355759, "lon": -122.3774809}, {"type": "node", "id": 721770378, "lat": 47.635584, "lon": -122.3775748}, {"type": "node", "id": 721770390, "lat": 47.6367468, "lon": -122.3776504}, {"type": "node", "id": 721770399, "lat": 47.6355593, "lon": -122.3773538}, {"type": "node", "id": 829478038, "lat": 47.6324503, "lon": -122.3898538}, {"type": "node", "id": 829478043, "lat": 47.6324901, "lon": -122.3897412}, {"type": "node", "id": 842212109, "lat": 47.6302742, "lon": -122.3911337, "tags": {"addr:city": "Seattle", "addr:housenumber": "2601", "addr:postcode": "98199", "addr:state": "WA", "addr:street": "West Marina Place", "amenity": "restaurant", "checked_exists:date": "2016-08-17", "cuisine": "american", "name": "Maggie Bluffs", "source": "King County GIS;data.seattle.gov", "website": "https://maggiebluffs.com", "wheelchair": "yes"}}, {"type": "node", "id": 928699079, "lat": 47.6303796, "lon": -122.3915164, "tags": {"addr:city": "Seattle", "addr:housenumber": "2601", "addr:postcode": "98199", "addr:state": "WA", "addr:street": "West Marina Place", "amenity": "restaurant", "checked_exists:date": "2016-08-17", "name": "Palisade", "source": "King County GIS;data.seattle.gov", "website": "https://www.palisaderestaurant.com/", "wikidata": "Q114451594"}}, {"type": "node", "id": 1173776594, "lat": 47.6544683, "lon": -122.4036294}, {"type": "node", "id": 1173776596, "lat": 47.6544114, "lon": -122.4037138}, {"type": "node", "id": 1173776605, "lat": 47.6542287, "lon": -122.4037097}, {"type": "node", "id": 1173776610, "lat": 47.6543601, "lon": -122.4037189}, {"type": "node", "id": 1173776620, "lat": 47.6542271, "lon": -122.4036774}, {"type": "node", "id": 1173776626, "lat": 47.6544683, "lon": -122.4036465}, {"type": "node", "id": 1173776627, "lat": 47.6542156, "lon": -122.4036309}, {"type": "node", "id": 1173776630, "lat": 47.6543005, "lon": -122.403718}, {"type": "node", "id": 1173776633, "lat": 47.6542247, "lon": -122.4036534}, {"type": "node", "id": 1173776635, "lat": 47.6544471, "lon": -122.4036843}, {"type": "node", "id": 1173776638, "lat": 47.6542467, "lon": -122.4037194}, {"type": "node", "id": 1715679884, "lat": 47.6573366, "lon": -122.4130712}, {"type": "node", "id": 1716381506, "lat": 47.663208, "lon": -122.392242}, {"type": "node", "id": 1716563544, "lat": 47.6577841, "lon": -122.4062571}, {"type": "node", "id": 1716563566, "lat": 47.6577867, "lon": -122.4067481}, {"type": "node", "id": 1716563637, "lat": 47.6578436, "lon": -122.4062532}, {"type": "node", "id": 1716563644, "lat": 47.6578598, "lon": -122.4062087}, {"type": "node", "id": 1716563668, "lat": 47.6578957, "lon": -122.4061105}, {"type": "node", "id": 1716563744, "lat": 47.6579824, "lon": -122.4060158}, {"type": "node", "id": 1716563799, "lat": 47.6580691, "lon": -122.4060246}, {"type": "node", "id": 1716563902, "lat": 47.6582194, "lon": -122.4062478}, {"type": "node", "id": 1716563922, "lat": 47.6582224, "lon": -122.4061481}, {"type": "node", "id": 1716563951, "lat": 47.6582453, "lon": -122.4067578}, {"type": "node", "id": 1716563973, "lat": 47.6582462, "lon": -122.4062514}, {"type": "node", "id": 1716667381, "lat": 47.6545762, "lon": -122.4100147}, {"type": "node", "id": 1716667404, "lat": 47.6545765, "lon": -122.4102703}, {"type": "node", "id": 1716667778, "lat": 47.655303, "lon": -122.4101489}, {"type": "node", "id": 1716667810, "lat": 47.6553031, "lon": -122.4102638}, {"type": "node", "id": 1716667995, "lat": 47.6554045, "lon": -122.4101512}, {"type": "node", "id": 1716668034, "lat": 47.6554046, "lon": -122.4102475}, {"type": "node", "id": 1716669184, "lat": 47.6563606, "lon": -122.4102277}, {"type": "node", "id": 1716669199, "lat": 47.6563872, "lon": -122.4101393}, {"type": "node", "id": 1716669209, "lat": 47.6563826, "lon": -122.4101596}, {"type": "node", "id": 1719781893, "lat": 47.654672, "lon": -122.4098692, "tags": {"amenity": "bench", "backrest": "yes", "material": "wood"}}, {"type": "node", "id": 1719781940, "lat": 47.6549083, "lon": -122.4098822, "tags": {"amenity": "bench", "backrest": "yes", "material": "wood"}}, {"type": "node", "id": 1719781950, "lat": 47.6550694, "lon": -122.4098796, "tags": {"amenity": "bench", "backrest": "yes", "material": "wood"}}, {"type": "node", "id": 1719781956, "lat": 47.6551149, "lon": -122.4098666, "tags": {"amenity": "bench", "backrest": "yes", "material": "wood"}}, {"type": "node", "id": 1719994059, "lat": 47.6545544, "lon": -122.4185146, "tags": {"amenity": "drinking_water"}}, {"type": "node", "id": 1719994079, "lat": 47.6579258, "lon": -122.4238708, "tags": {"amenity": "bench", "backrest": "yes", "direction": "240", "material": "wood"}}, {"type": "node", "id": 1722370333, "lat": 47.6547226, "lon": -122.4104115, "tags": {"amenity": "toilets", "fee": "no", "toilets:disposal": "chemical", "wheelchair": "yes"}}, {"type": "node", "id": 1731281907, "lat": 47.6278393, "lon": -122.3918296, "tags": {"amenity": "fuel", "wheelchair": "yes"}}, {"type": "node", "id": 1769033137, "lat": 47.638117, "lon": -122.3880118, "tags": {"amenity": "bicycle_parking", "capacity": "2", "fee": "no", "note": "THORNDYKE AVE W 0210 BLOCK SE SIDE ( 190) 76 FT SW/O W BOSTON ST", "operator": "SDOT", "sdot:bike_rack:id": "BKR-2700"}}, {"type": "node", "id": 1769033149, "lat": 47.6392695, "lon": -122.3982415, "tags": {"amenity": "bicycle_parking", "capacity": "2", "fee": "no", "note": "32ND AVE W 0230 BLOCK E SIDE ( 10) 10 FT N/O W LYNN ST", "operator": "SDOT", "sdot:bike_rack:id": "BKR-2699"}}, {"type": "node", "id": 1769033153, "lat": 47.6394796, "lon": -122.3994367, "tags": {"amenity": "bicycle_parking", "bicycle_parking": "stands", "capacity": "2", "fee": "no", "note": "W MCGRAW ST 0320 BLOCK S SIDE ( 246) 13 FT E/O 33RD AVE W", "operator": "SDOT", "sdot:bike_rack:id": "BKR-2691"}}, {"type": "node", "id": 1769033154, "lat": 47.6394797, "lon": -122.3993572, "tags": {"amenity": "bicycle_parking", "bicycle_parking": "bollard", "capacity": "2", "fee": "no", "mapillary": "356055626069401", "note": "W MCGRAW ST 0320 BLOCK S SIDE ( 120) 120 FT W/O 32ND AVE W", "operator": "SDOT", "sdot:bike_rack:id": "BKR-2690", "survey:date": "2021-08-30"}}, {"type": "node", "id": 1769033195, "lat": 47.63968, "lon": -122.3982527, "tags": {"amenity": "bicycle_parking", "capacity": "2", "fee": "no", "note": "32ND AVE W 0240 BLOCK E SIDE ( 15) 15 FT N/O W MCGRAW ST", "operator": "SDOT", "sdot:bike_rack:id": "BKR-430", "start_date": "2008-04-15"}}, {"type": "node", "id": 1769033249, "lat": 47.6398724, "lon": -122.4011513, "tags": {"amenity": "bicycle_parking", "capacity": "2", "fee": "no", "note": "34TH AVE W 0240 BLOCK W SIDE ( 112) 112 FT N/O W MCGRAW ST", "operator": "SDOT", "sdot:bike_rack:id": "BKR-2520"}}, {"type": "node", "id": 1769033258, "lat": 47.6399511, "lon": -122.3982672, "tags": {"amenity": "bicycle_parking", "capacity": "2", "fee": "no", "note": "32ND AVE W 0240 BLOCK E SIDE ( 115) 0 FT S/O W WHEELER ST", "operator": "SDOT", "sdot:bike_rack:id": "BKR-2698"}}, {"type": "node", "id": 1769033259, "lat": 47.6400502, "lon": -122.3997615, "tags": {"amenity": "bicycle_parking", "bicycle_parking": "stands", "capacity": "2", "fee": "no", "mapillary": "1163064904216978", "note": "33RD AVE W 0245 BLOCK W SIDE ( 12) 12 FT N/O W WHEELER ST", "operator": "SDOT", "sdot:bike_rack:id": "BKR-1877", "start_date": "2009-03-13", "survey:date": "2021-08-30"}}, {"type": "node", "id": 1769033261, "lat": 47.6402289, "lon": -122.3982676, "tags": {"amenity": "bicycle_parking", "capacity": "2", "fee": "no", "note": "32ND AVE W 0243 BLOCK E SIDE ( 44) 44 FT N/O W WHEELER ST", "operator": "SDOT", "sdot:bike_rack:id": "BKR-2697"}}, {"type": "node", "id": 1769033263, "lat": 47.6406359, "lon": -122.3982789, "tags": {"amenity": "bicycle_parking", "capacity": "2", "fee": "no", "note": "32ND AVE W 0246 BLOCK E SIDE ( 8) 8 FT N/O W SMITH S ST", "operator": "SDOT", "sdot:bike_rack:id": "BKR-2696"}}, {"type": "node", "id": 1769033278, "lat": 47.6424256, "lon": -122.4009038, "tags": {"amenity": "bicycle_parking", "capacity": "10", "fee": "no", "note": "34TH AVE W 0250 BLOCK E SIDE ( 446) 264 FT S/O W RAYE ST", "operator": "SDOT", "sdot:bike_rack:id": "BKR-1851", "start_date": "2008-02-01"}}, {"type": "node", "id": 1769033279, "lat": 47.6430974, "lon": -122.3981628, "tags": {"amenity": "bicycle_parking", "capacity": "2", "fee": "no", "note": "32ND AVE W 0250 BLOCK E SIDE ( 680) 3 FT S/O W RAYE ST", "operator": "SDOT", "sdot:bike_rack:id": "BKR-2622"}}, {"type": "node", "id": 1769033296, "lat": 47.6467735, "lon": -122.3984373, "tags": {"amenity": "bicycle_parking", "capacity": "2", "fee": "no", "note": "W BARRETT ST 0320 BLOCK S SIDE ( 30) 30 FT W/O 32ND AVE W", "operator": "SDOT", "sdot:bike_rack:id": "BKR-2621"}}, {"type": "node", "id": 1769033297, "lat": 47.6467773, "lon": -122.3999853, "tags": {"amenity": "bicycle_parking", "capacity": "2", "fee": "no", "note": "W BARRETT ST 0320 BLOCK S SIDE ( 412) 218 FT E/O 34TH AVE W", "operator": "SDOT", "sdot:bike_rack:id": "BKR-2620"}}, {"type": "node", "id": 1769033548, "lat": 47.6540092, "lon": -122.4011864, "tags": {"amenity": "bicycle_parking", "capacity": "2", "fee": "no", "note": "W EMERSON ST 0340 BLOCK S SIDE ( 58) 58 FT W/O 34TH AVE W", "operator": "SDOT", "sdot:bike_rack:id": "BKR-2521"}}, {"type": "node", "id": 1769033581, "lat": 47.656422, "lon": -122.3899709, "tags": {"amenity": "bicycle_parking", "capacity": "10", "fee": "no", "note": "26TH AVE W 0400 BLOCK W SIDE ( 182) 182 FT N/O W THURMAN ST", "operator": "SDOT", "sdot:bike_rack:id": "BKR-239", "start_date": "2006-05-01"}}, {"type": "node", "id": 1769033582, "lat": 47.6564384, "lon": -122.3899708, "tags": {"amenity": "bicycle_parking", "capacity": "8", "fee": "no", "note": "26TH AVE W 0400 BLOCK W SIDE ( 188) 188 FT N/O W THURMAN ST", "operator": "SDOT", "sdot:bike_rack:id": "BKR-882", "start_date": "2009-04-13"}}, {"type": "node", "id": 1769033603, "lat": 47.6578413, "lon": -122.4036513, "tags": {"amenity": "bicycle_parking", "capacity": "10", "fee": "no", "note": "36TH AVE W 0420 BLOCK W SIDE ( 48) 48 FT N/O W ELMORE ST", "operator": "SDOT", "sdot:bike_rack:id": "BKR-2738"}}, {"type": "node", "id": 1769033687, "lat": 47.6599586, "lon": -122.398192, "tags": {"amenity": "bicycle_parking", "bicycle_parking": "stands", "capacity": "2", "covered": "no", "fee": "no", "note": "32ND AVE W 0430 BLOCK E SIDE ( 557) 26 FT S/O W GOVERNMENT S WAY", "operator": "SDOT", "sdot:bike_rack:id": "BKR-2701"}}, {"type": "node", "id": 1777845895, "lat": 47.6357451, "lon": -122.3758611}, {"type": "node", "id": 1777845909, "lat": 47.6352323, "lon": -122.3757943}, {"type": "node", "id": 1954298444, "lat": 47.6482614, "lon": -122.3835401, "tags": {"addr:housenumber": "3055", "addr:postcode": "98199", "addr:street": "21st Avenue West", "amenity": "pub", "cuisine": "irish", "name": "Mulleady's", "opening_hours": "Mo-Th 11:30-23:59; Fr 11:30-02:00, Sa 09:00-02:00, Su 09:00-23:59", "website": "http://mulleadyspub.com"}}, {"type": "node", "id": 1999517732, "lat": 47.6354455, "lon": -122.376657, "tags": {"addr:unit": "A6", "alt_name": "Verizon Wireless", "brand": "Verizon Authorized Retailer", "brand:wikidata": "Q919641", "check_date": "2025-11-22", "description": "Telephone store", "name": "Verizon", "operator": "Victra", "operator:website": "https://victra.com/stores/wa-seattle-15th/", "operator:wikidata": "Q118402656", "payment:cash": "yes", "payment:credit_cards": "yes", "payment:debit_cards": "yes", "shop": "mobile_phone"}}, {"type": "node", "id": 2081763606, "lat": 47.6369893, "lon": -122.3771714, "tags": {"addr:city": "Seattle", "addr:housenumber": "2001", "addr:postcode": "98119", "addr:state": "WA", "addr:street": "15th Avenue West", "addr:unit": "B", "brand": "Petco", "brand:wikidata": "Q7171798", "check_date": "2025-11-22", "description": "Pet store", "name": "Petco", "opening_hours": "Mo-Sa 09:00-20:00; Su 10:00-19:00", "payment:cash": "yes", "payment:credit_cards": "yes", "payment:debit_cards": "yes", "phone": "+1-206-216-2267", "ref": "1263", "shop": "pet", "website": "https://stores.petco.com"}}, {"type": "node", "id": 2081763609, "lat": 47.6369803, "lon": -122.3769082, "tags": {"addr:city": "Seattle", "addr:housenumber": "2001", "addr:postcode": "98119", "addr:state": "WA", "addr:street": "15th Avenue West", "branch": "Interbay", "brand": "Whole Foods Market", "brand:wikidata": "Q1809448", "check_date": "2025-11-22", "check_date:opening_hours": "2024-10-03", "name": "Whole Foods Market", "opening_hours": "Mo-Su 08:00-21:00", "payment:cash": "yes", "payment:credit_cards": "yes", "payment:debit_cards": "yes", "phone": "+1-206-352-5440", "ref": "interbay", "shop": "supermarket", "website": "https://www.wholefoodsmarket.com/stores/interbay"}}, {"type": "node", "id": 2307189387, "lat": 47.6469895, "lon": -122.398997}, {"type": "node", "id": 2307189388, "lat": 47.6469912, "lon": -122.3992453}, {"type": "node", "id": 2307189389, "lat": 47.6469936, "lon": -122.3996623}, {"type": "node", "id": 2307189390, "lat": 47.6469944, "lon": -122.3997738}, {"type": "node", "id": 2307189408, "lat": 47.6470156, "lon": -122.3992449}, {"type": "node", "id": 2307189410, "lat": 47.6470161, "lon": -122.3993164}, {"type": "node", "id": 2307189413, "lat": 47.6470192, "lon": -122.3989635}, {"type": "node", "id": 2307189414, "lat": 47.6470194, "lon": -122.3989966}, {"type": "node", "id": 2307189420, "lat": 47.6470247, "lon": -122.399877}, {"type": "node", "id": 2307189451, "lat": 47.6470733, "lon": -122.3994794}, {"type": "node", "id": 2307189455, "lat": 47.6470789, "lon": -122.3999545}, {"type": "node", "id": 2307189467, "lat": 47.6470929, "lon": -122.3992495}, {"type": "node", "id": 2307189468, "lat": 47.6470934, "lon": -122.3993153}, {"type": "node", "id": 2307189495, "lat": 47.64712, "lon": -122.3989619}, {"type": "node", "id": 2307189516, "lat": 47.6471455, "lon": -122.3992487}, {"type": "node", "id": 2307189517, "lat": 47.6471459, "lon": -122.3994287}, {"type": "node", "id": 2307189518, "lat": 47.6471464, "lon": -122.3993833}, {"type": "node", "id": 2307189519, "lat": 47.6471483, "lon": -122.3999949}, {"type": "node", "id": 2307189522, "lat": 47.6471653, "lon": -122.399383}, {"type": "node", "id": 2307189523, "lat": 47.6471656, "lon": -122.3994284}, {"type": "node", "id": 2307189552, "lat": 47.6472029, "lon": -122.3990332}, {"type": "node", "id": 2307189553, "lat": 47.6472031, "lon": -122.3990679}, {"type": "node", "id": 2307189564, "lat": 47.6472237, "lon": -122.3999938}, {"type": "node", "id": 2307189622, "lat": 47.6472934, "lon": -122.3999489}, {"type": "node", "id": 2307189659, "lat": 47.6473457, "lon": -122.3998687}, {"type": "node", "id": 2307189665, "lat": 47.6473554, "lon": -122.399394}, {"type": "node", "id": 2307189666, "lat": 47.6473566, "lon": -122.3995778}, {"type": "node", "id": 2307189675, "lat": 47.6473667, "lon": -122.3990308}, {"type": "node", "id": 2307189680, "lat": 47.6473692, "lon": -122.3993938}, {"type": "node", "id": 2307189682, "lat": 47.6473723, "lon": -122.3996549}, {"type": "node", "id": 2307189685, "lat": 47.6473731, "lon": -122.3997659}, {"type": "node", "id": 2307214727, "lat": 47.6485891, "lon": -122.3845393}, {"type": "node", "id": 2307214729, "lat": 47.6485896, "lon": -122.3844911}, {"type": "node", "id": 2307214733, "lat": 47.6485985, "lon": -122.3844912}, {"type": "node", "id": 2307214735, "lat": 47.6485996, "lon": -122.3843764}, {"type": "node", "id": 2307214759, "lat": 47.6486494, "lon": -122.3843774}, {"type": "node", "id": 2307214760, "lat": 47.6486498, "lon": -122.384339}, {"type": "node", "id": 2307214783, "lat": 47.6486824, "lon": -122.3843779}, {"type": "node", "id": 2307214784, "lat": 47.6486828, "lon": -122.3843396}, {"type": "node", "id": 2307214801, "lat": 47.6487152, "lon": -122.3845419}, {"type": "node", "id": 2307214804, "lat": 47.6487167, "lon": -122.3843786}, {"type": "node", "id": 2307214864, "lat": 47.6488403, "lon": -122.3824952}, {"type": "node", "id": 2307214865, "lat": 47.6488415, "lon": -122.3826714}, {"type": "node", "id": 2307214876, "lat": 47.6488751, "lon": -122.3824497}, {"type": "node", "id": 2307214937, "lat": 47.6489897, "lon": -122.3824479}, {"type": "node", "id": 2307214939, "lat": 47.6489912, "lon": -122.3826692}, {"type": "node", "id": 2307215128, "lat": 47.6493148, "lon": -122.3822625}, {"type": "node", "id": 2307215262, "lat": 47.6495424, "lon": -122.3822617}, {"type": "node", "id": 2307215263, "lat": 47.6495425, "lon": -122.3822895}, {"type": "node", "id": 2307215366, "lat": 47.6497073, "lon": -122.3822478}, {"type": "node", "id": 2307215368, "lat": 47.6497074, "lon": -122.3822889}, {"type": "node", "id": 2307215424, "lat": 47.6498316, "lon": -122.3822474}, {"type": "node", "id": 2307221954, "lat": 47.6519989, "lon": -122.3921079}, {"type": "node", "id": 2307221956, "lat": 47.6519991, "lon": -122.392438}, {"type": "node", "id": 2307221973, "lat": 47.6520465, "lon": -122.392438}, {"type": "node", "id": 2307221974, "lat": 47.6520466, "lon": -122.392108}, {"type": "node", "id": 2307226818, "lat": 47.6540324, "lon": -122.3921883}, {"type": "node", "id": 2308478702, "lat": 47.6523798, "lon": -122.4003616}, {"type": "node", "id": 2308478705, "lat": 47.6523811, "lon": -122.4004479}, {"type": "node", "id": 2308478725, "lat": 47.6523969, "lon": -122.4004474}, {"type": "node", "id": 2308478727, "lat": 47.6523988, "lon": -122.4005764}, {"type": "node", "id": 2308478855, "lat": 47.6524387, "lon": -122.4005751}, {"type": "node", "id": 2308478857, "lat": 47.652439, "lon": -122.4005979}, {"type": "node", "id": 2308478884, "lat": 47.6524659, "lon": -122.4003589}, {"type": "node", "id": 2308478886, "lat": 47.6524693, "lon": -122.4005969}, {"type": "node", "id": 2308480119, "lat": 47.6530533, "lon": -122.4005282}, {"type": "node", "id": 2308480121, "lat": 47.6530534, "lon": -122.4006121}, {"type": "node", "id": 2308480143, "lat": 47.6530584, "lon": -122.4003516}, {"type": "node", "id": 2308480145, "lat": 47.6530586, "lon": -122.4004459}, {"type": "node", "id": 2308480180, "lat": 47.6530773, "lon": -122.4004459}, {"type": "node", "id": 2308480182, "lat": 47.6530774, "lon": -122.4005281}, {"type": "node", "id": 2308480352, "lat": 47.653171, "lon": -122.4003513}, {"type": "node", "id": 2308480354, "lat": 47.6531713, "lon": -122.4006118}, {"type": "node", "id": 2308481694, "lat": 47.6538666, "lon": -122.4004234}, {"type": "node", "id": 2308481698, "lat": 47.6538675, "lon": -122.4006849}, {"type": "node", "id": 2308481894, "lat": 47.653948, "lon": -122.4004229}, {"type": "node", "id": 2308481896, "lat": 47.6539483, "lon": -122.4005374}, {"type": "node", "id": 2308481902, "lat": 47.6539495, "lon": -122.4005785}, {"type": "node", "id": 2308481904, "lat": 47.6539499, "lon": -122.4006843}, {"type": "node", "id": 2308481910, "lat": 47.6539812, "lon": -122.4005371}, {"type": "node", "id": 2308481912, "lat": 47.6539814, "lon": -122.4005783}, {"type": "node", "id": 2308823021, "lat": 47.6541681, "lon": -122.4004473}, {"type": "node", "id": 2308823022, "lat": 47.6541698, "lon": -122.4002374}, {"type": "node", "id": 2308823140, "lat": 47.6543578, "lon": -122.4004506}, {"type": "node", "id": 2308823141, "lat": 47.6543594, "lon": -122.4002407}, {"type": "node", "id": 2308823679, "lat": 47.6550477, "lon": -122.4002606}, {"type": "node", "id": 2308823716, "lat": 47.6550803, "lon": -122.4002607}, {"type": "node", "id": 2308823966, "lat": 47.6554938, "lon": -122.4002522}, {"type": "node", "id": 2308823970, "lat": 47.6555081, "lon": -122.4002522}, {"type": "node", "id": 2308859209, "lat": 47.6562221, "lon": -122.3912709}, {"type": "node", "id": 2308859226, "lat": 47.6563068, "lon": -122.3912661}, {"type": "node", "id": 2308859254, "lat": 47.6564753, "lon": -122.3916505}, {"type": "node", "id": 2308859255, "lat": 47.6564739, "lon": -122.3915274}, {"type": "node", "id": 2308859258, "lat": 47.6564968, "lon": -122.39165}, {"type": "node", "id": 2308859259, "lat": 47.6564954, "lon": -122.3915269}, {"type": "node", "id": 2308864184, "lat": 47.6599135, "lon": -122.3980723}, {"type": "node", "id": 2308864622, "lat": 47.6603058, "lon": -122.3980299}, {"type": "node", "id": 2308864628, "lat": 47.6603078, "lon": -122.3978795}, {"type": "node", "id": 2308864702, "lat": 47.6603929, "lon": -122.3980224}, {"type": "node", "id": 2308864705, "lat": 47.6603957, "lon": -122.3977747}, {"type": "node", "id": 2308872041, "lat": 47.6577783, "lon": -122.4006136}, {"type": "node", "id": 2308872042, "lat": 47.657779, "lon": -122.4005286}, {"type": "node", "id": 2308872044, "lat": 47.6577808, "lon": -122.4003679}, {"type": "node", "id": 2308872045, "lat": 47.657782, "lon": -122.4002363}, {"type": "node", "id": 2308872047, "lat": 47.657786, "lon": -122.4005288}, {"type": "node", "id": 2308872049, "lat": 47.6577874, "lon": -122.4003681}, {"type": "node", "id": 2308872148, "lat": 47.6579444, "lon": -122.4006168}, {"type": "node", "id": 2308872151, "lat": 47.6579477, "lon": -122.4002395}, {"type": "node", "id": 2308872818, "lat": 47.659308, "lon": -122.4002209}, {"type": "node", "id": 2308872819, "lat": 47.6593085, "lon": -122.4003248}, {"type": "node", "id": 2308872900, "lat": 47.6594401, "lon": -122.4002705}, {"type": "node", "id": 2308872908, "lat": 47.6594774, "lon": -122.4004898}, {"type": "node", "id": 2308872924, "lat": 47.6595047, "lon": -122.4004587}, {"type": "node", "id": 2308953886, "lat": 47.6318586, "lon": -122.3887141}, {"type": "node", "id": 2308953891, "lat": 47.6318743, "lon": -122.3886791}, {"type": "node", "id": 2308953894, "lat": 47.6318788, "lon": -122.3886861}, {"type": "node", "id": 2308953897, "lat": 47.6319122, "lon": -122.3887992}, {"type": "node", "id": 2308953900, "lat": 47.6319343, "lon": -122.3887686}, {"type": "node", "id": 2308953901, "lat": 47.6319389, "lon": -122.3887758}, {"type": "node", "id": 2308953908, "lat": 47.6320222, "lon": -122.3884722}, {"type": "node", "id": 2308953909, "lat": 47.6320286, "lon": -122.3884823}, {"type": "node", "id": 2308953914, "lat": 47.6320545, "lon": -122.3884465}, {"type": "node", "id": 2308953918, "lat": 47.6320784, "lon": -122.3885824}, {"type": "node", "id": 2308953926, "lat": 47.6320906, "lon": -122.3886018}, {"type": "node", "id": 2308953931, "lat": 47.6321236, "lon": -122.3885561}, {"type": "node", "id": 2308988146, "lat": 47.6336772, "lon": -122.3825565}, {"type": "node", "id": 2308990520, "lat": 47.6282476, "lon": -122.3735028}, {"type": "node", "id": 2308990536, "lat": 47.6284622, "lon": -122.3731209}, {"type": "node", "id": 2308990593, "lat": 47.6298719, "lon": -122.3755951}, {"type": "node", "id": 2308990594, "lat": 47.6299004, "lon": -122.3755987}, {"type": "node", "id": 2308990595, "lat": 47.6298975, "lon": -122.3755538}, {"type": "node", "id": 2308990597, "lat": 47.6299151, "lon": -122.3755758}, {"type": "node", "id": 2308990599, "lat": 47.6299411, "lon": -122.3756554}, {"type": "node", "id": 2308990600, "lat": 47.6299608, "lon": -122.3755678}, {"type": "node", "id": 2308990601, "lat": 47.6299704, "lon": -122.3755508}, {"type": "node", "id": 2308990603, "lat": 47.6299784, "lon": -122.3755938}, {"type": "node", "id": 2308990604, "lat": 47.6300072, "lon": -122.3755988}, {"type": "node", "id": 2308990607, "lat": 47.6301699, "lon": -122.3753218}, {"type": "node", "id": 2308990611, "lat": 47.6303207, "lon": -122.3736769}, {"type": "node", "id": 2308990612, "lat": 47.6303282, "lon": -122.3736865}, {"type": "node", "id": 2308990644, "lat": 47.6313371, "lon": -122.3752602}, {"type": "node", "id": 2308990646, "lat": 47.6313696, "lon": -122.3756017}, {"type": "node", "id": 2308997602, "lat": 47.6560526, "lon": -122.3843682}, {"type": "node", "id": 2308997607, "lat": 47.6560873, "lon": -122.3844783}, {"type": "node", "id": 2308997612, "lat": 47.6561102, "lon": -122.3843282}, {"type": "node", "id": 2308997619, "lat": 47.6561449, "lon": -122.3844383}, {"type": "node", "id": 2308997694, "lat": 47.6569233, "lon": -122.3861979}, {"type": "node", "id": 2308997695, "lat": 47.6569237, "lon": -122.3863303}, {"type": "node", "id": 2308997696, "lat": 47.656929, "lon": -122.3863303}, {"type": "node", "id": 2308997697, "lat": 47.6569294, "lon": -122.3864815}, {"type": "node", "id": 2308997730, "lat": 47.6571299, "lon": -122.3864802}, {"type": "node", "id": 2308997731, "lat": 47.6571307, "lon": -122.3867293}, {"type": "node", "id": 2308997988, "lat": 47.6584788, "lon": -122.3870856}, {"type": "node", "id": 2308997992, "lat": 47.6584825, "lon": -122.3872817}, {"type": "node", "id": 2308997993, "lat": 47.658495, "lon": -122.3870706}, {"type": "node", "id": 2308997994, "lat": 47.6584953, "lon": -122.387085}, {"type": "node", "id": 2308998001, "lat": 47.6585099, "lon": -122.38707}, {"type": "node", "id": 2308998002, "lat": 47.6585102, "lon": -122.3870867}, {"type": "node", "id": 2308998003, "lat": 47.6585111, "lon": -122.3872697}, {"type": "node", "id": 2308998004, "lat": 47.6585113, "lon": -122.3872806}, {"type": "node", "id": 2308998011, "lat": 47.6585448, "lon": -122.3870853}, {"type": "node", "id": 2308998012, "lat": 47.6585482, "lon": -122.3872682}, {"type": "node", "id": 2308998013, "lat": 47.6585506, "lon": -122.3870433}, {"type": "node", "id": 2308998014, "lat": 47.6585546, "lon": -122.3873063}, {"type": "node", "id": 2308998017, "lat": 47.6585894, "lon": -122.387042}, {"type": "node", "id": 2308998018, "lat": 47.6585903, "lon": -122.3870993}, {"type": "node", "id": 2308998019, "lat": 47.6585952, "lon": -122.3872475}, {"type": "node", "id": 2308998020, "lat": 47.6585961, "lon": -122.3873048}, {"type": "node", "id": 2308998021, "lat": 47.6586089, "lon": -122.3870987}, {"type": "node", "id": 2308998022, "lat": 47.6586112, "lon": -122.387247}, {"type": "node", "id": 2308998111, "lat": 47.6591319, "lon": -122.3889787}, {"type": "node", "id": 2308998112, "lat": 47.6591326, "lon": -122.3887126}, {"type": "node", "id": 2308998113, "lat": 47.659133, "lon": -122.3888862}, {"type": "node", "id": 2308998114, "lat": 47.6591331, "lon": -122.3881185}, {"type": "node", "id": 2308998123, "lat": 47.6591448, "lon": -122.3889902}, {"type": "node", "id": 2308998132, "lat": 47.6591769, "lon": -122.3888873}, {"type": "node", "id": 2308998160, "lat": 47.6592757, "lon": -122.389053}, {"type": "node", "id": 2308998174, "lat": 47.6592914, "lon": -122.3890235}, {"type": "node", "id": 2308998175, "lat": 47.6592938, "lon": -122.3890984}, {"type": "node", "id": 2308998176, "lat": 47.6593017, "lon": -122.3890828}, {"type": "node", "id": 2308998178, "lat": 47.6593095, "lon": -122.3889777}, {"type": "node", "id": 2308998181, "lat": 47.6593113, "lon": -122.388821}, {"type": "node", "id": 2308998183, "lat": 47.6593157, "lon": -122.3891219}, {"type": "node", "id": 2308998184, "lat": 47.6593173, "lon": -122.3889946}, {"type": "node", "id": 2308998187, "lat": 47.6593425, "lon": -122.3892337}, {"type": "node", "id": 2308998190, "lat": 47.6593524, "lon": -122.3892205}, {"type": "node", "id": 2308998193, "lat": 47.6593571, "lon": -122.388713}, {"type": "node", "id": 2308998194, "lat": 47.6593572, "lon": -122.3888222}, {"type": "node", "id": 2308998195, "lat": 47.6593576, "lon": -122.388119}, {"type": "node", "id": 2308998225, "lat": 47.6595377, "lon": -122.3881373}, {"type": "node", "id": 2308998226, "lat": 47.6595377, "lon": -122.3886545}, {"type": "node", "id": 2308998258, "lat": 47.6596072, "lon": -122.388635}, {"type": "node", "id": 2308998259, "lat": 47.6596072, "lon": -122.3886545}, {"type": "node", "id": 2308998261, "lat": 47.6596384, "lon": -122.3885951}, {"type": "node", "id": 2308998262, "lat": 47.6596384, "lon": -122.388635}, {"type": "node", "id": 2308998265, "lat": 47.659669, "lon": -122.3881021}, {"type": "node", "id": 2308998266, "lat": 47.659669, "lon": -122.3881373}, {"type": "node", "id": 2308998271, "lat": 47.6597326, "lon": -122.3875942}, {"type": "node", "id": 2308998272, "lat": 47.6597326, "lon": -122.3881021}, {"type": "node", "id": 2308998349, "lat": 47.6603643, "lon": -122.3885952}, {"type": "node", "id": 2308998350, "lat": 47.6603643, "lon": -122.3886752}, {"type": "node", "id": 2308998360, "lat": 47.6604835, "lon": -122.3875715}, {"type": "node", "id": 2308998361, "lat": 47.6604835, "lon": -122.3875943}, {"type": "node", "id": 2308998371, "lat": 47.6605115, "lon": -122.3885946}, {"type": "node", "id": 2308998372, "lat": 47.6605115, "lon": -122.3886752}, {"type": "node", "id": 2308998391, "lat": 47.6606429, "lon": -122.3885946}, {"type": "node", "id": 2308998392, "lat": 47.6606429, "lon": -122.388649}, {"type": "node", "id": 2308998426, "lat": 47.660762, "lon": -122.3875715}, {"type": "node", "id": 2308998427, "lat": 47.660762, "lon": -122.387698}, {"type": "node", "id": 2308998435, "lat": 47.6608078, "lon": -122.3885888}, {"type": "node", "id": 2308998436, "lat": 47.6608078, "lon": -122.388649}, {"type": "node", "id": 2308998437, "lat": 47.6608108, "lon": -122.387698}, {"type": "node", "id": 2308998438, "lat": 47.6608108, "lon": -122.3878415}, {"type": "node", "id": 2308998449, "lat": 47.6608635, "lon": -122.3878415}, {"type": "node", "id": 2308998450, "lat": 47.6608635, "lon": -122.3879131}, {"type": "node", "id": 2308998452, "lat": 47.6608927, "lon": -122.3879131}, {"type": "node", "id": 2308998453, "lat": 47.6608927, "lon": -122.3881304}, {"type": "node", "id": 2308998463, "lat": 47.6609218, "lon": -122.3881304}, {"type": "node", "id": 2308998464, "lat": 47.6609218, "lon": -122.3883552}, {"type": "node", "id": 2308998479, "lat": 47.6609733, "lon": -122.3883552}, {"type": "node", "id": 2308998480, "lat": 47.6609733, "lon": -122.3885889}, {"type": "node", "id": 2308998841, "lat": 47.6629128, "lon": -122.3925715}, {"type": "node", "id": 2308998843, "lat": 47.6629082, "lon": -122.3911937}, {"type": "node", "id": 2308998844, "lat": 47.6629123, "lon": -122.3919478}, {"type": "node", "id": 2308998846, "lat": 47.6629667, "lon": -122.3921212}, {"type": "node", "id": 2308998890, "lat": 47.6630862, "lon": -122.3925698}, {"type": "node", "id": 2308998901, "lat": 47.663103, "lon": -122.3921187}, {"type": "node", "id": 2308998931, "lat": 47.6631839, "lon": -122.3911877}, {"type": "node", "id": 2308998935, "lat": 47.6631861, "lon": -122.391596}, {"type": "node", "id": 2308998962, "lat": 47.6632953, "lon": -122.3915947}, {"type": "node", "id": 2309918123, "lat": 47.6365414, "lon": -122.406571}, {"type": "node", "id": 2309918124, "lat": 47.6365748, "lon": -122.4065215}, {"type": "node", "id": 2309918125, "lat": 47.6366053, "lon": -122.4065137}, {"type": "node", "id": 2309918126, "lat": 47.6366278, "lon": -122.406504}, {"type": "node", "id": 2309918127, "lat": 47.6366455, "lon": -122.4068302}, {"type": "node", "id": 2309918128, "lat": 47.6366712, "lon": -122.4068803, "tags": {"tourism": "viewpoint"}}, {"type": "node", "id": 2309918129, "lat": 47.6367083, "lon": -122.4069525}, {"type": "node", "id": 2309918131, "lat": 47.6367652, "lon": -122.4068011}, {"type": "node", "id": 2309918133, "lat": 47.6368397, "lon": -122.4069234}, {"type": "node", "id": 2309918134, "lat": 47.6368613, "lon": -122.4071389}, {"type": "node", "id": 2309918140, "lat": 47.6369457, "lon": -122.4070224}, {"type": "node", "id": 2310514303, "lat": 47.6452062, "lon": -122.4014932}, {"type": "node", "id": 2310514576, "lat": 47.6454334, "lon": -122.4014641}, {"type": "node", "id": 2310514580, "lat": 47.6454337, "lon": -122.4014875}, {"type": "node", "id": 2310514611, "lat": 47.6454558, "lon": -122.4014635}, {"type": "node", "id": 2310539832, "lat": 47.6389114, "lon": -122.4035538}, {"type": "node", "id": 2310539833, "lat": 47.6389145, "lon": -122.4033896}, {"type": "node", "id": 2310539861, "lat": 47.6389667, "lon": -122.4036031}, {"type": "node", "id": 2310539862, "lat": 47.6389676, "lon": -122.4035561}, {"type": "node", "id": 2310539868, "lat": 47.6389737, "lon": -122.4036034}, {"type": "node", "id": 2310539871, "lat": 47.6389836, "lon": -122.4036212}, {"type": "node", "id": 2310539912, "lat": 47.6390531, "lon": -122.4032681}, {"type": "node", "id": 2310539913, "lat": 47.6390536, "lon": -122.4032447}, {"type": "node", "id": 2310539915, "lat": 47.6390583, "lon": -122.4036243}, {"type": "node", "id": 2310539916, "lat": 47.6390588, "lon": -122.4035958}, {"type": "node", "id": 2310539919, "lat": 47.6390607, "lon": -122.4032793}, {"type": "node", "id": 2310539921, "lat": 47.6390627, "lon": -122.403234}, {"type": "node", "id": 2310539924, "lat": 47.6390695, "lon": -122.4033958}, {"type": "node", "id": 2310539925, "lat": 47.6390717, "lon": -122.4032797}, {"type": "node", "id": 2310539930, "lat": 47.6390884, "lon": -122.403235}, {"type": "node", "id": 2310539932, "lat": 47.63909, "lon": -122.4031455}, {"type": "node", "id": 2310539949, "lat": 47.639148, "lon": -122.4035994}, {"type": "node", "id": 2310539950, "lat": 47.6391488, "lon": -122.4035565}, {"type": "node", "id": 2310539952, "lat": 47.6391518, "lon": -122.4033949}, {"type": "node", "id": 2310539954, "lat": 47.6391543, "lon": -122.4032616}, {"type": "node", "id": 2310539979, "lat": 47.6392265, "lon": -122.4035597}, {"type": "node", "id": 2310539985, "lat": 47.6392295, "lon": -122.4033981}, {"type": "node", "id": 2310540004, "lat": 47.6392546, "lon": -122.4030986}, {"type": "node", "id": 2310540005, "lat": 47.6392558, "lon": -122.4030787}, {"type": "node", "id": 2310540009, "lat": 47.6392626, "lon": -122.4031243}, {"type": "node", "id": 2310540011, "lat": 47.639263, "lon": -122.4030989}, {"type": "node", "id": 2310540013, "lat": 47.6392632, "lon": -122.4032694}, {"type": "node", "id": 2310540014, "lat": 47.6392633, "lon": -122.403266}, {"type": "node", "id": 2310540031, "lat": 47.6392976, "lon": -122.4030949}, {"type": "node", "id": 2310540033, "lat": 47.6392973, "lon": -122.4030743}, {"type": "node", "id": 2310540058, "lat": 47.6393472, "lon": -122.4031244}, {"type": "node", "id": 2310540059, "lat": 47.6393477, "lon": -122.4030969}, {"type": "node", "id": 2310540060, "lat": 47.6393485, "lon": -122.4032728}, {"type": "node", "id": 2310540062, "lat": 47.6393487, "lon": -122.4032657}, {"type": "node", "id": 2310540069, "lat": 47.6393625, "lon": -122.4032663}, {"type": "node", "id": 2310540071, "lat": 47.6393651, "lon": -122.4031251}, {"type": "node", "id": 2310540080, "lat": 47.639381, "lon": -122.4013204}, {"type": "node", "id": 2310540081, "lat": 47.6393811, "lon": -122.4013304}, {"type": "node", "id": 2310540108, "lat": 47.6394278, "lon": -122.4014264}, {"type": "node", "id": 2310540109, "lat": 47.6394282, "lon": -122.4014644}, {"type": "node", "id": 2310540113, "lat": 47.6394342, "lon": -122.4014644}, {"type": "node", "id": 2310540116, "lat": 47.6394436, "lon": -122.4014264}, {"type": "node", "id": 2310540165, "lat": 47.6399348, "lon": -122.4016166}, {"type": "node", "id": 2310547435, "lat": 47.6388412, "lon": -122.4012539}, {"type": "node", "id": 2310547445, "lat": 47.6388539, "lon": -122.4012125}, {"type": "node", "id": 2310547453, "lat": 47.6388617, "lon": -122.4012672}, {"type": "node", "id": 2310547480, "lat": 47.6388973, "lon": -122.4014995}, {"type": "node", "id": 2310547484, "lat": 47.6389055, "lon": -122.401533}, {"type": "node", "id": 2310547492, "lat": 47.6389191, "lon": -122.4015424}, {"type": "node", "id": 2310547502, "lat": 47.6389295, "lon": -122.4015107}, {"type": "node", "id": 2310547519, "lat": 47.6389562, "lon": -122.4015713}, {"type": "node", "id": 2310547526, "lat": 47.6389689, "lon": -122.4015415}, {"type": "node", "id": 2310692533, "lat": 47.6482446, "lon": -122.393433}, {"type": "node", "id": 2310692535, "lat": 47.6482471, "lon": -122.3935289}, {"type": "node", "id": 2310692555, "lat": 47.6482695, "lon": -122.3931447}, {"type": "node", "id": 2310692556, "lat": 47.6482695, "lon": -122.3934281}, {"type": "node", "id": 2310692665, "lat": 47.6484383, "lon": -122.3932116}, {"type": "node", "id": 2310692697, "lat": 47.6484921, "lon": -122.3934171}, {"type": "node", "id": 2310692698, "lat": 47.6484927, "lon": -122.3932282}, {"type": "node", "id": 2310692699, "lat": 47.6484931, "lon": -122.393518}, {"type": "node", "id": 2311366136, "lat": 47.6416187, "lon": -122.3985742}, {"type": "node", "id": 2311366138, "lat": 47.6416197, "lon": -122.3985383}, {"type": "node", "id": 2311366140, "lat": 47.6417024, "lon": -122.3985791}, {"type": "node", "id": 2311366142, "lat": 47.6417034, "lon": -122.3985431}, {"type": "node", "id": 2311366144, "lat": 47.6418859, "lon": -122.3989756}, {"type": "node", "id": 2311366146, "lat": 47.6418866, "lon": -122.3988486}, {"type": "node", "id": 2311366148, "lat": 47.6419061, "lon": -122.3989758}, {"type": "node", "id": 2311366150, "lat": 47.6419068, "lon": -122.3988489}, {"type": "node", "id": 2311366154, "lat": 47.6419804, "lon": -122.3995582}, {"type": "node", "id": 2311366156, "lat": 47.6419881, "lon": -122.3999414}, {"type": "node", "id": 2311366158, "lat": 47.6419952, "lon": -122.3995724}, {"type": "node", "id": 2311366164, "lat": 47.6420022, "lon": -122.399959}, {"type": "node", "id": 2311366166, "lat": 47.6420186, "lon": -122.3999732}, {"type": "node", "id": 2311366170, "lat": 47.6420385, "lon": -122.3999838}, {"type": "node", "id": 2311366192, "lat": 47.6427684, "lon": -122.398669}, {"type": "node", "id": 2311366208, "lat": 47.6428255, "lon": -122.398667}, {"type": "node", "id": 2311366653, "lat": 47.645145, "lon": -122.3988224}, {"type": "node", "id": 2311366654, "lat": 47.6451448, "lon": -122.3986992}, {"type": "node", "id": 2311366655, "lat": 47.6451673, "lon": -122.3988223}, {"type": "node", "id": 2311366656, "lat": 47.6451672, "lon": -122.3986991}, {"type": "node", "id": 2311366665, "lat": 47.6453125, "lon": -122.3984701}, {"type": "node", "id": 2311366666, "lat": 47.6453125, "lon": -122.3985036}, {"type": "node", "id": 2311366671, "lat": 47.6453821, "lon": -122.3985034}, {"type": "node", "id": 2311366672, "lat": 47.6453821, "lon": -122.3984699}, {"type": "node", "id": 2311366691, "lat": 47.6459309, "lon": -122.4003145}, {"type": "node", "id": 2311366692, "lat": 47.6459347, "lon": -122.4005191}, {"type": "node", "id": 2311366693, "lat": 47.6460668, "lon": -122.4005137}, {"type": "node", "id": 2311366694, "lat": 47.6460693, "lon": -122.400647}, {"type": "node", "id": 2311366695, "lat": 47.6460716, "lon": -122.4003088}, {"type": "node", "id": 2311366696, "lat": 47.6460719, "lon": -122.4003278}, {"type": "node", "id": 2311366697, "lat": 47.6461009, "lon": -122.400594}, {"type": "node", "id": 2311366698, "lat": 47.6461018, "lon": -122.4006457}, {"type": "node", "id": 2311366699, "lat": 47.6461266, "lon": -122.4003256}, {"type": "node", "id": 2311366700, "lat": 47.6461316, "lon": -122.4005928}, {"type": "node", "id": 2311417272, "lat": 47.6437255, "lon": -122.3873847}, {"type": "node", "id": 2311417274, "lat": 47.6437254, "lon": -122.3874547}, {"type": "node", "id": 2311417301, "lat": 47.6438092, "lon": -122.3873848}, {"type": "node", "id": 2311417302, "lat": 47.6438091, "lon": -122.3874548}, {"type": "node", "id": 2311423923, "lat": 47.6416996, "lon": -122.3977525}, {"type": "node", "id": 2311424524, "lat": 47.6426003, "lon": -122.3981803}, {"type": "node", "id": 2311424526, "lat": 47.6426004, "lon": -122.3982036}, {"type": "node", "id": 2311424550, "lat": 47.6426539, "lon": -122.3981286}, {"type": "node", "id": 2311424566, "lat": 47.64267, "lon": -122.3981285}, {"type": "node", "id": 2311424580, "lat": 47.6427063, "lon": -122.397832}, {"type": "node", "id": 2311424582, "lat": 47.642707, "lon": -122.3977907}, {"type": "node", "id": 2311424608, "lat": 47.642751, "lon": -122.3977905}, {"type": "node", "id": 2311424609, "lat": 47.6427511, "lon": -122.3978317}, {"type": "node", "id": 2311433764, "lat": 47.6396833, "lon": -122.3965826}, {"type": "node", "id": 2311433771, "lat": 47.639685, "lon": -122.3967878}, {"type": "node", "id": 2311433783, "lat": 47.639704, "lon": -122.3965467}, {"type": "node", "id": 2311433784, "lat": 47.6397043, "lon": -122.3965822}, {"type": "node", "id": 2311433789, "lat": 47.6397212, "lon": -122.397315}, {"type": "node", "id": 2311433791, "lat": 47.6397229, "lon": -122.3975135}, {"type": "node", "id": 2311433810, "lat": 47.6397589, "lon": -122.3971942}, {"type": "node", "id": 2311433812, "lat": 47.6397611, "lon": -122.3975128}, {"type": "node", "id": 2311433815, "lat": 47.6397619, "lon": -122.3976024}, {"type": "node", "id": 2311433827, "lat": 47.6397787, "lon": -122.3967862}, {"type": "node", "id": 2311433874, "lat": 47.6398406, "lon": -122.3989569}, {"type": "node", "id": 2311433875, "lat": 47.6398408, "lon": -122.3988527}, {"type": "node", "id": 2311433900, "lat": 47.639884, "lon": -122.4003787}, {"type": "node", "id": 2311433901, "lat": 47.6398845, "lon": -122.4007064}, {"type": "node", "id": 2311433911, "lat": 47.639914, "lon": -122.3988531}, {"type": "node", "id": 2311433913, "lat": 47.6399144, "lon": -122.3967641}, {"type": "node", "id": 2311433914, "lat": 47.6399147, "lon": -122.3967991}, {"type": "node", "id": 2311433915, "lat": 47.6399148, "lon": -122.3985513}, {"type": "node", "id": 2311433934, "lat": 47.6399399, "lon": -122.4007062}, {"type": "node", "id": 2311433935, "lat": 47.6399401, "lon": -122.4008018}, {"type": "node", "id": 2311433950, "lat": 47.6399532, "lon": -122.3967635}, {"type": "node", "id": 2311433951, "lat": 47.6399535, "lon": -122.3967984}, {"type": "node", "id": 2311433971, "lat": 47.6399857, "lon": -122.3985517}, {"type": "node", "id": 2311433977, "lat": 47.6399914, "lon": -122.4003783}, {"type": "node", "id": 2311433979, "lat": 47.6399921, "lon": -122.4008017}, {"type": "node", "id": 2311433987, "lat": 47.639996, "lon": -122.400076}, {"type": "node", "id": 2311433996, "lat": 47.6400058, "lon": -122.3965217}, {"type": "node", "id": 2311433997, "lat": 47.640006, "lon": -122.3965413}, {"type": "node", "id": 2311434004, "lat": 47.6400314, "lon": -122.3967621}, {"type": "node", "id": 2311434005, "lat": 47.6400317, "lon": -122.3967959}, {"type": "node", "id": 2311434026, "lat": 47.6400673, "lon": -122.4007081}, {"type": "node", "id": 2311434027, "lat": 47.6400673, "lon": -122.4007123}, {"type": "node", "id": 2311434035, "lat": 47.6400767, "lon": -122.3990561}, {"type": "node", "id": 2311434043, "lat": 47.6400856, "lon": -122.3965202}, {"type": "node", "id": 2311434044, "lat": 47.6400857, "lon": -122.3965306}, {"type": "node", "id": 2311434055, "lat": 47.6401034, "lon": -122.4007129}, {"type": "node", "id": 2311434059, "lat": 47.6401155, "lon": -122.4006893}, {"type": "node", "id": 2311434061, "lat": 47.6401265, "lon": -122.3973632}, {"type": "node", "id": 2311434062, "lat": 47.640127, "lon": -122.3974227}, {"type": "node", "id": 2311434068, "lat": 47.6401392, "lon": -122.3965296}, {"type": "node", "id": 2311434073, "lat": 47.6401413, "lon": -122.396794}, {"type": "node", "id": 2311434081, "lat": 47.6401547, "lon": -122.3985846}, {"type": "node", "id": 2311434096, "lat": 47.6401821, "lon": -122.3974218}, {"type": "node", "id": 2311434100, "lat": 47.6401832, "lon": -122.4006903}, {"type": "node", "id": 2311434139, "lat": 47.6402288, "lon": -122.3985846}, {"type": "node", "id": 2311434142, "lat": 47.6402306, "lon": -122.4005717}, {"type": "node", "id": 2311434143, "lat": 47.6402316, "lon": -122.4006899}, {"type": "node", "id": 2311434165, "lat": 47.6402657, "lon": -122.3971847}, {"type": "node", "id": 2311434170, "lat": 47.6402692, "lon": -122.3975928}, {"type": "node", "id": 2311434175, "lat": 47.6402753, "lon": -122.400512}, {"type": "node", "id": 2311434176, "lat": 47.6402758, "lon": -122.4005709}, {"type": "node", "id": 2311434177, "lat": 47.640276, "lon": -122.4006891}, {"type": "node", "id": 2311434178, "lat": 47.6402768, "lon": -122.4007868}, {"type": "node", "id": 2311434179, "lat": 47.6402807, "lon": -122.3989837}, {"type": "node", "id": 2311434180, "lat": 47.640281, "lon": -122.3990537}, {"type": "node", "id": 2311434200, "lat": 47.6403061, "lon": -122.3985866}, {"type": "node", "id": 2311434202, "lat": 47.6403102, "lon": -122.3989834}, {"type": "node", "id": 2311434227, "lat": 47.6403307, "lon": -122.3985866}, {"type": "node", "id": 2311434235, "lat": 47.6403345, "lon": -122.400511}, {"type": "node", "id": 2311434266, "lat": 47.6403867, "lon": -122.3989836}, {"type": "node", "id": 2311434312, "lat": 47.6404587, "lon": -122.400697}, {"type": "node", "id": 2311434313, "lat": 47.6404594, "lon": -122.4007834}, {"type": "node", "id": 2311434320, "lat": 47.6404676, "lon": -122.3989826}, {"type": "node", "id": 2311450381, "lat": 47.6344075, "lon": -122.3927304}, {"type": "node", "id": 2311450382, "lat": 47.6344095, "lon": -122.392877}, {"type": "node", "id": 2311450387, "lat": 47.6344273, "lon": -122.3927107}, {"type": "node", "id": 2311450388, "lat": 47.6344276, "lon": -122.3927298}, {"type": "node", "id": 2311450389, "lat": 47.6344301, "lon": -122.3928764}, {"type": "node", "id": 2311450390, "lat": 47.6344304, "lon": -122.3928998}, {"type": "node", "id": 2311450416, "lat": 47.6345565, "lon": -122.39263}, {"type": "node", "id": 2311450417, "lat": 47.6345575, "lon": -122.392707}, {"type": "node", "id": 2311450426, "lat": 47.6346132, "lon": -122.3928478}, {"type": "node", "id": 2311450427, "lat": 47.6346138, "lon": -122.3928945}, {"type": "node", "id": 2311450430, "lat": 47.63466, "lon": -122.3927759}, {"type": "node", "id": 2311450439, "lat": 47.6346905, "lon": -122.392775}, {"type": "node", "id": 2311450442, "lat": 47.6347279, "lon": -122.3928421}, {"type": "node", "id": 2311450443, "lat": 47.6347285, "lon": -122.3928903}, {"type": "node", "id": 2311450450, "lat": 47.6347812, "lon": -122.3926236}, {"type": "node", "id": 2311450451, "lat": 47.6347823, "lon": -122.3927061}, {"type": "node", "id": 2311450488, "lat": 47.6349237, "lon": -122.3927021}, {"type": "node", "id": 2311450489, "lat": 47.6349239, "lon": -122.39272}, {"type": "node", "id": 2311450490, "lat": 47.634924, "lon": -122.3928629}, {"type": "node", "id": 2311450491, "lat": 47.6349242, "lon": -122.3928847}, {"type": "node", "id": 2311450493, "lat": 47.6349281, "lon": -122.3927199}, {"type": "node", "id": 2311450497, "lat": 47.63493, "lon": -122.3928627}, {"type": "node", "id": 2311484313, "lat": 47.6394471, "lon": -122.3977797}, {"type": "node", "id": 2332530251, "lat": 47.6321093, "lon": -122.375065, "tags": {"addr:city": "Seattle", "addr:housenumber": "1476", "addr:postcode": "98119", "addr:state": "WA", "addr:street": "Elliott Avenue West", "name": "Albert Lee Appliance", "shop": "electronics", "source": "King County GIS;data.seattle.gov", "website": "https://www.albertleeappliance.com/"}}, {"type": "node", "id": 2332534532, "lat": 47.6350106, "lon": -122.3759604}, {"type": "node", "id": 2332534533, "lat": 47.6350107, "lon": -122.375794}, {"type": "node", "id": 2332534598, "lat": 47.6352324, "lon": -122.3757568}, {"type": "node", "id": 2332534622, "lat": 47.635348, "lon": -122.3759608}, {"type": "node", "id": 2332534623, "lat": 47.6353481, "lon": -122.375757}, {"type": "node", "id": 2332534699, "lat": 47.6357295, "lon": -122.3758608}, {"type": "node", "id": 2332534701, "lat": 47.6357304, "lon": -122.3757693}, {"type": "node", "id": 2332534712, "lat": 47.6357439, "lon": -122.375986}, {"type": "node", "id": 2332534713, "lat": 47.6357449, "lon": -122.3757696}, {"type": "node", "id": 2332534715, "lat": 47.6357462, "lon": -122.375639}, {"type": "node", "id": 2332534737, "lat": 47.6358642, "lon": -122.3759886}, {"type": "node", "id": 2332534738, "lat": 47.6358676, "lon": -122.3756415}, {"type": "node", "id": 2332534745, "lat": 47.6360439, "lon": -122.3759784}, {"type": "node", "id": 2332534746, "lat": 47.6360444, "lon": -122.3751372}, {"type": "node", "id": 2332534761, "lat": 47.6361174, "lon": -122.375963}, {"type": "node", "id": 2332534762, "lat": 47.6361174, "lon": -122.3759777}, {"type": "node", "id": 2332534769, "lat": 47.6361847, "lon": -122.3759631}, {"type": "node", "id": 2332534770, "lat": 47.6361847, "lon": -122.3759744}, {"type": "node", "id": 2332534785, "lat": 47.63625, "lon": -122.3759445}, {"type": "node", "id": 2332534786, "lat": 47.63625, "lon": -122.3759745}, {"type": "node", "id": 2332534787, "lat": 47.6362507, "lon": -122.3756865}, {"type": "node", "id": 2332534788, "lat": 47.6362507, "lon": -122.3757071}, {"type": "node", "id": 2332534791, "lat": 47.6362604, "lon": -122.3759445}, {"type": "node", "id": 2332534792, "lat": 47.6362605, "lon": -122.3757966}, {"type": "node", "id": 2332534796, "lat": 47.6362688, "lon": -122.3757966}, {"type": "node", "id": 2332534797, "lat": 47.6362689, "lon": -122.3757071}, {"type": "node", "id": 2332534907, "lat": 47.6366514, "lon": -122.3756869}, {"type": "node", "id": 2332534908, "lat": 47.6366585, "lon": -122.3751426}, {"type": "node", "id": 2423624586, "lat": 47.640319, "lon": -122.4096113}, {"type": "node", "id": 2423624587, "lat": 47.6403249, "lon": -122.4095858}, {"type": "node", "id": 2423624589, "lat": 47.6403462, "lon": -122.409625}, {"type": "node", "id": 2423624590, "lat": 47.6403521, "lon": -122.4095995}, {"type": "node", "id": 2462353389, "lat": 47.6399781, "lon": -122.398153, "tags": {"addr:city": "Seattle", "addr:housenumber": "2410", "addr:postcode": "98199", "addr:street": "32nd Avenue West", "amenity": "dancing_school", "education": "dancing_school", "name": "American Dance Institute", "source": "King County GIS;data.seattle.gov", "website": "https://www.americandanceinstitute.com"}}, {"type": "node", "id": 2462353406, "lat": 47.6401816, "lon": -122.3973622}, {"type": "node", "id": 2462353510, "lat": 47.6408414, "lon": -122.3981635, "tags": {"addr:city": "Seattle", "addr:housenumber": "2438", "addr:postcode": "98199", "addr:street": "32nd Avenue West", "amenity": "pharmacy", "brand": "CVS Pharmacy", "brand:website": "https://www.cvs.com/", "brand:wikidata": "Q2078880", "drive_through": "no", "healthcare": "pharmacy", "name": "CVS Pharmacy", "short_name": "CVS", "source": "King County GIS;data.seattle.gov", "website": "https://www.cvs.com/store-locator/cvs-pharmacy-address/2438+32nd+Ave+West-Seattle-WA-98199/storeid=10794"}}, {"type": "node", "id": 2462353528, "lat": 47.6401815, "lon": -122.3986263, "tags": {"addr:city": "Seattle", "addr:housenumber": "2455", "addr:postcode": "98199", "addr:street": "32nd Avenue West", "name": "Magnolia Garden Center Gift Shop", "shop": "gift", "source": "King County GIS;data.seattle.gov"}}, {"type": "node", "id": 2462353620, "lat": 47.6431149, "lon": -122.4002191}, {"type": "node", "id": 2462353859, "lat": 47.6452583, "lon": -122.3830889, "tags": {"addr:city": "Seattle", "addr:housenumber": "2809", "addr:postcode": "98199", "addr:street": "Thorndyke Avenue West", "addr:unit": "B", "name": "Corner Store", "shop": "convenience", "source": "King County GIS;data.seattle.gov"}}, {"type": "node", "id": 2462353902, "lat": 47.6454394, "lon": -122.3829791, "tags": {"addr:city": "Seattle", "addr:housenumber": "2821", "addr:postcode": "98199", "addr:street": "Thorndyke Avenue West", "amenity": "cafe", "cuisine": "coffee_shop", "name": "The Outer Rim", "source": "King County GIS;data.seattle.gov", "website": "https://www.theouterrimseattle.com"}}, {"type": "node", "id": 2462353915, "lat": 47.6454803, "lon": -122.3829422, "tags": {"addr:city": "Seattle", "addr:housenumber": "2823", "addr:postcode": "98199", "addr:state": "WA", "addr:street": "Thorndyke Avenue West", "amenity": "kindergarten", "education": "kindergarten", "name": "Ivy Blossom Preschool", "preschool": "yes", "source": "King County GIS;data.seattle.gov", "website": "https://ivyblossompreschool.com/"}}, {"type": "node", "id": 2462354459, "lat": 47.6397095, "lon": -122.398843, "tags": {"addr:city": "Seattle", "addr:housenumber": "3210", "addr:postcode": "98199", "addr:state": "WA", "addr:street": "West McGraw Street", "books": "religion", "brand": "Christian Science Reading Room", "brand:wikidata": "Q5110122", "name": "Christian Science Reading Room", "phone": "+1-206-283-6900", "shop": "books", "source": "King County GIS;data.seattle.gov"}}, {"type": "node", "id": 2462354465, "lat": 47.6401131, "lon": -122.3991767, "tags": {"addr:city": "Seattle", "addr:housenumber": "3216", "addr:postcode": "98199", "addr:street": "West Wheeler Street", "addr:unit": "Lower", "amenity": "restaurant", "cuisine": "korean", "name": "Mura Asian Eatery", "source": "King County GIS;data.seattle.gov"}}, {"type": "node", "id": 2462354466, "lat": 47.6394165, "lon": -122.3991557, "tags": {"addr:city": "Seattle", "addr:housenumber": "3217", "addr:postcode": "98199", "addr:street": "West McGraw Street", "amenity": "restaurant", "cuisine": "sushi", "name": "Yume Sushi", "source": "King County GIS;data.seattle.gov"}}, {"type": "node", "id": 2462354468, "lat": 47.6392077, "lon": -122.3992572, "tags": {"addr:city": "Seattle", "addr:housenumber": "3218", "addr:postcode": "98199", "addr:street": "West Lynn Street", "beauty": "nails", "name": "Gnails", "shop": "beauty", "source": "King County GIS;data.seattle.gov"}}, {"type": "node", "id": 2462354476, "lat": 47.6397024, "lon": -122.400155, "tags": {"addr:city": "Seattle", "addr:housenumber": "3308", "addr:postcode": "98199", "addr:street": "West McGraw Street", "name": "Fashwire", "phone": "+1-206-707-5775", "shop": "clothes", "source": "King County GIS;data.seattle.gov"}}, {"type": "node", "id": 2462428043, "lat": 47.6310393, "lon": -122.3744898, "tags": {"addr:city": "Seattle", "addr:housenumber": "1425", "addr:postcode": "98119", "addr:state": "WA", "addr:street": "Elliott Avenue West", "name": "Chef Shop", "shop": "deli", "source": "King County GIS;data.seattle.gov", "website": "https://chefshop.com/"}}, {"type": "node", "id": 2462428231, "lat": 47.6611005, "lon": -122.3917378, "tags": {"addr:city": "Seattle", "addr:housenumber": "2715", "addr:postcode": "98199", "addr:street": "West Fort Street", "amenity": "bar", "name": "Dirty Couch Brewing", "source": "King County GIS;data.seattle.gov"}}, {"type": "node", "id": 2462428236, "lat": 47.6454149, "lon": -122.3823871, "tags": {"addr:city": "Seattle", "addr:housenumber": "2812", "addr:postcode": "98199", "addr:street": "Thorndyke Avenue West", "amenity": "restaurant", "cuisine": "thai;vietnamese", "name": "Time 4 Pho", "source": "King County GIS;data.seattle.gov"}}, {"type": "node", "id": 2462428237, "lat": 47.6452227, "lon": -122.3824741, "tags": {"addr:city": "Seattle", "addr:housenumber": "2814", "addr:postcode": "98199", "addr:street": "Thorndyke Avenue West", "name": "Epic Styles Salon", "shop": "hairdresser", "source": "King County GIS;data.seattle.gov", "website": "http://epicstyles.com"}}, {"type": "node", "id": 2462428239, "lat": 47.6452134, "lon": -122.3826051, "tags": {"addr:city": "Seattle", "addr:housenumber": "2818", "addr:postcode": "98199", "addr:state": "WA", "addr:street": "Thorndyke Avenue West", "amenity": "restaurant", "cuisine": "burger", "name": "Americano", "phone": "+1-206-284-8000", "source": "King County GIS;data.seattle.gov", "website": "https://www.americanoburgers.com/"}}, {"type": "node", "id": 2462428241, "lat": 47.6452532, "lon": -122.382397, "tags": {"addr:city": "Seattle", "addr:housenumber": "2822", "addr:postcode": "98199", "addr:street": "Thorndyke Avenue West", "name": "Lullaby Nail Salon", "shop": "beauty", "source": "King County GIS;data.seattle.gov"}}, {"type": "node", "id": 2462428293, "lat": 47.6565088, "lon": -122.3856524, "tags": {"addr:city": "Seattle", "addr:housenumber": "4020", "addr:postcode": "98199", "addr:street": "23rd Avenue West", "amenity": "animal_boarding", "animal_boarding": "dog", "name": "Metro Dog", "source": "King County GIS;data.seattle.gov"}}, {"type": "node", "id": 2462428301, "lat": 47.6569452, "lon": -122.386248, "tags": {"addr:city": "Seattle", "addr:housenumber": "4035", "addr:postcode": "98199", "addr:state": "WA", "addr:street": "23rd Avenue West", "craft": "arborist", "name": "Seattle Tree Care", "office": "company", "source": "King County GIS;data.seattle.gov", "website": "https://seattletreecare.org/"}}, {"type": "node", "id": 2463124781, "lat": 47.6392918, "lon": -122.4016409, "tags": {"addr:city": "Seattle", "addr:housenumber": "2313", "addr:postcode": "98199", "addr:street": "Viewmont Way West", "name": "Acorn Floral", "shop": "florist", "source": "King County GIS;data.seattle.gov", "website": "https://acornfloral.com/"}}, {"type": "node", "id": 2463124864, "lat": 47.6394283, "lon": -122.4015418, "tags": {"addr:city": "Seattle", "addr:housenumber": "3407", "addr:postcode": "98199", "addr:street": "West McGraw Street", "shop": "vacant", "source": "King County GIS;data.seattle.gov"}}, {"type": "node", "id": 2463124867, "lat": 47.6394314, "lon": -122.4016995, "tags": {"addr:city": "Seattle", "addr:housenumber": "3411", "addr:postcode": "98199", "addr:street": "West McGraw Street", "name": "H & R Block", "office": "accountant", "source": "King County GIS;data.seattle.gov"}}, {"type": "node", "id": 2463213333, "lat": 47.659881, "lon": -122.397739, "tags": {"addr:city": "Seattle", "addr:housenumber": "3101", "addr:postcode": "98199", "addr:street": "West Jameson Street", "amenity": "restaurant", "check_date": "2024-12-06", "cuisine": "lebanese", "name": "Damoori Kitchen", "opening_hours": "Tu-Su 11:30-19:00", "outdoor_seating": "yes", "phone": "+1-206-257-5947", "source": "King County GIS;data.seattle.gov", "website": "https://www.damoorikitchen.com"}}, {"type": "node", "id": 2463213348, "lat": 47.6602121, "lon": -122.3979962, "tags": {"addr:city": "Seattle", "addr:housenumber": "3147", "addr:postcode": "98199", "addr:street": "West Government Way", "check_date": "2024-12-06", "name": "Universal Salon", "opening_hours": "Mo-Fr 10:00-19:00; Sa 10:00-18:00", "phone": "+1 206-281-3544", "shop": "hairdresser", "source": "King County GIS;data.seattle.gov"}}, {"type": "node", "id": 2463213398, "lat": 47.647021, "lon": -122.3995596}, {"type": "node", "id": 2463213477, "lat": 47.6485595, "lon": -122.3989439}, {"type": "node", "id": 2463213534, "lat": 47.6505885, "lon": -122.3822704, "tags": {"addr:city": "Seattle", "addr:housenumber": "3407", "addr:postcode": "98199", "addr:street": "Gilman Avenue West", "amenity": "bar", "name": "Boxcar Ale House", "source": "King County GIS;data.seattle.gov"}}, {"type": "node", "id": 2463213954, "lat": 47.6559581, "lon": -122.3870862, "tags": {"addr:city": "Seattle", "addr:housenumber": "4001", "addr:postcode": "98199", "addr:street": "Gilman Avenue West", "amenity": "cafe", "name": "Blue Heron", "source": "King County GIS;data.seattle.gov"}}, {"type": "node", "id": 2463213983, "lat": 47.6577752, "lon": -122.3892433, "tags": {"addr:city": "Seattle", "addr:housenumber": "4207", "addr:postcode": "98199", "addr:street": "Gilman Avenue West", "amenity": "restaurant", "cuisine": "teriyaki", "name": "Teriyaki Bowl", "source": "King County GIS;data.seattle.gov"}}, {"type": "node", "id": 2463213990, "lat": 47.6579866, "lon": -122.3894954, "tags": {"addr:city": "Seattle", "addr:housenumber": "4217", "addr:postcode": "98199", "addr:street": "Gilman Avenue West", "name": "Midnite Mart", "opening_hours": "Mo-Fr 06:00-23:00; Sa 07:00-23:00; Su 07:00-22:30", "shop": "convenience", "source": "King County GIS;data.seattle.gov"}}, {"type": "node", "id": 2491749001, "lat": 47.663198, "lon": -122.3910859}, {"type": "node", "id": 2669581703, "lat": 47.6394639, "lon": -122.398949, "tags": {"amenity": "post_box", "collection_times": "Mo-Fr 11:30,17:00; Sa 13:30,15:00", "operator": "United States Postal Service", "operator:short": "USPS", "operator:type": "public", "operator:website": "https://www.usps.com", "operator:wikidata": "Q668687", "operator:wikipedia": "en:United States Postal Service", "short_name": "USPS"}}, {"type": "node", "id": 2669581714, "lat": 47.6401194, "lon": -122.399791, "tags": {"addr:city": "Seattle", "addr:housenumber": "2425", "addr:postcode": "98199", "addr:street": "33rd Avenue West", "addr:unit": "D", "name": "Sell Your Sole Consignment Boutique", "second_hand": "only", "shop": "clothes", "source": "King County GIS"}}, {"type": "node", "id": 2669581763, "lat": 47.6398277, "lon": -122.398188, "tags": {"amenity": "atm", "brand": "U.S. Bank", "brand:wikidata": "Q739084", "name": "U.S. Bank", "operator": "U.S. Bank", "operator:wikidata": "Q739084", "operator:wikipedia": "en:U.S. Bancorp"}}, {"type": "node", "id": 2669581770, "lat": 47.6397087, "lon": -122.398902, "tags": {"addr:city": "Seattle", "addr:housenumber": "3210 1/2", "addr:postcode": "98199", "addr:state": "WA", "addr:street": "West McGraw Street", "name": "Studio K Design", "phone": "+1-206-283-4247", "shop": "hairdresser", "website": "https://studiokdesignteam.com/"}}, {"type": "node", "id": 2669581772, "lat": 47.6397054, "lon": -122.399124, "tags": {"addr:city": "Seattle", "addr:housenumber": "3214", "addr:postcode": "98199", "addr:state": "WA", "addr:street": "West McGraw Street", "name": "Windermere Real Esate", "office": "estate_agent", "phone": "+1-206-284-8989", "website": "https://windermere-magnolia.com"}}, {"type": "node", "id": 2669581775, "lat": 47.6394169, "lon": -122.3984432, "tags": {"amenity": "waste_basket"}}, {"type": "node", "id": 2669581777, "lat": 47.6394373, "lon": -122.3984423, "tags": {"amenity": "recycling", "recycling_type": "container"}}, {"type": "node", "id": 2669581783, "lat": 47.6392527, "lon": -122.3980293, "tags": {"addr:city": "Seattle", "addr:housenumber": "2236", "addr:postcode": "98199", "addr:street": "32nd Avenue West", "addr:unit": "B", "name": "Pet Pros", "shop": "pet"}}, {"type": "node", "id": 2669581787, "lat": 47.6392765, "lon": -122.3975501, "tags": {"addr:housenumber": "3111", "addr:street": "West McGraw Street", "addr:unit": "102", "check_date": "2025-06-02", "name": "Magnolia Paw Spa", "opening_hours": "Tu-Sa 08:30-16:00; \"by appointment only\"", "phone": "+1-206-281-9663", "shop": "pet_grooming"}}, {"type": "node", "id": 2726475207, "lat": 47.6546226, "lon": -122.4102701}, {"type": "node", "id": 2726475258, "lat": 47.655592, "lon": -122.4100121}, {"type": "node", "id": 2737359394, "lat": 47.6562649, "lon": -122.4057727, "tags": {"amenity": "drinking_water"}}, {"type": "node", "id": 2737359540, "lat": 47.6579166, "lon": -122.4060169}, {"type": "node", "id": 2737359587, "lat": 47.6580318, "lon": -122.4051929}, {"type": "node", "id": 2737359589, "lat": 47.6580318, "lon": -122.4052489}, {"type": "node", "id": 2737359591, "lat": 47.6580331, "lon": -122.4054655}, {"type": "node", "id": 2737359593, "lat": 47.6580357, "lon": -122.4057419}, {"type": "node", "id": 2737359623, "lat": 47.6581138, "lon": -122.4052547}, {"type": "node", "id": 2737359625, "lat": 47.6581138, "lon": -122.4058018}, {"type": "node", "id": 2737359700, "lat": 47.6582459, "lon": -122.4064417}, {"type": "node", "id": 2754200045, "lat": 47.655738, "lon": -122.419848, "tags": {"amenity": "bench", "backrest": "yes"}}, {"type": "node", "id": 2754200056, "lat": 47.6557918, "lon": -122.4198968, "tags": {"amenity": "bench", "backrest": "yes"}}, {"type": "node", "id": 2754200212, "lat": 47.6561857, "lon": -122.420257, "tags": {"amenity": "bench", "backrest": "yes"}}, {"type": "node", "id": 2754200417, "lat": 47.6570413, "lon": -122.4215967, "tags": {"amenity": "bench", "backrest": "yes"}}, {"type": "node", "id": 2791844433, "lat": 47.6563156, "lon": -122.3845191, "tags": {"addr:city": "Seattle", "addr:housenumber": "2122", "addr:postcode": "98199", "addr:street": "West Emerson Place", "amenity": "restaurant", "cuisine": "pizza", "name": "Seattle Magnolia Pizza & Pasta", "website": "https://www.amantepizzaandpasta.com/location/magnolia"}}, {"type": "node", "id": 2791844436, "lat": 47.6563132, "lon": -122.3843831, "tags": {"amenity": "fast_food", "cuisine": "teriyaki", "name": "Sunny Teriyaki"}}, {"type": "node", "id": 2915120179, "lat": 47.6326802, "lon": -122.398804}, {"type": "node", "id": 2967925032, "lat": 47.6322958, "lon": -122.3985058}, {"type": "node", "id": 2995333543, "lat": 47.6437946, "lon": -122.3873863, "tags": {"addr:city": "Seattle", "addr:housenumber": "2610", "addr:postcode": "98199", "addr:street": "24th Avenue West", "amenity": "waste_basket", "source:addr:id": "944956"}}, {"type": "node", "id": 3021598403, "lat": 47.6396295, "lon": -122.3984372, "tags": {"power": "pole"}}, {"type": "node", "id": 3021598404, "lat": 47.6395128, "lon": -122.3984369}, {"type": "node", "id": 3023702439, "lat": 47.6422407, "lon": -122.398169}, {"type": "node", "id": 3023702440, "lat": 47.6422401, "lon": -122.3976956}, {"type": "node", "id": 3023702441, "lat": 47.6420919, "lon": -122.3976961}, {"type": "node", "id": 3023702442, "lat": 47.6420925, "lon": -122.3981695}, {"type": "node", "id": 3023702443, "lat": 47.641071, "lon": -122.3981844}, {"type": "node", "id": 3023702444, "lat": 47.6410676, "lon": -122.3977086}, {"type": "node", "id": 3023702445, "lat": 47.64092, "lon": -122.3977109}, {"type": "node", "id": 3023702446, "lat": 47.6409228, "lon": -122.3981058}, {"type": "node", "id": 3023702447, "lat": 47.6409666, "lon": -122.3981051}, {"type": "node", "id": 3023702448, "lat": 47.6409672, "lon": -122.3981861}, {"type": "node", "id": 3023702449, "lat": 47.6397767, "lon": -122.4007804}, {"type": "node", "id": 3023702450, "lat": 47.6397758, "lon": -122.4005028}, {"type": "node", "id": 3023702451, "lat": 47.6396773, "lon": -122.4004693}, {"type": "node", "id": 3023702452, "lat": 47.6396782, "lon": -122.4007804}, {"type": "node", "id": 3023702453, "lat": 47.6397505, "lon": -122.4004652}, {"type": "node", "id": 3023702454, "lat": 47.6394097, "lon": -122.40224}, {"type": "node", "id": 3023702455, "lat": 47.6394094, "lon": -122.4021135}, {"type": "node", "id": 3023702456, "lat": 47.6392189, "lon": -122.4020506}, {"type": "node", "id": 3023702457, "lat": 47.6392194, "lon": -122.4022412}, {"type": "node", "id": 3023702458, "lat": 47.639286, "lon": -122.4021143}, {"type": "node", "id": 3023702459, "lat": 47.6392858, "lon": -122.4020502}, {"type": "node", "id": 3023702460, "lat": 47.6453845, "lon": -122.4014888}, {"type": "node", "id": 3023702461, "lat": 47.6453166, "lon": -122.4014902}, {"type": "node", "id": 3023702462, "lat": 47.6453854, "lon": -122.4015606},