{"version": 0.6, "generator": "Overpass API 0.7.62.8 e802775f", "osm3s": {"timestamp_osm_base": "2025-12-12T22:51:04Z", "copyright": "The data included in this document is from www.openstreetmap.org. The data is made available under ODbL."}, "elements": [{"type": "node", "id": 3236734458, "lat": 39.5779848, "lon": -104.9294643}, {"type": "node", "id": 3236734459, "lat": 39.577982, "lon": -104.9292909}, {"type": "node", "id": 3236734460, "lat": 39.5780006, "lon": -104.9292908}, {"type": "node", "id": 3236734861, "lat": 39.5779965, "lon": -104.9290575}, {"type": "node", "id": 3236734862, "lat": 39.5780399, "lon": -104.9290038}, {"type": "node", "id": 3236734863, "lat": 39.5780399, "lon": -104.9289309}, {"type": "node", "id": 3236734864, "lat": 39.5779985, "lon": -104.9288805}, {"type": "node", "id": 3236734865, "lat": 39.5779965, "lon": -104.9286337}, {"type": "node", "id": 3236734866, "lat": 39.577982, "lon": -104.9286337}, {"type": "node", "id": 3236734867, "lat": 39.577982, "lon": -104.9281911}, {"type": "node", "id": 3236734868, "lat": 39.5779426, "lon": -104.9281905}, {"type": "node", "id": 3236734869, "lat": 39.5779434, "lon": -104.9278628}, {"type": "node", "id": 3236734870, "lat": 39.5774404, "lon": -104.9278707}, {"type": "node", "id": 3236734871, "lat": 39.5774507, "lon": -104.9294652}, {"type": "way", "id": 317410985, "nodes": [3236734458, 3236734459, 3236734460, 3236734861, 3236734862, 3236734863, 3236734864, 3236734865, 3236734866, 3236734867, 3236734868, 3236734869, 3236734870, 3236734871, 3236734458], "tags": {"addr:city": "Centennial", "addr:housenumber": "5000", "addr:postcode": "80122", "addr:state": "CO", "addr:street": "East Dry Creek Road", "brand": "Life Time", "brand:wikidata": "Q6545004", "building": "yes", "leisure": "fitness_centre", "name": "Life Time", "opening_hours": "24/7", "phone": "+1-720-489-1400", "website": "https://www.lifetime.life/life-time-locations/co-centennial.html;https://www.lifetime.life/life-time-locations/co-centennial-tennis.html"}}]}