{"version": 0.6, "generator": "Overpass API 0.7.62.8 e802775f", "osm3s": {"timestamp_osm_base": "2025-10-31T07:32:51Z", "copyright": "The data included in this document is from www.openstreetmap.org. The data is made available under ODbL."}, "elements": [{"type": "node", "id": 357294710, "lat": 44.6139328, "lon": -123.6307742, "tags": {"addr:city": "Blodgett", "addr:full": "29541 Highway 20", "addr:housenumber": "29541", "addr:postcode": "97326", "addr:state": "OR", "addr:street": "Highway 20", "alt_name": "Ellmaker Rest Stop", "ele": "224", "gnis:feature_id": "1130882", "leisure": "park", "name": "Ellmaker State Wayside"}}, {"type": "node", "id": 9779654849, "lat": 44.3663315, "lon": -123.6884111}, {"type": "node", "id": 9779654850, "lat": 44.3656758, "lon": -123.6884701}, {"type": "node", "id": 9779654851, "lat": 44.3657448, "lon": -123.6890844}, {"type": "node", "id": 9779654852, "lat": 44.3657429, "lon": -123.6900097}, {"type": "node", "id": 9779654853, "lat": 44.3658713, "lon": -123.690066}, {"type": "node", "id": 12552550456, "lat": 44.3872573, "lon": -123.8322031}, {"type": "node", "id": 12552550457, "lat": 44.3871659, "lon": -123.8320907}, {"type": "node", "id": 12552550458, "lat": 44.3870327, "lon": -123.8320383}, {"type": "node", "id": 12552550459, "lat": 44.3863809, "lon": -123.8310693}, {"type": "node", "id": 12552550460, "lat": 44.3864602, "lon": -123.8309938}, {"type": "node", "id": 12552550461, "lat": 44.3868345, "lon": -123.8311078}, {"type": "node", "id": 12552550462, "lat": 44.3870415, "lon": -123.8313682}, {"type": "node", "id": 12552550463, "lat": 44.3874169, "lon": -123.8319705}, {"type": "way", "id": 1064888322, "nodes": [9779654853, 9779654852, 9779654851, 9779654850, 9779654849, 9779654853], "tags": {"addr:state": "OR", "ele": "68", "gnis:feature_id": "1135708", "leisure": "park", "name": "Campbell County Park"}}, {"type": "way", "id": 1356275280, "nodes": [12552550456, 12552550457, 12552550458, 12552550459, 12552550460, 12552550461, 12552550462, 12552550463, 12552550456], "tags": {"leisure": "park", "name": "Mike Bauer Wayside"}}]}