{"version": 0.6, "generator": "Overpass API 0.7.62.8 e802775f", "osm3s": {"timestamp_osm_base": "2025-12-08T22:17:00Z", "copyright": "The data included in this document is from www.openstreetmap.org. The data is made available under ODbL."}, "elements": [{"type": "node", "id": 357971302, "lat": 45.0201365, "lon": -109.9331134, "tags": {"amenity": "place_of_worship", "ele": "2308", "gnis:feature_id": "1743169", "name": "Saint Johns Catholic Church", "religion": "christian"}}, {"type": "node", "id": 357971591, "lat": 45.0198426, "lon": -109.9321809, "tags": {"addr:housenumber": "208", "addr:street": "East Main Street", "amenity": "post_office", "ele": "2308", "gnis:feature_id": "1743317", "name": "Cooke City Post Office", "operator": "United States Postal Service", "operator:short": "USPS", "operator:type": "public", "operator:website": "https://www.usps.com", "operator:wikidata": "Q668687", "operator:wikipedia": "en:United States Postal Service"}}, {"type": "node", "id": 2512207403, "lat": 45.0190879, "lon": -109.9345661}, {"type": "node", "id": 2512207405, "lat": 45.0191145, "lon": -109.9344452}, {"type": "node", "id": 2512207406, "lat": 45.0193514, "lon": -109.934682}, {"type": "node", "id": 2512207407, "lat": 45.019378, "lon": -109.9345611}, {"type": "node", "id": 3040237470, "lat": 45.0200411, "lon": -109.9331051, "tags": {"addr:housenumber": "115", "addr:street": "East Main Street", "amenity": "cafe", "name": "Beartooth Brew"}}, {"type": "node", "id": 3040237472, "lat": 45.0202905, "lon": -109.9309161, "tags": {"addr:housenumber": "302", "addr:street": "East Main Street", "guide": "hunting;fishing;outdoor", "name": "Beartooth Plateau Outfitters", "office": "guide", "phone": "+1-800-253-8545", "website": "http://www.elkhuntinmontana.com/"}}, {"type": "node", "id": 3040237474, "lat": 45.0194155, "lon": -109.934294, "tags": {"addr:city": "Cooke City", "addr:housenumber": "102", "addr:state": "MT", "addr:street": "East Main Street", "amenity": "restaurant", "cuisine": "asian;malaysian;regional;burger", "delivery": "no", "name": "Montasia", "takeaway": "yes", "wheelchair": "yes"}}, {"type": "node", "id": 3040237475, "lat": 45.0197525, "lon": -109.9324323, "tags": {"addr:housenumber": "204", "addr:street": "East Main Street", "fax": "+1 406 8382164", "name": "Cooke City Exxon", "phone": "+1 406 8382244", "shop": "convenience", "website": "https://cookecityexxon.com/"}}, {"type": "node", "id": 3040237479, "lat": 45.0195273, "lon": -109.9337604, "tags": {"addr:housenumber": "108", "addr:street": "East Main Street", "amenity": "casino", "name": "Miners Saloon Casino & Emporium"}}, {"type": "node", "id": 3040237480, "lat": 45.0202252, "lon": -109.9321751, "tags": {"addr:city": "Cooke City", "addr:postcode": "59020-1018", "addr:state": "MT", "name": "Yellowstone Trading Post", "shop": "gift"}}, {"type": "node", "id": 3040237482, "lat": 45.019957, "lon": -109.9330358, "tags": {"addr:city": "Cooke City", "addr:postcode": "59020-1018", "addr:state": "MT", "amenity": "fuel", "brand": "Sinclair", "brand:wikidata": "Q1290900", "check_date": "2024-09-25", "name": "Sinclair", "operator": "Beartooth Brew", "phone": "+1 406-838-2960", "self_service": "yes", "source": "survey", "website": "https://stations.sinclairoil.com/mt/cooke-city/115-main-st-e."}}, {"type": "node", "id": 3391727620, "lat": 45.0195738, "lon": -109.9353099}, {"type": "node", "id": 3391727621, "lat": 45.0196396, "lon": -109.9353381}, {"type": "node", "id": 3391727622, "lat": 45.0196444, "lon": -109.9353159}, {"type": "node", "id": 3391727623, "lat": 45.0197697, "lon": -109.9353696}, {"type": "node", "id": 3391727624, "lat": 45.0197954, "lon": -109.9352491}, {"type": "node", "id": 3391727625, "lat": 45.0194473, "lon": -109.9351001}, {"type": "node", "id": 3391727626, "lat": 45.019402, "lon": -109.9353118}, {"type": "node", "id": 3391727641, "lat": 45.0186383, "lon": -109.9376844}, {"type": "node", "id": 3391727642, "lat": 45.0186677, "lon": -109.9375544}, {"type": "node", "id": 3391727643, "lat": 45.0184835, "lon": -109.9374712}, {"type": "node", "id": 3391727644, "lat": 45.0184542, "lon": -109.9376012}, {"type": "node", "id": 3391733058, "lat": 45.0196886, "lon": -109.9331644}, {"type": "node", "id": 3391733059, "lat": 45.0195893, "lon": -109.9331223}, {"type": "node", "id": 3391733060, "lat": 45.0196216, "lon": -109.9329697}, {"type": "node", "id": 3391733061, "lat": 45.0197209, "lon": -109.9330117}, {"type": "node", "id": 4506030721, "lat": 45.0199129, "lon": -109.9320289, "tags": {"amenity": "restaurant", "name": "Prospector"}}, {"type": "node", "id": 4506030738, "lat": 45.0198199, "lon": -109.9323969}, {"type": "node", "id": 4506030739, "lat": 45.0197725, "lon": -109.9325444}, {"type": "node", "id": 4506030740, "lat": 45.0198277, "lon": -109.9325799}, {"type": "node", "id": 4506030741, "lat": 45.0198751, "lon": -109.9324324}, {"type": "node", "id": 4561516490, "lat": 45.0196089, "lon": -109.9333763, "tags": {"shop": "antiques"}}, {"type": "node", "id": 6001653069, "lat": 45.0199864, "lon": -109.9317862, "tags": {"amenity": "pub", "name": "Ore House Saloon"}}, {"type": "node", "id": 6001653073, "lat": 45.0192061, "lon": -109.9369302, "tags": {"access": "yes", "amenity": "toilets", "fee": "no", "wheelchair": "yes"}}, {"type": "node", "id": 6001653074, "lat": 45.0200465, "lon": -109.9326728, "tags": {"addr:city": "Cooke City", "addr:housenumber": "201", "addr:postcode": "59020-1018", "addr:state": "MT", "addr:street": "East Main Street", "amenity": "restaurant", "cuisine": "barbecue", "name": "Buns N Beds Deli", "outdoor_seating": "no", "phone": "+1 406 8382030", "smoking": "no", "website": "http://home.earthlink.net/~bunsnbeds/", "wheelchair": "yes"}}, {"type": "node", "id": 6001653075, "lat": 45.0199089, "lon": -109.9319085, "tags": {"amenity": "atm"}}, {"type": "node", "id": 6001653078, "lat": 45.0191573, "lon": -109.9368771, "tags": {"amenity": "drinking_water", "wheelchair": "yes"}}, {"type": "node", "id": 6001653079, "lat": 45.0201226, "lon": -109.9324239, "tags": {"amenity": "restaurant", "name": "Beartooth Cafe"}}, {"type": "node", "id": 6003370137, "lat": 45.0192787, "lon": -109.9364288, "tags": {"amenity": "fire_station", "name": "Cooke City Emergency Services"}}, {"type": "node", "id": 6008642889, "lat": 45.0191381, "lon": -109.9367287}, {"type": "node", "id": 6008642898, "lat": 45.0192411, "lon": -109.9365217}, {"type": "node", "id": 6008642899, "lat": 45.0191832, "lon": -109.9367514}, {"type": "node", "id": 6008642900, "lat": 45.0190803, "lon": -109.9366998}, {"type": "node", "id": 6008642901, "lat": 45.019123, "lon": -109.9365285}, {"type": "node", "id": 6008642902, "lat": 45.0191382, "lon": -109.9364694}, {"type": "node", "id": 6008642903, "lat": 45.0191896, "lon": -109.9364958}, {"type": "node", "id": 6008642906, "lat": 45.0195591, "lon": -109.935379}, {"type": "node", "id": 7863156478, "lat": 45.0193703, "lon": -109.9345959, "tags": {"entrance": "yes"}}, {"type": "node", "id": 7863156480, "lat": 45.0191583, "lon": -109.9368529, "tags": {"amenity": "waste_basket"}}, {"type": "node", "id": 11177428659, "lat": 45.0178071, "lon": -109.9363964, "tags": {"amenity": "waste_transfer_station"}}, {"type": "node", "id": 11986211370, "lat": 45.0190801, "lon": -109.9354749, "tags": {"amenity": "cafe", "name": "Cooke City Coffee"}}, {"type": "way", "id": 243864014, "nodes": [2512207406, 7863156478, 2512207407, 2512207405, 2512207403, 2512207406], "tags": {"addr:housenumber": "101", "addr:state": "MT", "addr:street": "West Main Street", "alt_name": "Cooke City General Store", "building": "retail", "name": "Cooke City Store", "phone": "+1 406 8382234", "shop": "convenience", "start_date": "1886", "website": "https://cookecitystore.com/"}}, {"type": "way", "id": 332063700, "nodes": [6008642906, 3391727620, 3391727621, 3391727622, 3391727623, 3391727624, 3391727625, 3391727626, 6008642906], "tags": {"access": "private", "addr:city": "Cooke City", "addr:housenumber": "114", "addr:postcode": "59020", "addr:state": "MT", "addr:street": "West Main Street", "amenity": "bar", "brewery": "yes", "building": "yes", "description": "Former motel.", "name": "Hoosier's Motel & Bar", "smoking": "outside", "tourism": "motel"}}, {"type": "way", "id": 332063704, "nodes": [3391727641, 3391727642, 3391727643, 3391727644, 3391727641], "tags": {"brand": "Yamaha", "building": "yes", "name": "Cooke City Yamaha", "shop": "motorcycle"}}, {"type": "way", "id": 332063724, "nodes": [3391733058, 3391733059, 3391733060, 3391733061, 3391733058], "tags": {"addr:city": "Cooke City", "addr:housenumber": "214", "addr:state": "MT", "addr:street": "Main Street", "amenity": "restaurant", "building": "yes", "name": "The Bistro", "phone": "+1-406-838-2160"}}, {"type": "way", "id": 453950476, "nodes": [4506030741, 4506030738, 4506030739, 4506030740, 4506030741], "tags": {"addr:city": "Cooke City", "addr:postcode": "59020-1018", "addr:state": "MT", "amenity": "fuel", "brand": "Exxon", "brand:wikidata": "Q4781944", "building": "roof", "fuel:diesel": "yes", "name": "Exxon"}}, {"type": "way", "id": 637318392, "nodes": [6008642898, 6008642899, 6008642889, 6008642900, 6008642901, 6008642902, 6008642903, 6008642898], "tags": {"amenity": "parking"}}]}