{"version": 0.6, "generator": "Overpass API 0.7.62.8 e802775f", "osm3s": {"timestamp_osm_base": "2025-12-06T05:14:51Z", "copyright": "The data included in this document is from www.openstreetmap.org. The data is made available under ODbL."}, "elements": [{"type": "node", "id": 2923585670, "lat": 43.650192, "lon": -116.280102}, {"type": "node", "id": 2923646212, "lat": 43.648142, "lon": -116.27893}, {"type": "node", "id": 2923646213, "lat": 43.647479, "lon": -116.278038}, {"type": "node", "id": 2923646218, "lat": 43.6460325, "lon": -116.2732844, "tags": {"addr:city": "Garden City", "addr:housenumber": "5310", "addr:postcode": "83714", "addr:state": "ID", "addr:street": "West Chinden Boulevard", "name": "Wagon Works", "shop": "car_repair"}}, {"type": "node", "id": 2923646219, "lat": 43.645867, "lon": -116.273065}, {"type": "node", "id": 2923646220, "lat": 43.6456591, "lon": -116.2724425, "tags": {"addr:city": "Garden City", "addr:housenumber": "5290", "addr:postcode": "83714", "addr:state": "ID", "addr:street": "West Chinden Boulevard", "name": "Street Sounds", "shop": "car_audio"}}, {"type": "node", "id": 2923646226, "lat": 43.6452142, "lon": -116.2715725, "tags": {"addr:city": "Garden City", "addr:housenumber": "5254", "addr:postcode": "83714", "addr:state": "ID", "addr:street": "West Chinden Boulevard", "brand": "State Farm", "brand:wikidata": "Q2007336", "name": "State Farm - Phil Drick, CLU", "office": "insurance"}}, {"type": "node", "id": 5042206671, "lat": 43.6480992, "lon": -116.2798861, "tags": {"name": "Upper Cuts", "shop": "hairdresser"}}, {"type": "node", "id": 5662469221, "lat": 43.6450744, "lon": -116.2713189, "tags": {"addr:city": "Garden City", "addr:housenumber": "5242", "addr:postcode": "83714", "addr:state": "ID", "addr:street": "West Chinden Boulevard", "name": "Meriwether Cider Company", "shop": "beverages"}}, {"type": "node", "id": 6214223095, "lat": 43.6441213, "lon": -116.2785256}, {"type": "node", "id": 6214223096, "lat": 43.6441032, "lon": -116.2782765}, {"type": "node", "id": 6214223097, "lat": 43.6442125, "lon": -116.2782481}, {"type": "node", "id": 6214223098, "lat": 43.6440902, "lon": -116.2782987}, {"type": "node", "id": 6258427540, "lat": 43.6456831, "lon": -116.2772514}, {"type": "node", "id": 6258427541, "lat": 43.6456841, "lon": -116.2770999}, {"type": "node", "id": 6258427542, "lat": 43.6450213, "lon": -116.2770918}, {"type": "node", "id": 6258427543, "lat": 43.645032, "lon": -116.2754282}, {"type": "node", "id": 6258427544, "lat": 43.6456518, "lon": -116.2754359}, {"type": "node", "id": 6258427545, "lat": 43.6460982, "lon": -116.2762834}, {"type": "node", "id": 7215539770, "lat": 43.646282, "lon": -116.272658}, {"type": "node", "id": 7215575818, "lat": 43.64813, "lon": -116.278726}, {"type": "node", "id": 7215575832, "lat": 43.647736, "lon": -116.277802}, {"type": "node", "id": 7215575901, "lat": 43.64571, "lon": -116.272692}, {"type": "node", "id": 7215576510, "lat": 43.646212, "lon": -116.272493}, {"type": "node", "id": 7215576684, "lat": 43.64824, "lon": -116.278918}, {"type": "node", "id": 7215576964, "lat": 43.645907, "lon": -116.272739}, {"type": "node", "id": 7215577216, "lat": 43.646194, "lon": -116.272801}, {"type": "node", "id": 7215577388, "lat": 43.647831, "lon": -116.277998}, {"type": "node", "id": 7215577448, "lat": 43.645842, "lon": -116.272586}, {"type": "node", "id": 7215577651, "lat": 43.646171, "lon": -116.272747}, {"type": "node", "id": 7304336622, "lat": 43.650076, "lon": -116.280102}, {"type": "node", "id": 7304340159, "lat": 43.650076, "lon": -116.280271}, {"type": "node", "id": 8324746186, "lat": 43.6481356, "lon": -116.2788215}, {"type": "node", "id": 8324746187, "lat": 43.6482329, "lon": -116.2788076}, {"type": "node", "id": 8331559874, "lat": 43.6442459, "lon": -116.278493}, {"type": "node", "id": 8343073719, "lat": 43.645125, "lon": -116.273412}, {"type": "node", "id": 8343073748, "lat": 43.648227, "lon": -116.278715}, {"type": "node", "id": 8343073749, "lat": 43.647574, "lon": -116.278235}, {"type": "node", "id": 8343073751, "lat": 43.6460919, "lon": -116.277256}, {"type": "node", "id": 8343073791, "lat": 43.650192, "lon": -116.280271}, {"type": "node", "id": 8343076928, "lat": 43.6498976, "lon": -116.282407}, {"type": "node", "id": 9390957781, "lat": 43.645322, "lon": -116.273238}, {"type": "node", "id": 9390957782, "lat": 43.645422, "lon": -116.273456}, {"type": "node", "id": 9390957783, "lat": 43.645515, "lon": -116.273375}, {"type": "node", "id": 9390957784, "lat": 43.645599, "lon": -116.273557}, {"type": "node", "id": 9390957785, "lat": 43.64531, "lon": -116.273812}, {"type": "node", "id": 9473031055, "lat": 43.6498887, "lon": -116.2822505}, {"type": "node", "id": 9473031056, "lat": 43.6498532, "lon": -116.2822271}, {"type": "node", "id": 9473031057, "lat": 43.6498702, "lon": -116.282178}, {"type": "node", "id": 9473031058, "lat": 43.6498298, "lon": -116.2821524}, {"type": "node", "id": 9473031059, "lat": 43.6498145, "lon": -116.2822003}, {"type": "node", "id": 9473031060, "lat": 43.6497806, "lon": -116.2821769}, {"type": "node", "id": 9473031061, "lat": 43.6496821, "lon": -116.2822773}, {"type": "node", "id": 9473031062, "lat": 43.6496909, "lon": -116.2824369}, {"type": "node", "id": 9473031063, "lat": 43.6498007, "lon": -116.2825038}, {"type": "node", "id": 9473031064, "lat": 43.6498588, "lon": -116.282211, "tags": {"entrance": "main"}}, {"type": "node", "id": 9473031065, "lat": 43.6498183, "lon": -116.2821884, "tags": {"entrance": "main"}}, {"type": "node", "id": 10808927118, "lat": 43.6448665, "lon": -116.2723341}, {"type": "node", "id": 11805791245, "lat": 43.6449255, "lon": -116.2722777}, {"type": "node", "id": 11805791246, "lat": 43.6449731, "lon": -116.2723728}, {"type": "node", "id": 11805791247, "lat": 43.6449478, "lon": -116.2723969}, {"type": "node", "id": 11805791248, "lat": 43.6449526, "lon": -116.2724066}, {"type": "node", "id": 11805791249, "lat": 43.6449189, "lon": -116.2724388}, {"type": "way", "id": 663911197, "nodes": [8331559874, 6214223095, 6214223098, 6214223096, 6214223097, 8331559874], "tags": {"addr:city": "Boise", "addr:housenumber": "7700", "addr:postcode": "83704", "addr:state": "ID", "addr:street": "West Goddard Road", "amenity": "restaurant", "building": "yes", "name": "Pho Bac"}}, {"type": "way", "id": 668311973, "nodes": [8343073751, 6258427540, 6258427541, 6258427542, 6258427543, 6258427544, 6258427545, 8343073751], "tags": {"addr:city": "Garden City", "addr:housenumber": "5425", "addr:postcode": "83714", "addr:state": "ID", "addr:street": "West Chinden Boulevard", "branch": "Glenwood", "brand": "Fred Meyer", "brand:wikidata": "Q5495932", "building": "yes", "name": "Fred Meyer", "opening_hours": "Mo-Su 07:00-22:00", "phone": "+1 208-323-7043", "ref": "70100449", "shop": "supermarket", "website": "https://www.fredmeyer.com/stores/grocery/id/garden-city/glenwood/701/00449"}}, {"type": "way", "id": 772831931, "nodes": [8343073749, 2923646213, 7215575832, 7215577388, 8343073749], "tags": {"addr:city": "Garden City", "addr:housenumber": "5689", "addr:postcode": "83714", "addr:state": "ID", "addr:street": "West Chinden Boulevard", "building": "yes", "name": "Quilt Expressions", "shop": "fabric", "source": "microsoft/Buildingfootprints"}}, {"type": "way", "id": 772831998, "nodes": [2923646219, 7215575901, 7215577448, 7215576964, 7215576510, 7215539770, 7215577651, 7215577216, 2923646219], "tags": {"addr:city": "Boise", "addr:housenumber": "5306", "addr:postcode": "83714", "addr:state": "ID", "addr:street": "West Chinden Boulevard", "building": "yes", "name": "Bruneel Tire Factory", "shop": "tyres", "source": "microsoft/Buildingfootprints"}}, {"type": "way", "id": 772832028, "nodes": [8343073748, 8324746187, 7215576684, 2923646212, 8324746186, 7215575818, 8343073748], "tags": {"addr:city": "Garden City", "addr:housenumber": "5775", "addr:postcode": "83714", "addr:state": "ID", "addr:street": "West Chinden Boulevard", "building": "yes", "name": "Lube Jockey", "shop": "car_repair", "source": "microsoft/Buildingfootprints"}}, {"type": "way", "id": 782224623, "nodes": [8343073791, 7304340159, 7304336622, 2923585670, 8343073791], "tags": {"addr:city": "Garden City", "addr:housenumber": "4971", "addr:postcode": "83714", "addr:state": "ID", "addr:street": "North Glenwood Street", "amenity": "cafe", "branch": "Glenwood & Chinden- Boise", "brand": "Starbucks", "brand:wikidata": "Q37158", "building": "yes", "cuisine": "coffee_shop", "internet_access": "yes", "name": "Starbucks", "official_name": "Starbucks Coffee", "phone": "+1 208-375-0447", "ref": "17250", "source": "microsoft/Buildingfootprints", "takeaway": "yes", "website": "https://www.starbucks.com/store-locator/store/17250/glenwood-chinden-boise-4971-n-glenwood-st-garden-city-id-837141325-us"}}, {"type": "way", "id": 1018154493, "nodes": [8343073719, 9390957781, 9390957782, 9390957783, 9390957784, 9390957785, 8343073719], "tags": {"addr:city": "Garden City", "addr:housenumber": "5303", "addr:postcode": "83714", "addr:state": "ID", "addr:street": "West Chinden Boulevard", "building": "yes", "name": "Nelson's RV Service", "shop": "car_repair", "source": "microsoft/BuildingFootprints"}}, {"type": "way", "id": 1027573428, "nodes": [8343076928, 9473031055, 9473031056, 9473031064, 9473031057, 9473031058, 9473031065, 9473031059, 9473031060, 9473031061, 9473031062, 9473031063, 8343076928], "tags": {"addr:city": "Garden City", "addr:housenumber": "8121", "addr:postcode": "83714", "addr:state": "ID", "addr:street": "West Chinden Boulevard", "amenity": "restaurant", "branch": "Restaurant & Pies", "brand": "Shari's", "brand:wikidata": "Q7489612", "building": "yes", "cuisine": "american", "name": "Shari's", "opening_hours": "Su-Th 07:00-22:00; Fr-Sa 07:00-23:00"}}, {"type": "way", "id": 1271276504, "nodes": [10808927118, 11805791245, 11805791246, 11805791247, 11805791248, 11805791249, 10808927118], "tags": {"addr:city": "Garden City", "addr:housenumber": "5239", "addr:postcode": "83714", "addr:state": "ID", "addr:street": "West Chinden Boulevard", "amenity": "cafe", "branch": "Boise", "brand": "Dutch Bros. Coffee", "brand:wikidata": "Q5317253", "building": "yes", "cuisine": "coffee_shop", "name": "Dutch Bros. Coffee", "opening_hours": "Mo-Th 05:00-22:00; Fr-Sa 05:00-23:00; Su 05:00-22:00", "ref": "DB093", "source": "microsoft/BuildingFootprints", "takeaway": "only", "website": "https://locations.dutchbros.com/dutch-bros-coffee-e970644212ad"}}]}