{"version": 0.6, "generator": "Overpass API 0.7.62.8 e802775f", "osm3s": {"timestamp_osm_base": "2025-12-06T05:33:19Z", "copyright": "The data included in this document is from www.openstreetmap.org. The data is made available under ODbL."}, "elements": [{"type": "node", "id": 11040639211, "lat": 43.6617714, "lon": -116.6409772}, {"type": "node", "id": 11040639212, "lat": 43.6614977, "lon": -116.6409722}, {"type": "node", "id": 11040639213, "lat": 43.6615034, "lon": -116.6403885}, {"type": "node", "id": 11040639214, "lat": 43.661777, "lon": -116.6403935}, {"type": "node", "id": 11399289773, "lat": 43.6620332, "lon": -116.6411826}, {"type": "node", "id": 11399289774, "lat": 43.6617064, "lon": -116.6411799}, {"type": "node", "id": 11399289775, "lat": 43.6617052, "lon": -116.6414471}, {"type": "node", "id": 11399289776, "lat": 43.662032, "lon": -116.6414499}, {"type": "way", "id": 1189022906, "nodes": [11040639211, 11040639212, 11040639213, 11040639214, 11040639211], "tags": {"addr:housenumber": "4623", "addr:street": "Enterprise Way", "brand": "Crunch Fitness", "brand:wikidata": "Q5190093", "building": "yes", "building:levels": "2", "building:material": "brick", "leisure": "fitness_centre", "name": "Crunch Fitness", "roof:levels": "0"}}, {"type": "way", "id": 1229191460, "nodes": [11399289773, 11399289774, 11399289775, 11399289776, 11399289773], "tags": {"addr:city": "Caldwell", "addr:housenumber": "4611", "addr:postcode": "83605", "addr:state": "ID", "addr:street": "Enterprise Way", "building": "yes", "building:levels": "1", "leisure": "fitness_centre", "name": "CrossFit Canvas", "phone": "+1-208-877-5588", "website": "https://www.crossfitcanvas.com"}}]}