{"version": 0.6, "generator": "Overpass API 0.7.62.8 e802775f", "osm3s": {"timestamp_osm_base": "2025-11-08T23:49:43Z", "copyright": "The data included in this document is from www.openstreetmap.org. The data is made available under ODbL."}, "elements": [{"type": "node", "id": 5775941622, "lat": 38.7023351, "lon": -90.3451706}, {"type": "node", "id": 5775941623, "lat": 38.7022248, "lon": -90.3442531}, {"type": "node", "id": 5775941624, "lat": 38.7028571, "lon": -90.3437997}, {"type": "node", "id": 5775941625, "lat": 38.7030666, "lon": -90.3446188}, {"type": "node", "id": 11064123862, "lat": 38.7022448, "lon": -90.3444731}, {"type": "node", "id": 11163232471, "lat": 38.7027481, "lon": -90.345114}, {"type": "node", "id": 11163232472, "lat": 38.702703, "lon": -90.344746}, {"type": "way", "id": 609831168, "nodes": [5775941622, 11064123862, 5775941623, 5775941624, 5775941625, 11163232472, 11163232471, 5775941622], "tags": {"addr:city": "Charlack", "addr:housenumber": "2608", "addr:postcode": "63114", "addr:state": "MO", "addr:street": "Walton Road", "leisure": "park", "name": "Charles J Evola Park"}}]}