{"version": 0.6, "generator": "Overpass API 0.7.62.8 e802775f", "osm3s": {"timestamp_osm_base": "2025-12-06T23:19:44Z", "copyright": "The data included in this document is from www.openstreetmap.org. The data is made available under ODbL."}, "elements": [{"type": "node", "id": 4407521020, "lat": 47.6315891, "lon": -117.6566574}, {"type": "node", "id": 4407521021, "lat": 47.6313018, "lon": -117.6562093}, {"type": "node", "id": 4407521022, "lat": 47.6317463, "lon": -117.6555818}, {"type": "node", "id": 4407521023, "lat": 47.6317085, "lon": -117.6555229}, {"type": "node", "id": 4407521024, "lat": 47.6319691, "lon": -117.6551549}, {"type": "node", "id": 4407521025, "lat": 47.6322941, "lon": -117.6556618}, {"type": "way", "id": 443114689, "nodes": [4407521020, 4407521021, 4407521022, 4407521023, 4407521024, 4407521025, 4407521020], "tags": {"addr:city": "Fairchild AFB", "addr:housenumber": "300", "addr:postcode": "99011", "addr:state": "WA", "addr:street": "Castle Street", "building": "yes", "check_date": "2025-11-12", "fee": "no", "internet_access": "wlan", "internet_access:fee": "customers", "leisure": "fitness_centre", "name": "Fairchild Fitness Center", "opening_hours": "24/7", "ref": "2379", "wheelchair": "yes"}}]}