{"version": 0.6, "generator": "Overpass API 0.7.62.8 e802775f", "osm3s": {"timestamp_osm_base": "2025-12-06T10:29:30Z", "copyright": "The data included in this document is from www.openstreetmap.org. The data is made available under ODbL."}, "elements": [{"type": "node", "id": 357983133, "lat": 45.6146054, "lon": -113.4486243, "tags": {"amenity": "school", "ele": "1846", "gnis:feature_id": "1797119", "name": "Wisdom Elementary School"}}, {"type": "node", "id": 357983283, "lat": 45.6180052, "lon": -113.451341, "tags": {"amenity": "place_of_worship", "ele": "1844", "gnis:feature_id": "1797148", "name": "Our Lady of Wisdom Mission", "religion": "christian"}}, {"type": "node", "id": 357983614, "lat": 45.6175905, "lon": -113.4499319}, {"type": "node", "id": 366093279, "lat": 45.6179809, "lon": -113.4507088, "tags": {"addr:state": "MT", "amenity": "fire_station", "ele": "1844", "gnis:feature_id": "1797065", "name": "Wisdom Fire Department", "source": "USGS Geonames"}}, {"type": "node", "id": 4867504223, "lat": 45.6175727, "lon": -113.4488861, "tags": {"FIXME": "phone number is too short!", "amenity": "bar", "cuisine": "pizza", "name": "Antler's Saloon", "opening_hours": "Mo-Su 12:00-22:00", "phone": "+1 406 689 9393"}}, {"type": "node", "id": 4867504224, "lat": 45.6179623, "lon": -113.4490845, "tags": {"amenity": "restaurant", "cuisine": "american", "internet_access": "wlan", "name": "Fetty\u2019s", "opening_hours": "Mo-Su 07:00-21:00", "website": "https://www.thecrossingbarandgrill.com/"}}, {"type": "node", "id": 4867504225, "lat": 45.6175672, "lon": -113.4521305}, {"type": "node", "id": 6537029785, "lat": 45.6175619, "lon": -113.4503946}, {"type": "node", "id": 6537029786, "lat": 45.6173401, "lon": -113.4503907}, {"type": "node", "id": 6537029787, "lat": 45.6173387, "lon": -113.4505531}, {"type": "node", "id": 6537029788, "lat": 45.6175605, "lon": -113.450557}, {"type": "node", "id": 6537029789, "lat": 45.6174951, "lon": -113.4495631}, {"type": "node", "id": 6537029790, "lat": 45.6174924, "lon": -113.4493458}, {"type": "node", "id": 6537029791, "lat": 45.6173458, "lon": -113.4493458}, {"type": "node", "id": 6537029792, "lat": 45.6173451, "lon": -113.4495622}, {"type": "node", "id": 6537029793, "lat": 45.6175898, "lon": -113.4498234}, {"type": "node", "id": 6537029794, "lat": 45.6174722, "lon": -113.4498254}, {"type": "node", "id": 6537029795, "lat": 45.6174729, "lon": -113.4499349}, {"type": "node", "id": 9184289579, "lat": 45.6175698, "lon": -113.4518782}, {"type": "node", "id": 9184289580, "lat": 45.6174595, "lon": -113.4518759}, {"type": "node", "id": 9184289581, "lat": 45.6174569, "lon": -113.4521282}, {"type": "node", "id": 9956489169, "lat": 45.6176194, "lon": -113.4485313}, {"type": "node", "id": 9956489170, "lat": 45.6174441, "lon": -113.4485297}, {"type": "node", "id": 9956489171, "lat": 45.6174448, "lon": -113.4483594}, {"type": "node", "id": 9956489172, "lat": 45.6176202, "lon": -113.448361}, {"type": "node", "id": 12288683006, "lat": 45.6177928, "lon": -113.4482576}, {"type": "node", "id": 12288683065, "lat": 45.617792, "lon": -113.4483757}, {"type": "node", "id": 12288683280, "lat": 45.6179746, "lon": -113.4481476}, {"type": "node", "id": 12288683282, "lat": 45.6178924, "lon": -113.4483163}, {"type": "node", "id": 12288683321, "lat": 45.6178987, "lon": -113.448114}, {"type": "node", "id": 12288683351, "lat": 45.617892, "lon": -113.4483772}, {"type": "node", "id": 12288683366, "lat": 45.6178134, "lon": -113.448146}, {"type": "node", "id": 12288683402, "lat": 45.6179749, "lon": -113.4481151}, {"type": "node", "id": 12288683407, "lat": 45.6180307, "lon": -113.4483183}, {"type": "node", "id": 12288683415, "lat": 45.6180319, "lon": -113.4481485}, {"type": "node", "id": 12288683454, "lat": 45.6178984, "lon": -113.4481472}, {"type": "node", "id": 12288683500, "lat": 45.6178126, "lon": -113.4482579}, {"type": "way", "id": 696140888, "nodes": [6537029785, 6537029786, 6537029787, 6537029788, 6537029785], "tags": {"building": "yes", "name": "Wisdom Market", "shop": "supermarket"}}, {"type": "way", "id": 696140889, "nodes": [6537029789, 6537029790, 6537029791, 6537029792, 6537029789], "tags": {"amenity": "fuel", "brand": "Sinclair", "building": "yes", "fuel:diesel": "yes", "name": "Big Hole Petroleum", "self_service": "yes"}}, {"type": "way", "id": 696140890, "nodes": [357983614, 6537029793, 6537029794, 6537029795, 357983614], "tags": {"amenity": "post_office", "building": "yes", "ele": "1844", "gnis:feature_id": "1797254", "name": "Wisdom Post Office"}}, {"type": "way", "id": 994105481, "nodes": [4867504225, 9184289579, 9184289580, 9184289581, 4867504225], "tags": {"addr:city": "Wisdom", "addr:housenumber": "107", "addr:postcode": "59761", "addr:state": "MT", "addr:street": "Pine Street", "name": "Pionieer Mountain Lodge", "name:en": "Pionieer Mountain Lodge", "tourism": "motel"}}, {"type": "way", "id": 1086629081, "nodes": [9956489169, 9956489170, 9956489171, 9956489172, 9956489169], "tags": {"building": "yes", "name": "The Silver Mine", "shop": "gift"}}, {"type": "way", "id": 1328223067, "nodes": [12288683065, 12288683351, 12288683282, 12288683407, 12288683415, 12288683280, 12288683402, 12288683321, 12288683454, 12288683366, 12288683500, 12288683006, 12288683065], "tags": {"amenity": "community_centre", "building": "yes", "name": "Wisdom Community Building"}}]}