{"version": 0.6, "generator": "Overpass API 0.7.62.8 e802775f", "osm3s": {"timestamp_osm_base": "2025-11-03T15:18:36Z", "copyright": "The data included in this document is from www.openstreetmap.org. The data is made available under ODbL."}, "elements": [{"type": "node", "id": 5321229398, "lat": 37.9324167, "lon": -75.6344139}, {"type": "node", "id": 5321229399, "lat": 37.9323632, "lon": -75.634796}, {"type": "node", "id": 5321229400, "lat": 37.9323681, "lon": -75.6351226}, {"type": "node", "id": 5321229401, "lat": 37.9324507, "lon": -75.6352581}, {"type": "node", "id": 5321229402, "lat": 37.9326864, "lon": -75.6354153}, {"type": "node", "id": 5321229403, "lat": 37.9328006, "lon": -75.635406}, {"type": "node", "id": 5321229404, "lat": 37.9329343, "lon": -75.6353783}, {"type": "node", "id": 5321229405, "lat": 37.9331165, "lon": -75.6352674}, {"type": "node", "id": 5321229406, "lat": 37.933204, "lon": -75.6351719}, {"type": "node", "id": 5321229407, "lat": 37.9331943, "lon": -75.63495}, {"type": "node", "id": 5321229408, "lat": 37.9331943, "lon": -75.6344879}, {"type": "way", "id": 550979677, "nodes": [5321229398, 5321229399, 5321229400, 5321229401, 5321229402, 5321229403, 5321229404, 5321229405, 5321229406, 5321229407, 5321229408, 5321229398], "tags": {"addr:city": "Temperanceville", "addr:housenumber": "699", "addr:postcode": "23442", "addr:state": "VA", "leisure": "park", "name": "Makemie Monument Park", "website": "francismakemiesociety.org", "wikidata": "Q16898631"}}]}