{"version": 0.6, "generator": "Overpass API 0.7.62.8 e802775f", "osm3s": {"timestamp_osm_base": "2025-12-12T22:25:26Z", "copyright": "The data included in this document is from www.openstreetmap.org. The data is made available under ODbL."}, "elements": [{"type": "node", "id": 7027633402, "lat": 40.1645857, "lon": -103.2191624}, {"type": "node", "id": 12091295488, "lat": 40.1645188, "lon": -103.2190872}, {"type": "node", "id": 12091295489, "lat": 40.1645303, "lon": -103.2190677}, {"type": "node", "id": 12091295490, "lat": 40.1645046, "lon": -103.2190314}, {"type": "node", "id": 12091295491, "lat": 40.1645255, "lon": -103.2189996}, {"type": "node", "id": 12091295492, "lat": 40.1644113, "lon": -103.2188412}, {"type": "node", "id": 12091295493, "lat": 40.1644836, "lon": -103.2187421}, {"type": "node", "id": 12091295494, "lat": 40.1646912, "lon": -103.2190128}, {"type": "node", "id": 12091295495, "lat": 40.1646209, "lon": -103.2191199}, {"type": "node", "id": 13062647465, "lat": 40.1647666, "lon": -103.2192929}, {"type": "node", "id": 13062647466, "lat": 40.1646752, "lon": -103.2192914}, {"type": "node", "id": 13062647467, "lat": 40.1646719, "lon": -103.2193732}, {"type": "node", "id": 13062647468, "lat": 40.1646022, "lon": -103.2193779}, {"type": "node", "id": 13062647469, "lat": 40.1645964, "lon": -103.2191747}, {"type": "node", "id": 13062647470, "lat": 40.164649, "lon": -103.2191019}, {"type": "node", "id": 13062647471, "lat": 40.1647699, "lon": -103.2191318}, {"type": "way", "id": 1305494586, "nodes": [7027633402, 12091295488, 12091295489, 12091295490, 12091295491, 12091295492, 12091295493, 12091295494, 12091295495, 7027633402], "tags": {"addr:city": "Akron", "addr:housenumber": "551", "addr:postcode": "80720", "addr:state": "CO", "addr:street": "West 6th Street", "amenity": "place_of_worship", "building": "church", "denomination": "roman_catholic", "diocese": "Denver", "name": "Saint Joseph Catholic Church", "phone": "+1-970-345-6996", "religion": "christian", "website": "https://www.stmarybrush.org/"}}, {"type": "way", "id": 1421457955, "nodes": [13062647465, 13062647466, 13062647467, 13062647468, 13062647469, 13062647470, 13062647471, 13062647465], "tags": {"amenity": "parking", "operator": "Saint Joseph Catholic Church"}}]}