{"version": 0.6, "generator": "Overpass API 0.7.62.8 e802775f", "osm3s": {"timestamp_osm_base": "2025-12-06T18:21:29Z", "copyright": "The data included in this document is from www.openstreetmap.org. The data is made available under ODbL."}, "elements": [{"type": "node", "id": 8203960095, "lat": 48.5441534, "lon": -117.9050911}, {"type": "node", "id": 8203960097, "lat": 48.5442482, "lon": -117.9053371}, {"type": "node", "id": 8203960098, "lat": 48.5441527, "lon": -117.9053382}, {"type": "node", "id": 8203960099, "lat": 48.5443112, "lon": -117.9053384}, {"type": "node", "id": 8203960101, "lat": 48.5443109, "lon": -117.905091}, {"type": "node", "id": 8566512464, "lat": 48.5443263, "lon": -117.9035906}, {"type": "node", "id": 8566512465, "lat": 48.5443238, "lon": -117.9041095}, {"type": "node", "id": 8566512466, "lat": 48.544164, "lon": -117.9041077}, {"type": "node", "id": 8566512467, "lat": 48.5441594, "lon": -117.9035888}, {"type": "node", "id": 8566512470, "lat": 48.5441666, "lon": -117.9035986}, {"type": "node", "id": 8568269434, "lat": 48.5435764, "lon": -117.9088011}, {"type": "node", "id": 8568269435, "lat": 48.5435717, "lon": -117.9089974}, {"type": "node", "id": 8568269436, "lat": 48.5438333, "lon": -117.9090118}, {"type": "node", "id": 8568269437, "lat": 48.543838, "lon": -117.9088154}, {"type": "node", "id": 9712753937, "lat": 48.5453773, "lon": -117.9115552}, {"type": "node", "id": 9712753938, "lat": 48.5453725, "lon": -117.9121405}, {"type": "node", "id": 9712753939, "lat": 48.5452097, "lon": -117.9121375}, {"type": "node", "id": 9712753940, "lat": 48.5452144, "lon": -117.9115522}, {"type": "node", "id": 9712753959, "lat": 48.5451335, "lon": -117.9102206, "tags": {"leisure": "fitness_centre", "name": "Cor 620"}}, {"type": "way", "id": 882170302, "nodes": [8203960095, 8203960101, 8203960099, 8203960097, 8203960098, 8203960095], "tags": {"building": "yes", "leisure": "fitness_centre", "name": "Bettencourt's Taekwon-Do"}}, {"type": "way", "id": 922806874, "nodes": [8566512464, 8566512465, 8566512466, 8566512470, 8566512467, 8566512464], "tags": {"addr:city": "Colville", "addr:housenumber": "101", "addr:state": "WA", "addr:street": "South Oak Street", "building": "yes", "leisure": "fitness_centre", "name": "Body N Sole Fitness"}}, {"type": "way", "id": 923007895, "nodes": [8568269434, 8568269435, 8568269436, 8568269437, 8568269434], "tags": {"addr:city": "Colville", "addr:housenumber": "310", "addr:state": "WA", "addr:street": "West Astor Avenue", "building": "yes", "leisure": "fitness_centre", "name": "Arena Fitness"}}, {"type": "way", "id": 1057042397, "nodes": [9712753937, 9712753938, 9712753939, 9712753940, 9712753937], "tags": {"addr:city": "Colville", "addr:housenumber": "463", "addr:state": "WA", "addr:street": "West 2nd Avenue", "building": "yes", "leisure": "sports_hall", "name": "KIPS Gymnastics"}}]}