{"version": 0.6, "generator": "Overpass API 0.7.62.8 e802775f", "osm3s": {"timestamp_osm_base": "2025-12-06T05:16:58Z", "copyright": "The data included in this document is from www.openstreetmap.org. The data is made available under ODbL."}, "elements": [{"type": "node", "id": 6346509557, "lat": 43.5917011, "lon": -116.3922615}, {"type": "node", "id": 6346509558, "lat": 43.5918161, "lon": -116.3922598}, {"type": "node", "id": 6346509559, "lat": 43.5918154, "lon": -116.3921639}, {"type": "node", "id": 6346509560, "lat": 43.5917971, "lon": -116.3921642}, {"type": "node", "id": 6346509562, "lat": 43.5917986, "lon": -116.3920201}, {"type": "node", "id": 6346509563, "lat": 43.591822, "lon": -116.3920201}, {"type": "node", "id": 6346509564, "lat": 43.5918222, "lon": -116.3919237}, {"type": "node", "id": 6346509565, "lat": 43.5920228, "lon": -116.3919245}, {"type": "node", "id": 6346509566, "lat": 43.5920227, "lon": -116.391963}, {"type": "node", "id": 6346509567, "lat": 43.5923482, "lon": -116.3919643}, {"type": "node", "id": 6346509568, "lat": 43.5921186, "lon": -116.3925296}, {"type": "node", "id": 7011979760, "lat": 43.5974404, "lon": -116.390127, "tags": {"addr:city": "Meridian", "addr:housenumber": "750", "addr:postcode": "83642", "addr:state": "ID", "addr:street": "South Progress Avenue", "addr:unit": "125", "leisure": "fitness_centre", "name": "The Mecca Gym", "opening_hours": "Mo-Fr 09:00-19:00; Sa 10:00-14:00"}}, {"type": "node", "id": 7153070583, "lat": 43.6001617, "lon": -116.392805, "tags": {"addr:city": "Meridian", "addr:housenumber": "520", "addr:postcode": "83642", "addr:state": "ID", "addr:street": "South Meridian Road", "addr:unit": "130", "leisure": "fitness_centre", "name": "Champion Fitness Training", "phone": "+1-208-407-3160", "website": "https://championfit.net/"}}, {"type": "node", "id": 8331491051, "lat": 43.5917032, "lon": -116.3925357}, {"type": "node", "id": 8793948120, "lat": 43.5917711, "lon": -116.3920575}, {"type": "node", "id": 8793948121, "lat": 43.5917707, "lon": -116.3921242}, {"type": "node", "id": 12813230067, "lat": 43.577701, "lon": -116.3922644}, {"type": "node", "id": 12813230068, "lat": 43.5778639, "lon": -116.3920836}, {"type": "node", "id": 12813230069, "lat": 43.577748, "lon": -116.3923449}, {"type": "node", "id": 12813230070, "lat": 43.5779111, "lon": -116.3921645}, {"type": "way", "id": 677800318, "nodes": [8331491051, 6346509557, 6346509558, 6346509559, 6346509560, 8793948121, 8793948120, 6346509562, 6346509563, 6346509564, 6346509565, 6346509566, 6346509567, 6346509568, 8331491051], "tags": {"addr:city": "Meridian", "addr:housenumber": "1455", "addr:postcode": "83642", "addr:state": "ID", "addr:street": "South Country Terrace Place", "building": "yes", "leisure": "fitness_centre", "name": "Axiom Fitness"}}, {"type": "way", "id": 1383899840, "nodes": [12813230067, 12813230069, 12813230070, 12813230068, 12813230067], "tags": {"addr:city": "Meridian", "addr:housenumber": "2976", "addr:postcode": "83642", "addr:state": "ID", "addr:street": "South Meridian Road", "addr:unit": "110", "building:part": "yes", "leisure": "fitness_centre", "name": "Empyre Fitness", "opening_hours": "Mo-Fr 05:00-22:00; Sa 07:00-22:00; Su 07:00-19:00", "phone": "+1 986-999-2615", "website": "https://www.empyrefitness.com/"}}]}