{"version": 0.6, "generator": "Overpass API 0.7.62.8 e802775f", "osm3s": {"timestamp_osm_base": "2025-12-06T19:29:44Z", "copyright": "The data included in this document is from www.openstreetmap.org. The data is made available under ODbL."}, "elements": [{"type": "node", "id": 6935955136, "lat": 47.5181972, "lon": -122.6265669}, {"type": "node", "id": 6935955137, "lat": 47.5181918, "lon": -122.6261968}, {"type": "node", "id": 6935955138, "lat": 47.5180686, "lon": -122.6261995}, {"type": "node", "id": 6935955139, "lat": 47.5180668, "lon": -122.6265723}, {"type": "node", "id": 12986588533, "lat": 47.5096903, "lon": -122.6358206}, {"type": "node", "id": 12986588534, "lat": 47.509691, "lon": -122.6361894}, {"type": "node", "id": 12986588535, "lat": 47.5094295, "lon": -122.6348683}, {"type": "node", "id": 12986588536, "lat": 47.5094302, "lon": -122.6352227}, {"type": "node", "id": 12986588537, "lat": 47.5092491, "lon": -122.6358224}, {"type": "node", "id": 12986588538, "lat": 47.5097613, "lon": -122.6361891}, {"type": "node", "id": 12986588539, "lat": 47.5097595, "lon": -122.6352214}, {"type": "node", "id": 12986588540, "lat": 47.5092474, "lon": -122.6348691}, {"type": "way", "id": 740840873, "nodes": [6935955136, 6935955137, 6935955138, 6935955139, 6935955136], "tags": {"addr:city": "Port Orchard", "addr:housenumber": "1900", "addr:postcode": "98366", "addr:state": "WA", "addr:street": "Jerry Lane Southeast", "leisure": "park", "name": "Lund Village"}}, {"type": "way", "id": 1413142675, "nodes": [12986588540, 12986588537, 12986588533, 12986588534, 12986588538, 12986588539, 12986588536, 12986588535, 12986588540], "tags": {"access": "private", "leisure": "park"}}]}