{"version": 0.6, "generator": "Overpass API 0.7.62.8 e802775f", "osm3s": {"timestamp_osm_base": "2025-12-13T00:42:29Z", "copyright": "The data included in this document is from www.openstreetmap.org. The data is made available under ODbL."}, "elements": [{"type": "node", "id": 8538395251, "lat": 39.5776001, "lon": -104.8379436}, {"type": "node", "id": 8538395252, "lat": 39.577612, "lon": -104.8374735}, {"type": "node", "id": 8538395253, "lat": 39.5781882, "lon": -104.83774}, {"type": "node", "id": 8538395254, "lat": 39.5781868, "lon": -104.837968}, {"type": "node", "id": 8606601311, "lat": 39.5782207, "lon": -104.8374936}, {"type": "node", "id": 8606601312, "lat": 39.5782211, "lon": -104.8377409}, {"type": "node", "id": 8606621731, "lat": 39.5776006, "lon": -104.8379238}, {"type": "node", "id": 8606621733, "lat": 39.5776107, "lon": -104.8375229}, {"type": "node", "id": 8606621742, "lat": 39.5781349, "lon": -104.8374908}, {"type": "node", "id": 8606621745, "lat": 39.5779173, "lon": -104.8374836}, {"type": "node", "id": 8632230087, "lat": 39.5768223, "lon": -104.8313891}, {"type": "node", "id": 8632230088, "lat": 39.5767787, "lon": -104.8309127}, {"type": "node", "id": 8632230089, "lat": 39.5755757, "lon": -104.8310972}, {"type": "node", "id": 8632230090, "lat": 39.5756187, "lon": -104.8315735}, {"type": "node", "id": 8632230091, "lat": 39.5762147, "lon": -104.8314769}, {"type": "node", "id": 8632230092, "lat": 39.5762259, "lon": -104.8316097}, {"type": "node", "id": 8632230093, "lat": 39.5763225, "lon": -104.8315943}, {"type": "node", "id": 8632230094, "lat": 39.5763127, "lon": -104.8314627}, {"type": "node", "id": 8753798297, "lat": 39.5842026, "lon": -104.8405549, "tags": {"addr:city": "Centennial", "addr:housenumber": "7328", "addr:postcode": "80112", "addr:state": "CO", "addr:street": "South Revere Parkway", "addr:unit": "204B", "leisure": "fitness_centre", "name": "Blacklist Strongman + Athletics", "phone": "+1 720-443-0460", "website": "https://blackliststrong.com/"}}, {"type": "node", "id": 11500823864, "lat": 39.5825212, "lon": -104.8420463, "tags": {"addr:city": "Centennial", "addr:housenumber": "7347", "addr:postcode": "80112", "addr:state": "CO", "addr:street": "South Revere Parkway", "addr:unit": "B-100", "leisure": "sports_hall", "name": "Colorado Momentum Volleyball"}}, {"type": "node", "id": 11505886722, "lat": 39.584955, "lon": -104.8409377, "tags": {"addr:city": "Centennial", "addr:housenumber": "7246", "addr:postcode": "80112", "addr:state": "CO", "addr:street": "South Revere Parkway", "addr:unit": "200", "leisure": "sports_hall", "name": "PANTHER Volleyball Club"}}, {"type": "node", "id": 11506024657, "lat": 39.5835751, "lon": -104.8378265, "tags": {"addr:city": "Centennial", "addr:housenumber": "7399", "addr:postcode": "80112", "addr:state": "CO", "addr:street": "South Tucson Way", "addr:unit": "C3", "leisure": "sports_hall", "name": "212 Performance Gym"}}, {"type": "node", "id": 11549906279, "lat": 39.5765058, "lon": -104.8314348}, {"type": "node", "id": 11549906285, "lat": 39.5759382, "lon": -104.8315213}, {"type": "node", "id": 11549906286, "lat": 39.5758897, "lon": -104.8310491}, {"type": "node", "id": 11549906292, "lat": 39.5757705, "lon": -104.8310673}, {"type": "node", "id": 11549906295, "lat": 39.5756069, "lon": -104.8310924}, {"type": "node", "id": 11549906296, "lat": 39.5761453, "lon": -104.8310113}, {"type": "node", "id": 11549906299, "lat": 39.5760981, "lon": -104.8310171}, {"type": "node", "id": 11549906300, "lat": 39.5762506, "lon": -104.8309949}, {"type": "node", "id": 11549906306, "lat": 39.576587, "lon": -104.8309426}, {"type": "node", "id": 11549906309, "lat": 39.5767524, "lon": -104.8309168}, {"type": "way", "id": 919318215, "nodes": [8538395251, 8606621731, 8606621733, 8538395252, 8606621745, 8606621742, 8606601311, 8606601312, 8538395253, 8538395254, 8538395251], "tags": {"addr:city": "Englewood", "addr:housenumber": "12987", "addr:postcode": "80112", "addr:state": "CO", "addr:street": "East Adam Aircraft Circle", "building": "yes", "layer": "1", "leisure": "sports_hall", "name": "Elevation Volleyball Club", "sport": "volleyball"}}, {"type": "way", "id": 931025475, "nodes": [8632230087, 8632230088, 11549906309, 11549906306, 11549906300, 11549906296, 11549906299, 11549906286, 11549906292, 11549906295, 8632230089, 8632230090, 11549906285, 8632230091, 8632230092, 8632230093, 8632230094, 11549906279, 8632230087], "tags": {"addr:city": "Englewood", "addr:housenumber": "7760", "addr:postcode": "80112", "addr:state": "CO", "addr:street": "South Wheeling Court", "building": "yes", "layer": "1", "leisure": "fitness_centre", "name": "Randy Ross Tennis Center", "sport": "tennis"}}]}