{"version": 0.6, "generator": "Overpass API 0.7.62.8 e802775f", "osm3s": {"timestamp_osm_base": "2025-12-06T20:11:37Z", "copyright": "The data included in this document is from www.openstreetmap.org. The data is made available under ODbL."}, "elements": [{"type": "node", "id": 2075567560, "lat": 48.7524535, "lon": -122.4557927}, {"type": "node", "id": 2075567562, "lat": 48.7524576, "lon": -122.4564007}, {"type": "node", "id": 2075567580, "lat": 48.7526795, "lon": -122.4557892}, {"type": "node", "id": 2075567582, "lat": 48.7526836, "lon": -122.4563972}, {"type": "node", "id": 4049620993, "lat": 48.7502379, "lon": -122.4746526}, {"type": "node", "id": 4400183237, "lat": 48.7502898, "lon": -122.4745756}, {"type": "node", "id": 4422451581, "lat": 48.7554545, "lon": -122.4553582}, {"type": "node", "id": 4422451582, "lat": 48.7554572, "lon": -122.4546367}, {"type": "node", "id": 4422451583, "lat": 48.7551008, "lon": -122.4546336}, {"type": "node", "id": 4422451584, "lat": 48.755098, "lon": -122.4553551}, {"type": "node", "id": 5452407653, "lat": 48.7503672, "lon": -122.4746964}, {"type": "node", "id": 5452407654, "lat": 48.7503152, "lon": -122.4747732}, {"type": "node", "id": 5862322330, "lat": 48.7497669, "lon": -122.4775756, "tags": {"addr:city": "Bellingham", "addr:housenumber": "1321", "addr:postcode": "98225", "addr:state": "WA", "addr:street": "Railroad Avenue", "leisure": "fitness_centre", "name": "Bikram Yoga", "sport": "yoga", "website": "http://www.bellinghambikram.com/"}}, {"type": "node", "id": 10187516417, "lat": 48.7529457, "lon": -122.4575429, "tags": {"check_date:opening_hours": "2024-04-13", "leisure": "fitness_centre", "name": "Elements Hot Yoga", "opening_hours:signed": "no", "sport": "yoga", "survey:date": "2022-11-15"}}, {"type": "node", "id": 10243966211, "lat": 48.7525395, "lon": -122.4698356, "tags": {"check_date": "2025-08-18", "leisure": "fitness_centre", "name": "Bellingham Fitness", "opening_hours": "Mo-Fr 05:00-23:00; Sa,Su 07:00-19:00"}}, {"type": "node", "id": 11100956929, "lat": 48.750442, "lon": -122.4784807, "tags": {"addr:city": "Bellingham", "addr:postcode": "98225", "addr:state": "WA", "check_date:opening_hours": "2024-01-09", "leisure": "fitness_centre", "name": "3 Oms Yoga", "opening_hours:signed": "no", "sport": "yoga"}}, {"type": "node", "id": 11149247074, "lat": 48.7498594, "lon": -122.4774463, "tags": {"leisure": "fitness_centre", "name": "Hatha Yoga Bellingham", "sport": "yoga"}}, {"type": "node", "id": 11323164900, "lat": 48.7532875, "lon": -122.4550142, "tags": {"leisure": "fitness_centre", "name": "JD Elite", "sport": "fitness"}}, {"type": "node", "id": 11323164904, "lat": 48.7531642, "lon": -122.4555743, "tags": {"leisure": "sports_hall", "name": "Bellingham Bay Gymnastics & Preschool", "sport": "gymnastics"}}, {"type": "node", "id": 11327554548, "lat": 48.7524549, "lon": -122.4570419, "tags": {"leisure": "fitness_centre", "name": "ProFitness Northwest", "sport": "fitness;yoga;crossfit"}}, {"type": "node", "id": 12313746809, "lat": 48.7554552, "lon": -122.4551685}, {"type": "node", "id": 12313746810, "lat": 48.7554559, "lon": -122.4550031}, {"type": "node", "id": 12313746811, "lat": 48.75551, "lon": -122.4550817}, {"type": "node", "id": 12339841585, "lat": 48.7306407, "lon": -122.4726577, "tags": {"addr:city": "Bellingham", "addr:housenumber": "340-342", "addr:postcode": "98225", "addr:state": "WA", "addr:street": "36th Street", "brand": "Orangetheory Fitness", "brand:wikidata": "Q25005163", "leisure": "fitness_centre", "name": "Orangetheory Fitness", "phone": "+1-564-888-2420", "ref": "37257"}}, {"type": "node", "id": 12737951890, "lat": 48.751973, "lon": -122.4713547, "tags": {"addr:city": "Bellingham", "addr:housenumber": "1616", "addr:postcode": "98225", "addr:state": "WA", "addr:street": "North State Street", "addr:unit": "102", "email": "bellingham.wa@basecampfitness.com", "leisure": "fitness_centre", "name": "Basecamp Fitness", "phone": "+1-360-255-5532", "website": "https://www.basecampfitness.com/studio/bellingham"}}, {"type": "way", "id": 197291304, "nodes": [2075567582, 2075567580, 2075567560, 2075567562, 2075567582], "tags": {"building": "industrial", "leisure": "sports_hall", "name": "North Coast Gymnastics", "ref": "G", "sport": "gymnastics"}}, {"type": "way", "id": 444790922, "nodes": [4422451581, 12313746809, 12313746811, 12313746810, 4422451582, 4422451583, 4422451584, 4422451581], "tags": {"addr:housenumber": "1504", "addr:street": "Iowa Street", "building": "commercial", "building:levels": "2", "leisure": "fitness_centre", "name": "Fitness Evolution", "sport": "fitness"}}, {"type": "way", "id": 566232087, "nodes": [5452407653, 5452407654, 4049620993, 4400183237, 5452407653], "tags": {"building": "commercial", "check_date:opening_hours": "2023-07-26", "leisure": "fitness_centre", "name": "Vital Yoga", "opening_hours:signed": "no", "sport": "yoga"}}]}