{"version": 0.6, "generator": "Overpass API 0.7.62.8 e802775f", "osm3s": {"timestamp_osm_base": "2025-12-05T20:58:40Z", "copyright": "The data included in this document is from www.openstreetmap.org. The data is made available under ODbL."}, "elements": [{"type": "node", "id": 5895635570, "lat": 46.593101, "lon": -111.988062}, {"type": "node", "id": 5971160845, "lat": 46.5935376, "lon": -111.9880695}, {"type": "node", "id": 5971160846, "lat": 46.5935415, "lon": -111.9875832}, {"type": "node", "id": 5971160847, "lat": 46.593105, "lon": -111.9875756}, {"type": "node", "id": 5971160848, "lat": 46.5934004, "lon": -111.9875796}, {"type": "node", "id": 5971160861, "lat": 46.5931719, "lon": -111.9875782}, {"type": "node", "id": 7238221739, "lat": 46.5920528, "lon": -111.9605226, "tags": {"leisure": "fitness_centre", "name": "FireTower CrossFit"}}, {"type": "node", "id": 7808721066, "lat": 46.5994696, "lon": -111.9841145}, {"type": "node", "id": 7808721067, "lat": 46.5993566, "lon": -111.9841145}, {"type": "node", "id": 7808721068, "lat": 46.5993566, "lon": -111.9838675}, {"type": "node", "id": 9092737187, "lat": 46.5904883, "lon": -111.9710201, "tags": {"leisure": "fitness_centre", "name": "Flying Giant Advenure Park"}}, {"type": "node", "id": 11839710615, "lat": 46.5994696, "lon": -111.9838675}, {"type": "way", "id": 632389766, "nodes": [5971160845, 5971160846, 5971160848, 5971160861, 5971160847, 5895635570, 5971160845], "tags": {"addr:city": "Helena", "addr:housenumber": "2940", "addr:postcode": "59601", "addr:state": "MT", "addr:street": "Prospect Avenue", "building": "yes", "contact:facebook": "https://www.facebook.com/Gym406Helena/", "email": "gym406@gmail.com", "leisure": "fitness_centre", "name": "Gym 406", "phone": "+1-406-442-1840", "sport": "gymnastics", "website": "https://www.gym406.com/"}}, {"type": "way", "id": 836664038, "nodes": [11839710615, 7808721066, 7808721067, 7808721068, 11839710615], "tags": {"branch": "Helena", "brand": "CrossFit", "brand:wikidata": "Q2072840", "building": "yes", "leisure": "fitness_centre", "name": "CrossFit", "source": "microsoft/BuildingFootprints"}}]}