{"version": 0.6, "generator": "Overpass API 0.7.62.8 e802775f", "osm3s": {"timestamp_osm_base": "2025-11-29T23:45:53Z", "copyright": "The data included in this document is from www.openstreetmap.org. The data is made available under ODbL."}, "elements": [{"type": "node", "id": 4858738594, "lat": 38.6444065, "lon": -121.1039633}, {"type": "node", "id": 5057325728, "lat": 38.6443641, "lon": -121.1049664}, {"type": "node", "id": 5057325729, "lat": 38.644931, "lon": -121.1050018}, {"type": "node", "id": 5057325730, "lat": 38.6449764, "lon": -121.1040003}, {"type": "node", "id": 6035315272, "lat": 38.6449899, "lon": -121.1045538}, {"type": "node", "id": 6035315274, "lat": 38.6449604, "lon": -121.1043849}, {"type": "node", "id": 6035315275, "lat": 38.6449513, "lon": -121.1045599}, {"type": "node", "id": 6035315276, "lat": 38.6449998, "lon": -121.1045196}, {"type": "node", "id": 6035315277, "lat": 38.6449939, "lon": -121.104388}, {"type": "node", "id": 6035315278, "lat": 38.645003, "lon": -121.1044313}, {"type": "node", "id": 6035315279, "lat": 38.6450058, "lon": -121.1044773}, {"type": "node", "id": 6035315280, "lat": 38.6449877, "lon": -121.1045613}, {"type": "way", "id": 518452367, "nodes": [4858738594, 5057325728, 5057325729, 6035315275, 6035315280, 6035315272, 6035315276, 6035315279, 6035315278, 6035315277, 6035315274, 5057325730, 4858738594], "tags": {"addr:city": "Folsom", "addr:country": "US", "addr:housenumber": "110", "addr:postcode": "95630", "addr:state": "CA", "addr:street": "110 Serpa Way", "brand": "Life Time", "brand:wikidata": "Q6545004", "building": "yes", "leisure": "fitness_centre", "name": "Lifetime Fitness", "website": "https://www.lifetime.life/life-time-locations/ca-folsom.html"}}]}