{"version": 0.6, "generator": "Overpass API 0.7.62.8 e802775f", "osm3s": {"timestamp_osm_base": "2025-12-08T22:39:30Z", "copyright": "The data included in this document is from www.openstreetmap.org. The data is made available under ODbL."}, "elements": [{"type": "node", "id": 357961096, "lat": 48.8222929, "lon": -104.9446873, "tags": {"addr:housenumber": "302", "addr:street": "Davis Street", "entrance": "yes"}}, {"type": "node", "id": 357961324, "lat": 48.8216926, "lon": -104.9441394, "tags": {"amenity": "post_office", "ele": "643", "gnis:feature_id": "1677548", "name": "Redstone Post Office"}}, {"type": "node", "id": 7188205059, "lat": 48.8223161, "lon": -104.9446515}, {"type": "node", "id": 7188205061, "lat": 48.8223375, "lon": -104.9445255}, {"type": "node", "id": 7188205062, "lat": 48.8222812, "lon": -104.9447052}, {"type": "node", "id": 7188205064, "lat": 48.8222855, "lon": -104.9446057}, {"type": "node", "id": 7188205065, "lat": 48.8222841, "lon": -104.9444454}, {"type": "node", "id": 7188205067, "lat": 48.8221972, "lon": -104.9445792}, {"type": "way", "id": 769993416, "nodes": [357961096, 7188205062, 7188205067, 7188205065, 7188205061, 7188205064, 7188205059, 357961096], "tags": {"addr:housenumber": "302", "addr:state": "MT", "addr:street": "Davis Street", "amenity": "place_of_worship", "denomination": "methodist", "ele": "643", "gnis:feature_id": "1677485", "name": "Redstone Methodist Church", "religion": "christian"}}]}