{"version": 0.6, "generator": "Overpass API 0.7.62.8 e802775f", "osm3s": {"timestamp_osm_base": "2025-12-12T18:44:25Z", "copyright": "The data included in this document is from www.openstreetmap.org. The data is made available under ODbL."}, "elements": [{"type": "node", "id": 1431403650, "lat": 39.206527, "lon": -106.9535723, "tags": {"addr:city": "Snowmass Village", "addr:housenumber": "67", "addr:postcode": "81615", "addr:state": "CO", "addr:street": "Elbert Lane", "amenity": "restaurant", "cuisine": "barbecue", "name": "Slow Groovin BBQ", "phone": "+1-970-429-4761", "website": "https://www.slowgroovinsnowmass.com/"}}, {"type": "node", "id": 1431404113, "lat": 39.2059526, "lon": -106.953972, "tags": {"amenity": "conference_centre", "name": "Silvertree Conference Center"}}, {"type": "node", "id": 1431405135, "lat": 39.206446, "lon": -106.9526949, "tags": {"amenity": "restaurant", "contact:facebook": "vengacantina", "cuisine": "mexican", "name": "Venga Venga", "opening_hours": "Mo-Su 11:00-18:00", "phone": "+1-970-923-7777", "website": "https://www.eatvengavenga.com/"}}, {"type": "node", "id": 1432004196, "lat": 39.2108024, "lon": -106.9466421}, {"type": "node", "id": 1432015945, "lat": 39.2114542, "lon": -106.9456821, "tags": {"amenity": "bank", "name": "Vectra Bank"}}, {"type": "node", "id": 1432337015, "lat": 39.2113993, "lon": -106.9471685}, {"type": "node", "id": 1432337023, "lat": 39.2115751, "lon": -106.9476048}, {"type": "node", "id": 1432337025, "lat": 39.2112106, "lon": -106.9473181}, {"type": "node", "id": 1432337037, "lat": 39.2114662, "lon": -106.9478456}, {"type": "node", "id": 2405238888, "lat": 39.2121019, "lon": -106.9197247}, {"type": "node", "id": 2405238890, "lat": 39.2121254, "lon": -106.91963}, {"type": "node", "id": 2405238892, "lat": 39.212149, "lon": -106.9196973}, {"type": "node", "id": 2405238894, "lat": 39.2124023, "lon": -106.9205823}, {"type": "node", "id": 2405238896, "lat": 39.2124792, "lon": -106.9194236}, {"type": "node", "id": 2405238898, "lat": 39.2125799, "lon": -106.9197112}, {"type": "node", "id": 2405238899, "lat": 39.212781, "lon": -106.9195939}, {"type": "node", "id": 2405238901, "lat": 39.2130042, "lon": -106.9202311}, {"type": "node", "id": 2405238903, "lat": 39.2134298, "lon": -106.920502}, {"type": "node", "id": 2405238905, "lat": 39.2134734, "lon": -106.9218358}, {"type": "node", "id": 2405238907, "lat": 39.2134819, "lon": -106.9204273}, {"type": "node", "id": 2405238908, "lat": 39.2134842, "lon": -106.9204991}, {"type": "node", "id": 2405238909, "lat": 39.2135291, "lon": -106.9218328}, {"type": "node", "id": 2405238910, "lat": 39.2135314, "lon": -106.9219027}, {"type": "node", "id": 2405238911, "lat": 39.2137072, "lon": -106.920415}, {"type": "node", "id": 2405238913, "lat": 39.2137096, "lon": -106.9204868}, {"type": "node", "id": 2405238915, "lat": 39.21376, "lon": -106.920484}, {"type": "node", "id": 2405238917, "lat": 39.2137796, "lon": -106.9210826}, {"type": "node", "id": 2405238919, "lat": 39.2139236, "lon": -106.9218113}, {"type": "node", "id": 2405238921, "lat": 39.2139259, "lon": -106.9218812}, {"type": "node", "id": 2405238922, "lat": 39.2139408, "lon": -106.9210739}, {"type": "node", "id": 2405238936, "lat": 39.2139648, "lon": -106.921809}, {"type": "node", "id": 2406133083, "lat": 39.2236455, "lon": -106.9263619}, {"type": "node", "id": 2406133084, "lat": 39.2236812, "lon": -106.9262728}, {"type": "node", "id": 2406133085, "lat": 39.2236928, "lon": -106.9263501}, {"type": "node", "id": 2406133086, "lat": 39.2237404, "lon": -106.9269924}, {"type": "node", "id": 2406133087, "lat": 39.2237931, "lon": -106.9269792}, {"type": "node", "id": 2406133088, "lat": 39.2238395, "lon": -106.9272876}, {"type": "node", "id": 2406133089, "lat": 39.2239328, "lon": -106.9262097}, {"type": "node", "id": 2406133090, "lat": 39.2241928, "lon": -106.9263866}, {"type": "node", "id": 2406133091, "lat": 39.2242482, "lon": -106.9271144}, {"type": "node", "id": 2406133092, "lat": 39.2242585, "lon": -106.9271825}, {"type": "node", "id": 2406133093, "lat": 39.2243004, "lon": -106.9271013}, {"type": "node", "id": 2411435749, "lat": 39.2099588, "lon": -106.9407765}, {"type": "node", "id": 2411435750, "lat": 39.2099588, "lon": -106.9409154}, {"type": "node", "id": 2411435753, "lat": 39.209982, "lon": -106.9407396}, {"type": "node", "id": 2411435754, "lat": 39.209982, "lon": -106.9407765}, {"type": "node", "id": 2411435755, "lat": 39.209982, "lon": -106.9409154}, {"type": "node", "id": 2411435756, "lat": 39.209982, "lon": -106.9409726}, {"type": "node", "id": 2411435774, "lat": 39.2100396, "lon": -106.9407022}, {"type": "node", "id": 2411435775, "lat": 39.2100396, "lon": -106.9407396}, {"type": "node", "id": 2411435776, "lat": 39.2100433, "lon": -106.9409154}, {"type": "node", "id": 2411435777, "lat": 39.2100433, "lon": -106.9409726}, {"type": "node", "id": 2411435786, "lat": 39.2100917, "lon": -106.9406696}, {"type": "node", "id": 2411435787, "lat": 39.2100917, "lon": -106.9407022}, {"type": "node", "id": 2411435800, "lat": 39.2101369, "lon": -106.9406696}, {"type": "node", "id": 2411435801, "lat": 39.2101369, "lon": -106.940707}, {"type": "node", "id": 2411435814, "lat": 39.2101754, "lon": -106.9406621}, {"type": "node", "id": 2411435815, "lat": 39.2101754, "lon": -106.940707}, {"type": "node", "id": 2411435816, "lat": 39.2101754, "lon": -106.9408807}, {"type": "node", "id": 2411435817, "lat": 39.2101754, "lon": -106.9409154}, {"type": "node", "id": 2411435830, "lat": 39.2102317, "lon": -106.9406621}, {"type": "node", "id": 2411435831, "lat": 39.2102317, "lon": -106.9406952}, {"type": "node", "id": 2411435832, "lat": 39.2102317, "lon": -106.9408807}, {"type": "node", "id": 2411435833, "lat": 39.2102317, "lon": -106.9409154}, {"type": "node", "id": 2411435853, "lat": 39.2102867, "lon": -106.9409154}, {"type": "node", "id": 2411435854, "lat": 39.2102867, "lon": -106.9409369}, {"type": "node", "id": 2411435855, "lat": 39.2102872, "lon": -106.9406952}, {"type": "node", "id": 2411435856, "lat": 39.2102872, "lon": -106.9407328}, {"type": "node", "id": 2411435874, "lat": 39.2103739, "lon": -106.9407328}, {"type": "node", "id": 2411435875, "lat": 39.2103739, "lon": -106.9407711}, {"type": "node", "id": 2411435876, "lat": 39.2103739, "lon": -106.9409149}, {"type": "node", "id": 2411435877, "lat": 39.2103739, "lon": -106.9409369}, {"type": "node", "id": 2411435879, "lat": 39.2103799, "lon": -106.940889}, {"type": "node", "id": 2411435880, "lat": 39.2103799, "lon": -106.9409149}, {"type": "node", "id": 2411435886, "lat": 39.2103828, "lon": -106.9408128}, {"type": "node", "id": 2411435887, "lat": 39.2103828, "lon": -106.9408338}, {"type": "node", "id": 2411435895, "lat": 39.2104011, "lon": -106.9407711}, {"type": "node", "id": 2411435896, "lat": 39.2104011, "lon": -106.9408128}, {"type": "node", "id": 2411435897, "lat": 39.2104032, "lon": -106.9408338}, {"type": "node", "id": 2411435898, "lat": 39.2104032, "lon": -106.940889}, {"type": "node", "id": 2412129459, "lat": 39.2107354, "lon": -106.9466453}, {"type": "node", "id": 2412129529, "lat": 39.2107805, "lon": -106.9468202}, {"type": "node", "id": 2412129564, "lat": 39.2107965, "lon": -106.946619}, {"type": "node", "id": 2412129670, "lat": 39.2108744, "lon": -106.9467751}, {"type": "node", "id": 2412129676, "lat": 39.2108755, "lon": -106.9467794}, {"type": "node", "id": 2412129751, "lat": 39.2109144, "lon": -106.9466688}, {"type": "node", "id": 2412129777, "lat": 39.210923, "lon": -106.9465902}, {"type": "node", "id": 2412129817, "lat": 39.2109351, "lon": -106.9467489}, {"type": "node", "id": 2412129830, "lat": 39.2109405, "lon": -106.9466576}, {"type": "node", "id": 2412130044, "lat": 39.211264, "lon": -106.9474301}, {"type": "node", "id": 2412130051, "lat": 39.2112835, "lon": -106.9474994}, {"type": "node", "id": 2412130056, "lat": 39.2113141, "lon": -106.9475754}, {"type": "node", "id": 2412130058, "lat": 39.2113151, "lon": -106.947692}, {"type": "node", "id": 2412130062, "lat": 39.211349, "lon": -106.9476511}, {"type": "node", "id": 2412130069, "lat": 39.21141, "lon": -106.9478228}, {"type": "node", "id": 2412130072, "lat": 39.2114153, "lon": -106.9478164}, {"type": "node", "id": 2412130074, "lat": 39.2114336, "lon": -106.9472684}, {"type": "node", "id": 2412130085, "lat": 39.2114432, "lon": -106.9472608}, {"type": "node", "id": 2412130088, "lat": 39.2114504, "lon": -106.9478647}, {"type": "node", "id": 2412130123, "lat": 39.2114727, "lon": -106.9478545}, {"type": "node", "id": 2412130132, "lat": 39.2114897, "lon": -106.9474468}, {"type": "node", "id": 2412130152, "lat": 39.2115106, "lon": -106.9474302}, {"type": "node", "id": 2412130168, "lat": 39.211537, "lon": -106.9475462}, {"type": "node", "id": 2412130169, "lat": 39.2115444, "lon": -106.9475404}, {"type": "node", "id": 2412130171, "lat": 39.2115562, "lon": -106.9476198}, {"type": "node", "id": 2412130195, "lat": 39.2116079, "lon": -106.9476911}, {"type": "node", "id": 2412433204, "lat": 39.2074212, "lon": -106.954564}, {"type": "node", "id": 2412433233, "lat": 39.2076552, "lon": -106.9551004}, {"type": "node", "id": 2412433235, "lat": 39.2076843, "lon": -106.9543727}, {"type": "node", "id": 2412433236, "lat": 39.2077171, "lon": -106.9543448}, {"type": "node", "id": 2412433239, "lat": 39.2079184, "lon": -106.9549091}, {"type": "node", "id": 2412433241, "lat": 39.2079607, "lon": -106.954903}, {"type": "node", "id": 2412433243, "lat": 39.2079948, "lon": -106.954143}, {"type": "node", "id": 2412433245, "lat": 39.2080391, "lon": -106.9541383}, {"type": "node", "id": 2412433247, "lat": 39.2082384, "lon": -106.9547012}, {"type": "node", "id": 2412433249, "lat": 39.208326, "lon": -106.9539677}, {"type": "node", "id": 2412433251, "lat": 39.2083439, "lon": -106.9547768}, {"type": "node", "id": 2412433253, "lat": 39.2083486, "lon": -106.95392}, {"type": "node", "id": 2412433263, "lat": 39.2084144, "lon": -106.9530902}, {"type": "node", "id": 2412433265, "lat": 39.2084215, "lon": -106.9529734}, {"type": "node", "id": 2412433267, "lat": 39.2084292, "lon": -106.9535517}, {"type": "node", "id": 2412433269, "lat": 39.2084655, "lon": -106.9537738}, {"type": "node", "id": 2412433271, "lat": 39.208472, "lon": -106.9527701}, {"type": "node", "id": 2412433273, "lat": 39.2084847, "lon": -106.9538152}, {"type": "node", "id": 2412433275, "lat": 39.2084908, "lon": -106.9527261}, {"type": "node", "id": 2412433277, "lat": 39.2084925, "lon": -106.9537531}, {"type": "node", "id": 2412433279, "lat": 39.2084971, "lon": -106.9534994}, {"type": "node", "id": 2412433281, "lat": 39.2085482, "lon": -106.9543515}, {"type": "node", "id": 2412433283, "lat": 39.208579, "lon": -106.9526503}, {"type": "node", "id": 2412433285, "lat": 39.2086072, "lon": -106.9545891}, {"type": "node", "id": 2412433287, "lat": 39.2086311, "lon": -106.9525911}, {"type": "node", "id": 2412433289, "lat": 39.2086437, "lon": -106.9544479}, {"type": "node", "id": 2412433291, "lat": 39.2086824, "lon": -106.9544403}, {"type": "node", "id": 2412433293, "lat": 39.208713, "lon": -106.9538077}, {"type": "node", "id": 2412433295, "lat": 39.2087342, "lon": -106.9543842}, {"type": "node", "id": 2412433297, "lat": 39.2087416, "lon": -106.954028}, {"type": "node", "id": 2412433299, "lat": 39.2087882, "lon": -106.9524803}, {"type": "node", "id": 2412433301, "lat": 39.2088214, "lon": -106.9540879}, {"type": "node", "id": 2412433303, "lat": 39.2089023, "lon": -106.9538244}, {"type": "node", "id": 2412433305, "lat": 39.20893, "lon": -106.9532582}, {"type": "node", "id": 2412433307, "lat": 39.2089657, "lon": -106.9527428}, {"type": "node", "id": 2412433309, "lat": 39.2089822, "lon": -106.9537289}, {"type": "node", "id": 2412433310, "lat": 39.2089928, "lon": -106.9535878}, {"type": "node", "id": 2412433311, "lat": 39.2089933, "lon": -106.953211}, {"type": "node", "id": 2412433312, "lat": 39.2090022, "lon": -106.9536576}, {"type": "node", "id": 2412433313, "lat": 39.2090638, "lon": -106.9533684}, {"type": "node", "id": 2412433314, "lat": 39.2090786, "lon": -106.9529825}, {"type": "node", "id": 2412433315, "lat": 39.2091964, "lon": -106.9532695}, {"type": "node", "id": 2454925382, "lat": 39.2144789, "lon": -106.9383134, "tags": {"addr:city": "Snowmass Village", "addr:housenumber": "5307", "addr:postcode": "81615", "addr:state": "CO", "addr:street": "Owl Creek Road", "alt_name": "Snowmass Village Interfaith Chapel", "amenity": "place_of_worship", "name": "Chapel in the Pines", "note": "For Catholic services contact Saint Mary Parish in Aspen, CO", "religion": "christian"}}, {"type": "node", "id": 6791596750, "lat": 39.2089958, "lon": -106.9483829, "tags": {"addr:city": "Snowmass Villiage", "addr:housenumber": "61", "addr:postcode": "81615", "addr:state": "CO", "addr:street": "Wood Road", "amenity": "restaurant", "cuisine": "crepe", "indoor_seating": "no", "name": "The Crepe Shack", "opening_hours": "Mo-Su 07:00-20:00", "outdoor_seating": "yes", "phone": "+1-970-452-2137", "website": "https://thecrepeshack.com/"}}, {"type": "node", "id": 6791844328, "lat": 39.2069973, "lon": -106.9541366, "tags": {"addr:city": "Snowmass Village", "addr:housenumber": "11", "addr:postcode": "81615", "addr:state": "CO", "addr:street": "Snowmass Mall", "amenity": "restaurant", "cuisine": "thai", "name": "Grub Thai", "opening_hours": "Mo-Su 11:00-21:00", "phone": "+1-970-923-9558", "website": "https://www.grubthai.xyz/"}}, {"type": "node", "id": 8421557403, "lat": 39.2142839, "lon": -106.936627, "tags": {"addr:city": "Snowmass Village", "addr:housenumber": "5263", "addr:postcode": "81615", "addr:state": "CO", "addr:street": "Owl Creek Road", "amenity": "arts_centre", "email": "info@andersonranch.org", "name": "Anderson Ranch Arts Center", "phone": "+1-970-923-3181", "website": "https://www.andersonranch.org", "wheelchair": "no"}}, {"type": "node", "id": 9769630853, "lat": 39.2117292, "lon": -106.945511, "tags": {"addr:city": "Aspen", "addr:country": "US", "addr:housenumber": "16", "addr:postcode": "81611", "addr:state": "CO", "addr:street": "Kearns Road", "name": "Law Office of William G. Argeros", "office": "lawyer", "opening_hours": "Mo-Fr 09:00-17:00", "phone": "+1-970-923-6100", "website": "https://argeroslaw.net", "year": "2001"}}, {"type": "node", "id": 10613215882, "lat": 39.2092799, "lon": -106.9484198, "tags": {"addr:housenumber": "3109", "name": "GG's", "opening_hours": "Mo-Su 08:00-20:00", "shop": "convenience"}}, {"type": "node", "id": 10613217034, "lat": 39.2086003, "lon": -106.9493718, "tags": {"amenity": "restaurant", "contact:facebook": "aurumaspensnowmass", "contact:instagram": "aurumaspensnowmass", "indoor_seating": "yes", "name": "Aurum", "opening_hours": "Mo-Su 11:00-21:00", "outdoor_seating": "yes", "website": "https://aurumaspensnowmass.com"}}, {"type": "node", "id": 10613218588, "lat": 39.2086132, "lon": -106.9491661, "tags": {"name": "Performance ski", "shop": "clothes"}}, {"type": "node", "id": 10613233704, "lat": 39.2091989, "lon": -106.9471337, "tags": {"name": "Alux spalon", "opening_hours": "Mo-Sa 09:00-17:00", "phone": "+1-970-923-9407", "shop": "beauty", "website": "https://aluxspalon.com/"}}, {"type": "node", "id": 10613240094, "lat": 39.2088212, "lon": -106.9487936, "tags": {"amenity": "restaurant", "contact:instagram": "kenichisnowmass", "cuisine": "japanese", "name": "Kenichi", "phone": "+1-970-429-8242", "website": "https://kenichiaspen.com/snowmass-2021/"}}, {"type": "node", "id": 10613240604, "lat": 39.2094277, "lon": -106.9473867, "tags": {"amenity": "restaurant", "name": "J\u00fcs", "website": "https://www.jusaspen.com/"}}, {"type": "node", "id": 10613243937, "lat": 39.2087663, "lon": -106.9489631, "tags": {"name": "Sotheby's", "shop": "estate_agent"}}, {"type": "node", "id": 10613257844, "lat": 39.2094657, "lon": -106.9483787, "tags": {"amenity": "ice_cream", "name": "Sundae", "website": "https://www.sundaeicecream.com/"}}, {"type": "node", "id": 10613266528, "lat": 39.2095147, "lon": -106.9480739, "tags": {"name": "Eye pieces", "shop": "optician"}}, {"type": "node", "id": 10616354900, "lat": 39.2059731, "lon": -106.953155, "tags": {"amenity": "restaurant", "name": "First chair", "opening_hours": "Mo-Su 06:00-18:00", "phone": "+1-970-923-8200", "website": "https://www.viewlineresortsnowmass.com/dine/first-chair/"}}, {"type": "node", "id": 10616415192, "lat": 39.2061161, "lon": -106.952938, "tags": {"amenity": "restaurant", "name": "New Belgium ranger station", "opening_hours": "Mo-Su 11:00-20:00", "website": "https://www.rangerstation.org/"}}, {"type": "node", "id": 10616417631, "lat": 39.2083387, "lon": -106.9486699, "tags": {"amenity": "toilets", "wheelchair": "yes"}}, {"type": "node", "id": 10616989856, "lat": 39.2094738, "lon": -106.9498492}, {"type": "node", "id": 10616989857, "lat": 39.2094693, "lon": -106.9495823}, {"type": "node", "id": 10616989858, "lat": 39.2094091, "lon": -106.949584}, {"type": "node", "id": 10616989859, "lat": 39.2094135, "lon": -106.9498509}, {"type": "node", "id": 10617019436, "lat": 39.2085089, "lon": -106.948883, "tags": {"amenity": "restaurant", "cuisine": "italian", "name": "Slice of Italy", "phone": "+1-970-923-2743", "website": "https://slicesnowmass.com/"}}, {"type": "node", "id": 10617026359, "lat": 39.2081911, "lon": -106.9488994, "tags": {"amenity": "restaurant", "name": "Base camp 2", "website": "https://www.basecampsnowmass.com/"}}, {"type": "node", "id": 10617028316, "lat": 39.2091218, "lon": -106.9477053, "tags": {"amenity": "restaurant", "description": "Latin Inspired Cuisine & Bar", "name": "Mowita", "opening_hours": "Mo-Su 12:00-21:00", "phone": "+1-970-592-8676", "website": "https://www.mawita.com/"}}, {"type": "node", "id": 10617028963, "lat": 39.2092866, "lon": -106.9472471, "tags": {"amenity": "restaurant", "name": "Inspirato"}}, {"type": "node", "id": 10617040422, "lat": 39.2094383, "lon": -106.9478002, "tags": {"name": "Ro+Fern", "opening_hours": "Mo-Fr 11:00-17:00; Sa, Su 10:00-17:00", "phone": "+1-970-452-2283", "shop": "clothes", "website": "https://roandfern.com/collections/local-snowmass"}}, {"type": "node", "id": 10617042979, "lat": 39.2091319, "lon": -106.9484984, "tags": {"name": "Coldwell", "shop": "estate_agent", "website": "https://www.masonmorse.com/offices/367-Snowmass-Village"}}, {"type": "node", "id": 10617044570, "lat": 39.208524, "lon": -106.9487334, "tags": {"name": "Four mountain sports", "opening_hours": "Mo-Su 08:00-18:00", "phone": "+1-970-923-0490", "shop": "sports", "website": "https://www.aspensnowmass.com/visit/four-mountain-sports-locations/alpine-lifestyle-snowmass"}}, {"type": "node", "id": 10617044571, "lat": 39.2090683, "lon": -106.9486343, "tags": {"name": "Aspen sport", "shop": "sports", "website": "https://www.aspensports.com/"}}, {"type": "node", "id": 10617045730, "lat": 39.2082687, "lon": -106.9488784, "tags": {"amenity": "restaurant", "contact:instagram": "basecampsnowmass", "indoor_seating": "yes", "name": "Base camp", "opening_hours": "Mo-Su 08:00-21:00", "outdoor_seating": "yes", "website": "https://www.basecampsnowmass.com/"}}, {"type": "node", "id": 10617046583, "lat": 39.2087035, "lon": -106.9489616, "tags": {"amenity": "toilets", "description": "public toilet"}}, {"type": "node", "id": 10617065941, "lat": 39.2091194, "lon": -106.9475441, "tags": {"access": "yes", "amenity": "toilets", "wheelchair": "yes"}}, {"type": "node", "id": 10617065956, "lat": 39.2090913, "lon": -106.9491615}, {"type": "node", "id": 10617065957, "lat": 39.2092026, "lon": -106.948872}, {"type": "node", "id": 10617065958, "lat": 39.2091521, "lon": -106.9488182}, {"type": "node", "id": 10617065959, "lat": 39.2090664, "lon": -106.9489817}, {"type": "node", "id": 10617065960, "lat": 39.2090284, "lon": -106.9491355}, {"type": "node", "id": 10617065961, "lat": 39.2091256, "lon": -106.9490193}, {"type": "node", "id": 10625169185, "lat": 39.2129918, "lon": -106.9205727, "tags": {"amenity": "restaurant", "description": "Sample menu items: Breakfast items, muffins, sandwiches, soups, salads and snacks.", "name": "Two Creeks Caf\u00e9", "opening_hours": "Mo-Su 08:30-16:00", "phone": "+1-970-923-8636", "website": "https://www.aspensnowmass.com/visit/dining/snowmass/two-creeks"}}, {"type": "node", "id": 10635073023, "lat": 39.2099683, "lon": -106.9498192, "tags": {"amenity": "charging_station"}}, {"type": "node", "id": 10646614551, "lat": 39.2115062, "lon": -106.9458408, "tags": {"amenity": "restaurant", "cuisine": "burger", "name": "Daly diner", "website": "https://www.dalydiner.com/"}}, {"type": "node", "id": 10646620501, "lat": 39.2112747, "lon": -106.9462752, "tags": {"amenity": "restaurant", "cuisine": "pizza", "name": "Taster's", "website": "https://www.tasterspizza.com/"}}, {"type": "node", "id": 10646620502, "lat": 39.2114368, "lon": -106.9454242, "tags": {"name": "Douglas Elliman", "shop": "estate_agent", "website": "https://www.elliman.com/colorado/office/594-b-616-616/16-kearns-road-suite-113"}}, {"type": "node", "id": 10646624004, "lat": 39.2115527, "lon": -106.9454502, "tags": {"name": "Clark's", "opening_hours": "Mo-Su 07:00-21:00", "shop": "supermarket", "website": "https://www.clarksmarket.com/locations/snowmass"}}, {"type": "node", "id": 10646664540, "lat": 39.2114581, "lon": -106.9460155, "tags": {"name": "Sundance", "opening_hours": "Mo-Su 10:00-21:00", "shop": "alcohol", "website": "https://sundancewine.com/"}}, {"type": "node", "id": 10647563228, "lat": 39.2086053, "lon": -106.9482694, "tags": {"amenity": "drinking_water", "fountain": "bubbler"}}, {"type": "node", "id": 10958183255, "lat": 39.2082677, "lon": -106.9539805}, {"type": "node", "id": 10958183256, "lat": 39.2083804, "lon": -106.9547785}, {"type": "node", "id": 10958183257, "lat": 39.2081876, "lon": -106.9540333}, {"type": "node", "id": 10958183258, "lat": 39.2081557, "lon": -106.9540526}, {"type": "node", "id": 10958183259, "lat": 39.20831, "lon": -106.9543963}, {"type": "node", "id": 10958183260, "lat": 39.2083423, "lon": -106.9543706}, {"type": "node", "id": 12199700151, "lat": 39.2113373, "lon": -106.9476416, "tags": {"amenity": "polling_station", "location": "outdoor", "opening_hours": "24/7", "polling_station": "ballot_box"}}, {"type": "way", "id": 129897124, "nodes": [2412130072, 2412130088, 1432337037, 2412130123, 2412130195, 2412130171, 1432337023, 2412130169, 2412130168, 2412130132, 2412130152, 2412130074, 2412130085, 1432337015, 1432337025, 2412130044, 2412130051, 2412130056, 2412130062, 2412130058, 2412130069, 2412130072], "tags": {"amenity": "townhall", "building": "townhall", "contact:twitter": "TownofSnowmass", "name": "Snomass Village Town Hall", "phone": "+1-970-923-3777", "source": "Bing", "website": "https://www.tosv.com/"}}, {"type": "way", "id": 232152248, "nodes": [2405238922, 2405238917, 2405238915, 2405238913, 2405238911, 2405238907, 2405238908, 2405238903, 2405238905, 2405238909, 2405238910, 2405238921, 2405238919, 2405238936, 2405238922], "tags": {"amenity": "parking", "network": "Snowmass", "parking": "surface", "source": "Bing", "surface": "paved"}}, {"type": "way", "id": 232152249, "nodes": [2405238901, 2405238899, 2405238898, 2405238896, 2405238890, 2405238892, 2405238888, 2405238894, 2405238901], "tags": {"amenity": "parking", "parking": "surface", "source": "Bing", "surface": "paved"}}, {"type": "way", "id": 232245280, "nodes": [2406133089, 2406133090, 2406133093, 2406133091, 2406133092, 2406133088, 2406133087, 2406133086, 2406133083, 2406133085, 2406133084, 2406133089], "tags": {"amenity": "parking", "network": "Snowmass", "parking": "surface", "source": "Bing", "surface": "paved"}}, {"type": "way", "id": 232829353, "nodes": [2411435879, 2411435898, 2411435897, 2411435887, 2411435886, 2411435896, 2411435895, 2411435875, 2411435874, 2411435856, 2411435855, 2411435831, 2411435830, 2411435814, 2411435815, 2411435801, 2411435800, 2411435786, 2411435787, 2411435774, 2411435775, 2411435753, 2411435754, 2411435749, 2411435750, 2411435755, 2411435756, 2411435777, 2411435776, 2411435817, 2411435816, 2411435832, 2411435833, 2411435853, 2411435854, 2411435877, 2411435876, 2411435880, 2411435879], "tags": {"addr:city": "Aspen", "addr:housenumber": "229", "addr:postcode": "81611", "addr:state": "CO", "addr:street": "Ridge Road", "building": "yes", "name": "The Ridge Condominiums", "office": "company", "source": "Bing"}}, {"type": "way", "id": 232895851, "nodes": [2412129817, 2412129751, 2412129830, 2412129777, 1432004196, 2412129564, 2412129459, 2412129529, 2412129676, 2412129670, 2412129817], "tags": {"addr:city": "Snowmass Village", "addr:housenumber": "4929", "addr:postcode": "81615", "addr:state": "CO", "addr:street": "Brush Creek Road", "amenity": "fuel", "brand": "Conoco", "brand:wikidata": "Q109341187", "building": "retail", "name": "Conoco", "self_service": "yes", "source": "Bing", "website": "https://www.conoco.com/station/CON-SNOWMASS-RESORT-CONOCO-0000203200/"}}, {"type": "way", "id": 232924822, "nodes": [2412433287, 2412433305, 2412433311, 2412433313, 2412433315, 2412433314, 2412433307, 2412433299, 2412433287], "tags": {"amenity": "parking", "parking": "surface", "ref": "1", "source": "Bing", "surface": "paved"}}, {"type": "way", "id": 232924823, "nodes": [2412433263, 2412433293, 2412433303, 2412433309, 2412433312, 2412433310, 2412433283, 2412433275, 2412433271, 2412433265, 2412433263], "tags": {"amenity": "parking", "parking": "surface", "ref": "2", "source": "Bing", "surface": "paved"}}, {"type": "way", "id": 232924824, "nodes": [2412433253, 2412433281, 2412433289, 2412433291, 2412433295, 2412433301, 2412433297, 2412433279, 2412433267, 2412433277, 2412433269, 2412433273, 2412433253], "tags": {"amenity": "parking", "parking": "surface", "ref": "3", "source": "Bing", "surface": "paved"}}, {"type": "way", "id": 232924825, "nodes": [2412433245, 2412433251, 10958183256, 2412433285, 2412433249, 10958183255, 10958183257, 10958183260, 10958183259, 10958183258, 2412433245], "tags": {"amenity": "parking", "name": "Village Lot 4", "parking": "surface", "source": "Bing", "surface": "paved"}}, {"type": "way", "id": 232924826, "nodes": [2412433241, 2412433247, 2412433243, 2412433236, 2412433241], "tags": {"amenity": "parking", "parking": "surface", "ref": "5", "source": "Bing", "surface": "paved"}}, {"type": "way", "id": 232924827, "nodes": [2412433204, 2412433233, 2412433239, 2412433235, 2412433204], "tags": {"amenity": "parking", "parking": "surface", "ref": "6", "source": "Bing", "surface": "paved"}}, {"type": "way", "id": 1139061127, "nodes": [10616989856, 10616989857, 10616989858, 10616989859, 10616989856], "tags": {"amenity": "parking", "parking": "street_side"}}, {"type": "way", "id": 1139071746, "nodes": [10617065956, 10617065961, 10617065957, 10617065958, 10617065959, 10617065960, 10617065956], "tags": {"amenity": "parking"}}]}