{"version": 0.6, "generator": "Overpass API 0.7.62.8 e802775f", "osm3s": {"timestamp_osm_base": "2025-12-06T21:15:59Z", "copyright": "The data included in this document is from www.openstreetmap.org. The data is made available under ODbL."}, "elements": [{"type": "node", "id": 4042909087, "lat": 47.5039565, "lon": -122.1581454}, {"type": "node", "id": 4929953834, "lat": 47.4879068, "lon": -122.1663789}, {"type": "node", "id": 6034206571, "lat": 47.4879068, "lon": -122.1661744}, {"type": "node", "id": 6034206572, "lat": 47.4878896, "lon": -122.1661496}, {"type": "node", "id": 6034206573, "lat": 47.4877355, "lon": -122.1661509}, {"type": "node", "id": 6034206574, "lat": 47.4877364, "lon": -122.166401}, {"type": "node", "id": 6034206575, "lat": 47.48789, "lon": -122.1663997}, {"type": "node", "id": 6034207425, "lat": 47.4876029, "lon": -122.164385, "tags": {"addr:city": "Renton", "addr:housenumber": "4020", "addr:postcode": "98056", "addr:state": "WA", "addr:street": "Northeast 3rd Place", "contact:facebook": "https://www.facebook.com/lakewoodhotyoga", "email": "info@hotyoganow.com", "leisure": "fitness_centre", "name": "Hot Yoga Now", "phone": "+1-810-710-9060", "sport": "yoga", "website": "https://hotyoganow.com"}}, {"type": "node", "id": 6120729056, "lat": 47.5039576, "lon": -122.1577672}, {"type": "node", "id": 6120729058, "lat": 47.5039724, "lon": -122.1577674}, {"type": "node", "id": 6120729060, "lat": 47.5034425, "lon": -122.1576838}, {"type": "node", "id": 6120729062, "lat": 47.5039578, "lon": -122.1576814}, {"type": "node", "id": 6120729064, "lat": 47.5034216, "lon": -122.1576868}, {"type": "node", "id": 6120729066, "lat": 47.5034414, "lon": -122.1576838}, {"type": "node", "id": 6120729068, "lat": 47.5034707, "lon": -122.1577645}, {"type": "node", "id": 6120729070, "lat": 47.5034233, "lon": -122.1577644}, {"type": "node", "id": 6120729076, "lat": 47.5034723, "lon": -122.1582282}, {"type": "node", "id": 6120729078, "lat": 47.5039573, "lon": -122.1582201}, {"type": "node", "id": 6120729104, "lat": 47.5039778, "lon": -122.1581427}, {"type": "way", "id": 640544463, "nodes": [6034206575, 6034206574, 6034206573, 6034206572, 6034206571, 4929953834, 6034206575], "tags": {"addr:city": "Renton", "addr:housenumber": "3895", "addr:postcode": "98056", "addr:state": "WA", "addr:street": "Northeast 4th Street", "brand": "Orangetheory Fitness", "brand:wikidata": "Q25005163", "building": "yes", "leisure": "fitness_centre", "name": "Orangetheory Fitness", "phone": "+1-425-892-8405", "ref": "2800", "website": "https://www.orangetheory.com/en-us/locations/washington/renton/3895-ne-4th-street/"}}, {"type": "way", "id": 653046429, "nodes": [6120729058, 6120729056, 6120729062, 6120729060, 6120729066, 6120729064, 6120729070, 6120729068, 6120729076, 6120729078, 4042909087, 6120729104, 6120729058], "tags": {"addr:city": "Renton", "addr:housenumber": "4613", "addr:postcode": "98059", "addr:state": "WA", "addr:street": "Northeast Sunset Boulevard", "brand": "Planet Fitness", "brand:wikidata": "Q7201095", "building": "yes", "leisure": "fitness_centre", "name": "Planet Fitness"}}]}