{"version": 0.6, "generator": "Overpass API 0.7.62.8 e802775f", "osm3s": {"timestamp_osm_base": "2025-12-08T22:29:11Z", "copyright": "The data included in this document is from www.openstreetmap.org. The data is made available under ODbL."}, "elements": [{"type": "node", "id": 357972881, "lat": 48.5697169, "lon": -110.0865991, "tags": {"amenity": "place_of_worship", "denomination": "lutheran", "ele": "872", "gnis:feature_id": "1744050", "name": "Kremlin Lutheran Church", "religion": "christian"}}, {"type": "node", "id": 357972884, "lat": 48.5697169, "lon": -110.0865991, "tags": {"amenity": "place_of_worship", "denomination": "methodist", "ele": "872", "gnis:feature_id": "1744051", "name": "Kremlin United Methodist Church", "religion": "christian"}}, {"type": "node", "id": 7265125616, "lat": 48.5716175, "lon": -110.0868681}, {"type": "node", "id": 7265125617, "lat": 48.5716736, "lon": -110.0868693}, {"type": "node", "id": 7265125624, "lat": 48.5717071, "lon": -110.0868914}, {"type": "node", "id": 7265125625, "lat": 48.5717347, "lon": -110.0868858, "tags": {"amenity": "post_box"}}, {"type": "node", "id": 7265125634, "lat": 48.571684, "lon": -110.0871305}, {"type": "node", "id": 7265125635, "lat": 48.5716483, "lon": -110.0868688}, {"type": "node", "id": 7265125639, "lat": 48.5716153, "lon": -110.0870848}, {"type": "node", "id": 7265125642, "lat": 48.5717073, "lon": -110.0868703}, {"type": "node", "id": 7265125654, "lat": 48.5716844, "lon": -110.0870863}, {"type": "node", "id": 7265125659, "lat": 48.5716358, "lon": -110.0870852}, {"type": "node", "id": 7265125667, "lat": 48.5716173, "lon": -110.0868892}, {"type": "node", "id": 7265125677, "lat": 48.5717051, "lon": -110.0870868}, {"type": "node", "id": 7265125682, "lat": 48.5716354, "lon": -110.0871294}, {"type": "node", "id": 11792780953, "lat": 48.5692722, "lon": -110.0861111}, {"type": "node", "id": 11792780954, "lat": 48.5695153, "lon": -110.0861111}, {"type": "node", "id": 11792780955, "lat": 48.5692722, "lon": -110.086374}, {"type": "node", "id": 11792780956, "lat": 48.5695153, "lon": -110.0860038}, {"type": "node", "id": 11792780957, "lat": 48.569652, "lon": -110.0860038}, {"type": "node", "id": 11792780958, "lat": 48.569652, "lon": -110.086374}, {"type": "way", "id": 778427537, "nodes": [7265125642, 7265125617, 7265125635, 7265125616, 7265125667, 7265125639, 7265125659, 7265125682, 7265125634, 7265125654, 7265125677, 7265125624, 7265125642], "tags": {"addr:housenumber": "210", "addr:state": "MT", "addr:street": "Central", "amenity": "post_office", "building": "yes", "ele": "872", "gnis:feature_id": "1744095", "name": "Kremlin Post Office"}}, {"type": "way", "id": 1270045281, "nodes": [11792780958, 11792780957, 11792780956, 11792780954, 11792780953, 11792780955, 11792780958], "tags": {"amenity": "school", "building": "yes", "ele": "872", "gnis:feature_id": "1743996", "name": "K-G Elementary School"}}]}